{"src":"https://a0.muscache.com/im/pictures/18653936/a6e4d653_original.jpg?aki_policy=xx_large","name":"Amazing SkyStudio on 30th floor 735","listingId":1229850,"photoId":"100-6","tags":[{"name":"chair","coordinates":[0.6215523242950439,0.7559890747070312,0.22471487522125244,0.349054495493571]},{"name":"sofa","coordinates":[0.34849588871002196,0.5387102762858073,0.1496748685836792,0.24478987058003743]},{"name":"diningtable","coordinates":[0.6185441493988038,0.5647446314493815,0.13776711225509644,0.1313091039657593]},{"name":"tvmonitor","coordinates":[0.8755309104919433,0.5118628819783528,0.0569976270198822,0.11821409861246744]},{"name":"vase","coordinates":[0.8326370239257812,0.4889779726664225,0.020527797937393188,0.04561235507329305]}]}
