{"src":"https://a0.muscache.com/im/pictures/2f29213a-ae9c-4552-b0a7-ac9b4505a2fc.jpg?aki_policy=xx_large","name":"Double bedroom in Ballycullen","listingId":20307077,"photoId":"1000-6","tags":[{"name":"oven","coordinates":[0.025198554992675787,0.5132518768310547,0.18671224382188584,0.390981928507487]},{"name":"diningtable","coordinates":[0.8617162174648709,0.4524197737375895,0.13987695905897352,0.30012133916219075]},{"name":"chair","coordinates":[0.8617162174648709,0.4524197737375895,0.13987695905897352,0.30012133916219075]},{"name":"chair","coordinates":[0.8376634650760226,0.43759171962738036,0.07039077546861437,0.25505998929341633]},{"name":"microwave","coordinates":[0.19464311069912382,0.36160570780436196,0.1308673752678765,0.0704010009765625]},{"name":"clock","coordinates":[0.9024415042665269,0.18647213776906332,0.0879233201344808,0.06768399874369303]}]}
