{"src":"https://a0.muscache.com/im/pictures/2f29213a-ae9c-4552-b0a7-ac9b4505a2fc.jpg?aki_policy=xx_large","name":"Double bedroom in Ballycullen","listingId":20307077,"photoId":"1000-6","tags":[{"name":"oven","coordinates":[0.06668700575828553,0.7087428410847981,0.1050256371498108,0.390981928507487]},{"name":"diningtable","coordinates":[0.5240557670593262,0.6024804433186849,0.07868078947067261,0.30012133916219075]},{"name":"chair","coordinates":[0.5240557670593262,0.6024804433186849,0.07868078947067261,0.30012133916219075]},{"name":"chair","coordinates":[0.4909831047058105,0.5651217142740885,0.03959481120109558,0.25505998929341633]},{"name":"microwave","coordinates":[0.14629319906234742,0.39680620829264324,0.07361289858818054,0.0704010009765625]},{"name":"clock","coordinates":[0.5323517799377442,0.22031413714090983,0.04945686757564545,0.06768399874369303]}]}
