{"src":"https://a0.muscache.com/im/pictures/ae4265ce-9ab5-4b1b-b069-1a8c63fc78f3.jpg?aki_policy=xx_large","name":"Double bedroom in Ballycullen","listingId":20307077,"photoId":"1000-2","tags":[{"name":"diningtable","coordinates":[0.5051148732503256,0.7246102015177409,0.9371287027994791,0.5803588231404623]},{"name":"diningtable","coordinates":[0.5219120873345269,0.7220102310180664,0.5052601284450955,0.4733327547709147]},{"name":"chair","coordinates":[0.19496368832058378,0.7347036361694336,0.3510654025607639,0.4560625712076823]},{"name":"chair","coordinates":[0.571573978000217,0.7180423736572266,0.27160352071126304,0.36404218673706057]},{"name":"chair","coordinates":[0.7916746351453993,0.6689284642537435,0.24874816470675998,0.34096978505452474]},{"name":"pottedplant","coordinates":[0.48251224093967016,0.3931509335835775,0.22855052947998047,0.2565086523691813]},{"name":"chair","coordinates":[0.8988094753689236,0.562842051188151,0.15863813824123807,0.30983285903930663]},{"name":"vase","coordinates":[0.5053350236680773,0.4914610226949056,0.08252277374267578,0.04841586748758952]}]}
