{"src":"https://a0.muscache.com/im/pictures/2f29213a-ae9c-4552-b0a7-ac9b4505a2fc.jpg?aki_policy=xx_large","name":"Double bedroom in Ballycullen","listingId":20307077,"photoId":"1000-6","tags":[{"name":"oven","coordinates":[0.1185546769036187,0.7087428410847981,0.18671224382188584,0.390981928507487]},{"name":"diningtable","coordinates":[0.9316546969943577,0.6024804433186849,0.13987695905897352,0.30012133916219075]},{"name":"chair","coordinates":[0.9316546969943577,0.6024804433186849,0.13987695905897352,0.30012133916219075]},{"name":"chair","coordinates":[0.8728588528103298,0.5651217142740885,0.07039077546861437,0.25505998929341633]},{"name":"microwave","coordinates":[0.2600767983330621,0.39680620829264324,0.1308673752678765,0.0704010009765625]},{"name":"clock","coordinates":[0.9464031643337674,0.22031413714090983,0.0879233201344808,0.06768399874369303]}]}
