{"src":"https://a0.muscache.com/im/pictures/ae4265ce-9ab5-4b1b-b069-1a8c63fc78f3.jpg?aki_policy=xx_large","name":"Double bedroom in Ballycullen","listingId":20307077,"photoId":"1000-2","tags":[{"name":"diningtable","coordinates":[0.03655052185058599,0.4344307899475098,0.9371287027994791,0.5803588231404623]},{"name":"diningtable","coordinates":[0.26928202311197913,0.485343853632609,0.5052601284450955,0.4733327547709147]},{"name":"chair","coordinates":[0.019430987040201825,0.5066723505655925,0.3510654025607639,0.4560625712076823]},{"name":"chair","coordinates":[0.4357722176445855,0.5360212802886963,0.27160352071126304,0.36404218673706057]},{"name":"chair","coordinates":[0.6673005527920193,0.4984435717264811,0.24874816470675998,0.34096978505452474]},{"name":"pottedplant","coordinates":[0.36823697619967993,0.26489660739898685,0.22855052947998047,0.2565086523691813]},{"name":"chair","coordinates":[0.8194904062483046,0.40792562166849766,0.15863813824123807,0.30983285903930663]},{"name":"vase","coordinates":[0.46407363679673935,0.46725308895111084,0.08252277374267578,0.04841586748758952]}]}
