{"src":"https://a0.muscache.com/im/pictures/2b404c82-a737-443d-94eb-74728441e97d.jpg?aki_policy=xx_large","name":"Pol Y Su House","listingId":20329494,"photoId":"1003-1","tags":[{"name":"diningtable","coordinates":[0.5794378068712023,0.6055411020914714,0.30789773729112413,0.3776139259338379]},{"name":"sofa","coordinates":[0.09499706692165799,0.7591636021931966,0.19752044677734376,0.4954932848612467]},{"name":"chair","coordinates":[0.09499706692165799,0.7591636021931966,0.19752044677734376,0.4954932848612467]},{"name":"chair","coordinates":[0.8567164950900608,0.8732205073038737,0.27717730204264324,0.21982510884602866]},{"name":"chair","coordinates":[0.4800957997639974,0.6387147267659505,0.1487603505452474,0.37538382212320964]},{"name":"chair","coordinates":[0.6857503255208334,0.5985586166381835,0.13785809410942926,0.3684199333190918]},{"name":"chair","coordinates":[0.5135605282253689,0.40886319478352867,0.0640837722354465,0.041070576508839926]},{"name":"chair","coordinates":[0.44670889112684464,0.4317052205403646,0.05911458863152398,0.04446449677149455]},{"name":"bottle","coordinates":[0.8405366685655382,0.04883139530817668,0.024378241433037653,0.09727149804433187]},{"name":"bottle","coordinates":[0.8223870171440972,0.05402435859044393,0.020880470010969373,0.10229490598042806]},{"name":"bowl","coordinates":[0.5915012783474393,0.42453111012776695,0.03861988385518392,0.026374957958857217]}]}
