{"src":"https://a0.muscache.com/im/pictures/f0e3a735-b611-46c7-8e73-a2a816a96260.jpg?aki_policy=xx_large","name":"Studio Scheveningen, beach 800m","listingId":2476913,"photoId":"1003-2","tags":[{"name":"chair","coordinates":[0.4966383616129557,0.6917968114217122,0.2367496066623264,0.5828363418579101]},{"name":"chair","coordinates":[0.6656554328070746,0.6431548436482747,0.19298108418782553,0.5180905342102051]},{"name":"chair","coordinates":[0.13953925238715278,0.5840516408284505,0.18641088273790146,0.4053552945454915]},{"name":"chair","coordinates":[0.71283933851454,0.5850790023803711,0.12047522862752279,0.498988405863444]},{"name":"chair","coordinates":[0.2806044472588433,0.5863988240559895,0.13225412368774414,0.3783411661783854]},{"name":"vase","coordinates":[0.28339593675401475,0.5073458671569824,0.03740144570668538,0.09490280151367188]},{"name":"apple","coordinates":[0.5867287953694661,0.4271652857462565,0.025087822808159722,0.02586450974146525]},{"name":"orange","coordinates":[0.5867287953694661,0.4271652857462565,0.025087822808159722,0.02586450974146525]}]}
