{"src":"https://a0.muscache.com/im/pictures/2b404c82-a737-443d-94eb-74728441e97d.jpg?aki_policy=xx_large","name":"Pol Y Su House","listingId":20329494,"photoId":"1003-1","tags":[{"name":"diningtable","coordinates":[0.4254889382256402,0.4167341391245524,0.30789773729112413,0.3776139259338379]},{"name":"sofa","coordinates":[-0.0037631564670138895,0.5114169597625732,0.19752044677734376,0.4954932848612467]},{"name":"chair","coordinates":[-0.0037631564670138895,0.5114169597625732,0.19752044677734376,0.4954932848612467]},{"name":"chair","coordinates":[0.7181278440687391,0.7633079528808594,0.27717730204264324,0.21982510884602866]},{"name":"chair","coordinates":[0.4057156244913737,0.4510228157043457,0.1487603505452474,0.37538382212320964]},{"name":"chair","coordinates":[0.6168212784661188,0.41434864997863763,0.13785809410942926,0.3684199333190918]},{"name":"chair","coordinates":[0.48151864210764567,0.3883279065291087,0.0640837722354465,0.041070576508839926]},{"name":"chair","coordinates":[0.41715159681108266,0.4094729721546173,0.05911458863152398,0.04446449677149455]},{"name":"bottle","coordinates":[0.8283475478490194,0.00019564628601074358,0.024378241433037653,0.09727149804433187]},{"name":"bottle","coordinates":[0.8119467821386126,0.0028769056002298996,0.020880470010969373,0.10229490598042806]},{"name":"bowl","coordinates":[0.5721913364198473,0.41134363114833833,0.03861988385518392,0.026374957958857217]}]}
