{"src":"https://a0.muscache.com/im/pictures/9a05947d-8c8b-41bc-b4a3-13c09beae484.jpg?aki_policy=xx_large","name":"Cosy floor + rooftop downtown","listingId":2477753,"photoId":"1004-1","tags":[{"name":"bed","coordinates":[1.8180363178253174,0.7624521891276042,1.6817042827606201,0.4620370864868164]},{"name":"chair","coordinates":[0.8096089363098145,0.6911441167195638,0.3897421360015869,0.3367064158121745]},{"name":"clock","coordinates":[0.4225122928619385,0.23207023938496907,0.10995501279830933,0.07129712104797363]},{"name":"book","coordinates":[1.1564531326293945,0.4319163958231608,0.032464705407619476,0.05564411083857219]},{"name":"book","coordinates":[1.2124677896499634,0.503647263844808,0.02845778875052929,0.056971542040507]},{"name":"book","coordinates":[1.2077744007110596,0.34695707956949867,0.028366900980472565,0.054550973574320476]},{"name":"book","coordinates":[1.2117277383804321,0.2838575998942057,0.028452951461076736,0.05193713903427124]},{"name":"book","coordinates":[1.160853385925293,0.28546549479166666,0.026513686403632164,0.05123467842737834]},{"name":"book","coordinates":[1.159645915031433,0.3451038360595703,0.024478260427713394,0.052352039019266765]}]}
