{"src":"https://a0.muscache.com/im/pictures/fb6a20ac-4843-41e7-a3c4-ee4a4cc3800a.jpg?aki_policy=xx_large","name":"2 bikes for Yokohama sightseeing! 2 mins to Sta.","listingId":20349717,"photoId":"1006-10","tags":[{"name":"bed","coordinates":[0.3611194610595703,0.7586039225260417,0.7084721883138021,0.49175424575805665]},{"name":"sofa","coordinates":[0.8816035800509983,0.7671220779418946,0.23793758816189237,0.4612553278605143]},{"name":"sofa","coordinates":[0.7272167629665799,0.5757282257080079,0.25899637010362414,0.2899555842081706]},{"name":"tvmonitor","coordinates":[0.2522703806559245,0.4924528439839681,0.06945557064480251,0.16855847040812175]},{"name":"clock","coordinates":[0.16231490241156685,0.13759576479593913,0.04881883197360569,0.10063858826955159]},{"name":"book","coordinates":[0.5698595682779948,0.5503960927327474,0.03448543283674452,0.02531916896502177]}]}
