{"src":"https://a0.muscache.com/im/pictures/04e2136a-7909-434a-a84a-b974ce551d5a.jpg?aki_policy=xx_large","name":"2 bikes for Yokohama sightseeing! 2 mins to Sta.","listingId":20349717,"photoId":"1006-7","tags":[{"name":"sofa","coordinates":[0.42916102939181855,0.7987728754679362,0.6275558047824435,0.35395145416259766]},{"name":"bed","coordinates":[0.8506410386827257,0.7453020095825196,0.31196636623806423,0.4166720390319824]},{"name":"diningtable","coordinates":[0.7852643330891927,0.9474477767944336,0.3742823282877604,0.11474591890970866]},{"name":"bowl","coordinates":[0.755336676703559,0.9394941965738932,0.05214736726548937,0.059657116731007896]},{"name":"cup","coordinates":[0.8042112562391494,0.9684916814168294,0.03220204247368707,0.05927652915318807]}]}
