{"src":"https://a0.muscache.com/im/pictures/fb6a20ac-4843-41e7-a3c4-ee4a4cc3800a.jpg?aki_policy=xx_large","name":"2 bikes for Yokohama sightseeing! 2 mins to Sta.","listingId":20349717,"photoId":"1006-10","tags":[{"name":"bed","coordinates":[0.4062593936920166,0.7586039225260417,0.7970312118530274,0.49175424575805665]},{"name":"sofa","coordinates":[0.9918040275573731,0.7671220779418946,0.2676797866821289,0.4612553278605143]},{"name":"sofa","coordinates":[0.8181188583374024,0.5757282257080079,0.29137091636657714,0.2899555842081706]},{"name":"tvmonitor","coordinates":[0.28380417823791504,0.4924528439839681,0.07813751697540283,0.16855847040812175]},{"name":"clock","coordinates":[0.1826042652130127,0.13759576479593913,0.054921185970306395,0.10063858826955159]},{"name":"book","coordinates":[0.6410920143127441,0.5503960927327474,0.038796111941337585,0.02531916896502177]}]}
