{"src":"https://a0.muscache.com/im/pictures/fb6a20ac-4843-41e7-a3c4-ee4a4cc3800a.jpg?aki_policy=xx_large","name":"2 bikes for Yokohama sightseeing! 2 mins to Sta.","listingId":20349717,"photoId":"1006-10","tags":[{"name":"bed","coordinates":[0.0068833669026692745,0.5127267996470134,0.7084721883138021,0.49175424575805665]},{"name":"sofa","coordinates":[0.7626347859700521,0.5364944140116374,0.23793758816189237,0.4612553278605143]},{"name":"sofa","coordinates":[0.5977185779147678,0.43075043360392257,0.25899637010362414,0.2899555842081706]},{"name":"tvmonitor","coordinates":[0.21754259533352324,0.4081736087799072,0.06945557064480251,0.16855847040812175]},{"name":"clock","coordinates":[0.137905486424764,0.08727647066116334,0.04881883197360569,0.10063858826955159]},{"name":"book","coordinates":[0.5526168518596225,0.5377365082502364,0.03448543283674452,0.02531916896502177]}]}
