{"src":"https://a0.muscache.com/im/pictures/04e2136a-7909-434a-a84a-b974ce551d5a.jpg?aki_policy=xx_large","name":"2 bikes for Yokohama sightseeing! 2 mins to Sta.","listingId":20349717,"photoId":"1006-7","tags":[{"name":"sofa","coordinates":[0.4828061580657959,0.7987728754679362,0.706000280380249,0.35395145416259766]},{"name":"bed","coordinates":[0.9569711685180664,0.7453020095825196,0.35096216201782227,0.4166720390319824]},{"name":"diningtable","coordinates":[0.8834223747253418,0.9474477767944336,0.4210676193237305,0.11474591890970866]},{"name":"bowl","coordinates":[0.8497537612915039,0.9394941965738932,0.058665788173675536,0.059657116731007896]},{"name":"cup","coordinates":[0.9047376632690429,0.9684916814168294,0.036227297782897946,0.05927652915318807]}]}
