{"src":"https://a0.muscache.com/im/pictures/dee3b92b-d4bc-459b-b3b7-171dcfcb3587.jpg?aki_policy=xx_large","name":"2 bikes for Yokohama sightseeing! 2 mins to Sta.","listingId":20349717,"photoId":"1006-19","tags":[{"name":"bed","coordinates":[0.738242679172092,0.8754440307617187,0.4827145046657986,0.21014761924743652]},{"name":"sofa","coordinates":[0.20240643819173176,0.8315130233764648,0.3037753634982639,0.29129082361857095]},{"name":"sofa","coordinates":[0.7395648532443576,0.6568457921346028,0.2888756434122721,0.2938840866088867]},{"name":"tvmonitor","coordinates":[0.26712724897596574,0.6034763336181641,0.08103365368313259,0.1813696066538493]},{"name":"clock","coordinates":[0.07044124603271484,0.15641868909200032,0.08271416028340657,0.1424524943033854]}]}
