{"src":"https://a0.muscache.com/im/pictures/dee3b92b-d4bc-459b-b3b7-171dcfcb3587.jpg?aki_policy=xx_large","name":"2 bikes for Yokohama sightseeing! 2 mins to Sta.","listingId":20349717,"photoId":"1006-19","tags":[{"name":"bed","coordinates":[0.4968854268391927,0.7703702211380005,0.4827145046657986,0.21014761924743652]},{"name":"sofa","coordinates":[0.050518756442599816,0.6858676115671793,0.3037753634982639,0.29129082361857095]},{"name":"sofa","coordinates":[0.5951270315382216,0.5099037488301594,0.2888756434122721,0.2938840866088867]},{"name":"tvmonitor","coordinates":[0.22661042213439944,0.5127915302912395,0.08103365368313259,0.1813696066538493]},{"name":"clock","coordinates":[0.02908416589101156,0.08519244194030762,0.08271416028340657,0.1424524943033854]}]}
