{"src":"https://a0.muscache.com/im/pictures/04e2136a-7909-434a-a84a-b974ce551d5a.jpg?aki_policy=xx_large","name":"2 bikes for Yokohama sightseeing! 2 mins to Sta.","listingId":20349717,"photoId":"1006-7","tags":[{"name":"sofa","coordinates":[0.11538312700059677,0.6217971483866374,0.6275558047824435,0.35395145416259766]},{"name":"bed","coordinates":[0.6946578555636935,0.5369659900665283,0.31196636623806423,0.4166720390319824]},{"name":"diningtable","coordinates":[0.5981231689453126,0.8900748173395793,0.3742823282877604,0.11474591890970866]},{"name":"bowl","coordinates":[0.7292629930708143,0.9096656382083893,0.05214736726548937,0.059657116731007896]},{"name":"cup","coordinates":[0.7881102350023058,0.9388534168402354,0.03220204247368707,0.05927652915318807]}]}
