{"src":"https://a0.muscache.com/im/pictures/d4d7bf0e-a15c-4a2e-baec-132ceb299b06.jpg?aki_policy=xx_large","name":"2 bikes for Yokohama sightseeing! 2 mins to Sta.","listingId":20349717,"photoId":"1006-17","tags":[{"name":"sofa","coordinates":[0.0023087799549102728,-0.012644577026367232,0.1937870502471924,1.0271087646484376]},{"name":"tvmonitor","coordinates":[0.7527627110481262,0.00991992950439452,0.2460876226425171,0.31821072896321617]},{"name":"pottedplant","coordinates":[0.4903154134750366,0.04749519030253091,0.23052315711975097,0.2755753517150879]},{"name":"book","coordinates":[0.42086897492408754,0.3771341800689697,0.050262820720672605,0.29068199793497723]},{"name":"remote","coordinates":[0.24856227040290835,0.5842061758041381,0.0523034930229187,0.10290265083312988]}]}
