{"src":"https://a0.muscache.com/im/pictures/904c69b3-758c-464d-ad78-da9cff3d1d3c.jpg?aki_policy=xx_large","name":"traverlers` home (sheep and horse)","listingId":20359261,"photoId":"1007-8","tags":[{"name":"diningtable","coordinates":[0.30303288212528934,0.29206438064575196,0.5872773347077547,0.327955691019694]},{"name":"bed","coordinates":[-0.005921201352719896,0.6585292021433512,0.5671841091579861,0.3374972343444824]},{"name":"chair","coordinates":[0.21725116305881076,0.2801745573679606,0.3546150490089699,0.32680540084838866]},{"name":"chair","coordinates":[0.7295648786756728,0.31250233650207515,0.28642360545970774,0.31707646052042643]},{"name":"tvmonitor","coordinates":[0.012240840770580158,0.2951767683029175,0.25303796838831016,0.12137354214986165]}]}
