{"src":"https://a0.muscache.com/im/pictures/76506832/0dc8e6a1_original.jpg?aki_policy=xx_large","name":"Lovely House 185m2 near the center","listingId":2493946,"photoId":"1007-7","tags":[{"name":"diningtable","coordinates":[0.5635551452636719,0.8162748336791992,0.23808059692382813,0.37276363372802734]},{"name":"sofa","coordinates":[0.827931022644043,0.628070576985677,0.30496666431427,0.20935670534769693]},{"name":"bench","coordinates":[0.827931022644043,0.628070576985677,0.30496666431427,0.20935670534769693]},{"name":"chair","coordinates":[0.6766098976135254,0.7706437428792318,0.10348552465438843,0.35981810887654625]},{"name":"pottedplant","coordinates":[0.5257421493530273,0.6097245534261068,0.0809171438217163,0.14003225962320964]},{"name":"vase","coordinates":[0.5279589653015136,0.6459662119547526,0.04068976938724518,0.0658500631650289]}]}
