{"src":"https://a0.muscache.com/im/pictures/8cd6a022-8f15-4d9c-8deb-f7cebd99fdd1.jpg?aki_policy=xx_large","name":"traverlers` home (sheep and horse)","listingId":20359261,"photoId":"1007-3","tags":[{"name":"refrigerator","coordinates":[0.7612911648220486,0.7382968266805013,0.3656400892469618,0.5109479904174805]},{"name":"microwave","coordinates":[0.8061776902940538,0.4156426111857096,0.28390687306722007,0.24645121892293295]},{"name":"sink","coordinates":[0.11989733378092447,0.6616477330525716,0.21130504608154296,0.13846325874328613]},{"name":"oven","coordinates":[0.39800296359592013,0.5458417256673177,0.1677692519293891,0.12973685264587403]},{"name":"cup","coordinates":[0.1381418652004666,0.4064222017923991,0.03296650515662299,0.05465925534566243]}]}
