{"src":"https://a0.muscache.com/im/pictures/8cd6a022-8f15-4d9c-8deb-f7cebd99fdd1.jpg?aki_policy=xx_large","name":"traverlers` home (sheep and horse)","listingId":20359261,"photoId":"1007-3","tags":[{"name":"refrigerator","coordinates":[0.5784711201985677,0.4828228314717611,0.3656400892469618,0.5109479904174805]},{"name":"microwave","coordinates":[0.6642242537604438,0.2924170017242431,0.28390687306722007,0.24645121892293295]},{"name":"sink","coordinates":[0.014244810740152991,0.5924161036809286,0.21130504608154296,0.13846325874328613]},{"name":"oven","coordinates":[0.3141183376312256,0.4809732993443807,0.1677692519293891,0.12973685264587403]},{"name":"cup","coordinates":[0.12165861262215509,0.37909257411956787,0.03296650515662299,0.05465925534566243]}]}
