{"src":"https://a0.muscache.com/im/pictures/87a59800-9628-42a1-ab0b-d83478df00fa.jpg?aki_policy=xx_large","name":"Holiday home Scheveningen, beach in 500m","listingId":2514624,"photoId":"1009-0","tags":[{"name":"diningtable","coordinates":[0.39663874308268227,0.878874397277832,0.742527092827691,0.21371153195699055]},{"name":"chair","coordinates":[0.16823460261027018,0.8272273381551106,0.2663709216647678,0.2818095842997233]},{"name":"sofa","coordinates":[0.15038092931111655,0.6202056248982747,0.19819694095187718,0.27556034723917644]},{"name":"chair","coordinates":[0.7203968471950954,0.8519741058349609,0.1975338617960612,0.2573391437530518]},{"name":"sofa","coordinates":[0.3183654573228624,0.5213701883951823,0.18516084882948133,0.14374494552612305]},{"name":"pottedplant","coordinates":[0.60588501824273,0.5361952463785807,0.07459765010409886,0.10731348196665445]},{"name":"tvmonitor","coordinates":[0.545572026570638,0.5030904452006022,0.05802182091606988,0.10720747311909994]},{"name":"vase","coordinates":[0.6070319281684028,0.565712038675944,0.0246012634701199,0.0397534171740214]}]}
