{"src":"https://a0.muscache.com/im/pictures/06138f4d-9e93-4081-845c-864442270fa3.jpg?aki_policy=xx_large","name":"Holiday home Scheveningen, beach in 500m","listingId":2514624,"photoId":"1009-1","tags":[{"name":"diningtable","coordinates":[0.6802209218343099,0.8573742548624674,0.4981505076090495,0.2646099885304769]},{"name":"chair","coordinates":[0.1669631004333496,0.8500244140625,0.3310736338297526,0.2808388710021973]},{"name":"sofa","coordinates":[0.1669631004333496,0.8500244140625,0.3310736338297526,0.2808388710021973]},{"name":"pottedplant","coordinates":[0.7069655100504557,0.45258782704671224,0.1144844479031033,0.18366085688273112]},{"name":"tvmonitor","coordinates":[0.5692220899793837,0.5036688486735026,0.12579509947035047,0.166915496190389]},{"name":"cup","coordinates":[0.6690189785427517,0.8300977071126302,0.03637617958916558,0.08217734495798747]},{"name":"vase","coordinates":[0.7131366305881076,0.5063323338826498,0.02755791081322564,0.07736348311106364]}]}
