{"src":"https://a0.muscache.com/im/pictures/8b6536ae-6e00-4b0c-b5b0-caa3085fc949.jpg?aki_policy=xx_large","name":"Casa Leonor !!Caribe home!!","listingId":20381064,"photoId":"1009-9","tags":[{"name":"diningtable","coordinates":[0.34810762405395507,0.41700468063354496,0.6105190277099609,0.563264274597168]},{"name":"person","coordinates":[0.07230542898178102,0.191162649790446,0.33979485034942625,0.7797057469685872]},{"name":"person","coordinates":[0.7486386179924012,0.1477458635965983,0.2514860391616821,0.696056048075358]},{"name":"chair","coordinates":[0.03579156398773192,0.4634923934936523,0.29436745643615725,0.5383600870768229]},{"name":"cup","coordinates":[0.7016095578670501,0.4710082610448202,0.06919385194778442,0.20207756360371906]},{"name":"spoon","coordinates":[0.8249577879905701,0.5878035485744476,0.06951096057891845,0.06575159629185995]},{"name":"cup","coordinates":[0.5901389971375466,0.4362155119578044,0.043970987200737,0.08410857518513998]},{"name":"cup","coordinates":[0.7084888756275177,0.4310611645380656,0.06550525426864624,0.05617353121439616]},{"name":"bottle","coordinates":[0.5567084938287735,0.42993854681650795,0.030889672040939332,0.08256694475809732]}]}
