{"src":"https://a0.muscache.com/im/pictures/8b6536ae-6e00-4b0c-b5b0-caa3085fc949.jpg?aki_policy=xx_large","name":"Casa Leonor !!Caribe home!!","listingId":20381064,"photoId":"1009-6","tags":[{"name":"diningtable","coordinates":[0.5807707892523871,0.698636817932129,0.542683580186632,0.563264274597168]},{"name":"person","coordinates":[0.2152914259168837,0.5810155232747396,0.3020398669772678,0.7797057469685872]},{"name":"person","coordinates":[0.7772281222873264,0.4957738876342773,0.2235431459214952,0.696056048075358]},{"name":"chair","coordinates":[0.16264470418294272,0.7326724370320638,0.2616599612765842,0.5383600870768229]},{"name":"cup","coordinates":[0.654405763414171,0.5720470428466797,0.06150564617580838,0.20207756360371906]},{"name":"spoon","coordinates":[0.7641895718044704,0.6206793467203776,0.061787520514594185,0.06575159629185995]},{"name":"cup","coordinates":[0.5441106584337022,0.47826979955037435,0.039085321956210665,0.08410857518513998]},{"name":"cup","coordinates":[0.658881335788303,0.45914793014526367,0.058226892683241105,0.05617353121439616]},{"name":"bottle","coordinates":[0.5085807376437717,0.4712220191955566,0.02745748625861274,0.08256694475809732]}]}
