{"src":"https://a0.muscache.com/im/pictures/11b9f68e-82d2-426f-9b1f-e7a70d67b2eb.jpg?aki_policy=xx_large","name":"Casa Leonor !!Caribe home!!","listingId":20381064,"photoId":"1009-0","tags":[{"name":"sofa","coordinates":[0.24687204360961915,0.7286276499430339,0.5194584846496582,0.5298749287923177]},{"name":"chair","coordinates":[0.7249602317810059,0.5732459386189779,0.28480660915374756,0.4226560592651367]},{"name":"pottedplant","coordinates":[0.3301077365875244,0.26486226717631023,0.12316410541534424,0.49122606913248695]},{"name":"chair","coordinates":[0.6053651809692383,0.42174886067708334,0.22270822525024414,0.23755674362182616]},{"name":"tvmonitor","coordinates":[0.9313382148742676,0.4407774289449056,0.12592816352844238,0.278738276163737]},{"name":"refrigerator","coordinates":[0.5422403335571289,0.263689661026001,0.09954476356506348,0.23913901646931965]}]}
