{"src":"https://a0.muscache.com/im/pictures/60a21229-89f4-4a93-94b1-8bee75164d9e.jpg?aki_policy=xx_large","name":"Casa Leonor !!Caribe home!!","listingId":20381064,"photoId":"1009-1","tags":[{"name":"sofa","coordinates":[0.7737775166829427,0.5073608080546061,0.3464260949028863,0.39128847122192384]},{"name":"sofa","coordinates":[0.13231563568115234,0.6699251174926758,0.2850303437974718,0.46791664759318036]},{"name":"refrigerator","coordinates":[0.793796878390842,0.24699155489603677,0.14067201614379882,0.22193759282430012]},{"name":"chair","coordinates":[0.7766898261176215,0.36666475931803383,0.1853987799750434,0.1463516076405843]},{"name":"chair","coordinates":[0.3140966839260525,0.32645734151204425,0.13254451751708984,0.10791127681732178]},{"name":"chair","coordinates":[0.0862112045288086,0.4258785565694173,0.06841257943047417,0.09542788664499918]},{"name":"remote","coordinates":[0.43995323181152346,0.40074872970581055,0.03376944065093994,0.012233890096346537]}]}
