{"src":"https://a0.muscache.com/im/pictures/60a21229-89f4-4a93-94b1-8bee75164d9e.jpg?aki_policy=xx_large","name":"Casa Leonor !!Caribe home!!","listingId":20381064,"photoId":"1009-1","tags":[{"name":"sofa","coordinates":[0.43524985313415526,0.5073608080546061,0.19486467838287352,0.39128847122192384]},{"name":"sofa","coordinates":[0.0744275450706482,0.6699251174926758,0.16032956838607787,0.46791664759318036]},{"name":"refrigerator","coordinates":[0.44651074409484864,0.24699155489603677,0.07912800908088684,0.22193759282430012]},{"name":"chair","coordinates":[0.4368880271911621,0.36666475931803383,0.10428681373596191,0.1463516076405843]},{"name":"chair","coordinates":[0.17667938470840455,0.32645734151204425,0.07455629110336304,0.10791127681732178]},{"name":"chair","coordinates":[0.048493802547454834,0.4258785565694173,0.03848207592964172,0.09542788664499918]},{"name":"remote","coordinates":[0.24747369289398194,0.40074872970581055,0.018995310366153716,0.012233890096346537]}]}
