{"src":"https://a0.muscache.com/im/pictures/92cc8dbd-4e19-4b26-b73b-aeef7a7c1c12.jpg?aki_policy=xx_large","name":"Casa Leonor !!Caribe home!!","listingId":20381064,"photoId":"1009-4","tags":[{"name":"diningtable","coordinates":[0.9605948554144965,0.6975187301635742,1.6565639919704862,0.6099028905232747]},{"name":"person","coordinates":[0.5052666134304471,0.35099258422851565,0.8380914476182726,0.701934814453125]},{"name":"person","coordinates":[1.4291392008463542,0.2690637270609538,0.7802761501736111,0.5273391087849935]},{"name":"person","coordinates":[0.13622029622395834,0.531689707438151,0.26895228491889106,0.9831173578898112]},{"name":"cup","coordinates":[1.0557814704047308,0.7975735982259115,0.22558606465657552,0.16320621172587077]},{"name":"bowl","coordinates":[1.0314368353949652,0.46482661565144856,0.16225741704305013,0.09353259404500326]}]}
