{"src":"https://a0.muscache.com/im/pictures/8b6536ae-6e00-4b0c-b5b0-caa3085fc949.jpg?aki_policy=xx_large","name":"Casa Leonor !!Caribe home!!","listingId":20381064,"photoId":"1009-6","tags":[{"name":"diningtable","coordinates":[0.6533671379089355,0.698636817932129,0.6105190277099609,0.563264274597168]},{"name":"person","coordinates":[0.24220285415649415,0.5810155232747396,0.33979485034942625,0.7797057469685872]},{"name":"person","coordinates":[0.8743816375732422,0.4957738876342773,0.2514860391616821,0.696056048075358]},{"name":"chair","coordinates":[0.18297529220581055,0.7326724370320638,0.29436745643615725,0.5383600870768229]},{"name":"cup","coordinates":[0.7362064838409423,0.5720470428466797,0.06919385194778442,0.20207756360371906]},{"name":"spoon","coordinates":[0.8597132682800293,0.6206793467203776,0.06951096057891845,0.06575159629185995]},{"name":"cup","coordinates":[0.6121244907379151,0.47826979955037435,0.043970987200737,0.08410857518513998]},{"name":"cup","coordinates":[0.7412415027618409,0.45914793014526367,0.06550525426864624,0.05617353121439616]},{"name":"bottle","coordinates":[0.5721533298492432,0.4712220191955566,0.030889672040939332,0.08256694475809732]}]}
