{"src":"https://a0.muscache.com/im/pictures/42b6b142-b6ba-4763-a807-d3ad432bbf48.jpg?aki_policy=xx_large","name":"Canal Loft - entire apartment","listingId":12313459,"photoId":"101-1","tags":[{"name":"chair","coordinates":[0.8102396647135417,0.8076005935668945,0.3459528605143229,0.3443912506103516]},{"name":"diningtable","coordinates":[0.3285559018452962,0.7299346923828125,0.23224889437357585,0.2657346725463867]},{"name":"chair","coordinates":[0.17932618459065755,0.7367981592814128,0.17243165969848634,0.2446288585662842]},{"name":"bowl","coordinates":[0.2399540106455485,0.6071187337239583,0.10398396650950113,0.03774197101593017]},{"name":"bottle","coordinates":[0.6296480814615886,0.5505286534627278,0.01420472760995229,0.035024197896321614]}]}
