{"src":"https://a0.muscache.com/im/pictures/92bd1928-a0fd-4f23-a13c-1845cc87c10b.jpg?aki_policy=xx_large","name":"Spacious and yoga friendly apartment","listingId":12327960,"photoId":"101-1","tags":[{"name":"car","coordinates":[0.6315469370947944,0.5118245919545492,0.13682118521796333,0.15711978276570637]},{"name":"truck","coordinates":[0.49375121593475346,0.47194887002309166,0.04026907285054525,0.05062702496846517]},{"name":"motorbike","coordinates":[0.4004208114412096,0.519882341225942,0.021967299779256187,0.05007105668385824]},{"name":"person","coordinates":[0.382234885957506,0.49725024501482645,0.019270547231038413,0.04476132790247599]},{"name":"person","coordinates":[0.4025073621008131,0.4922291179498037,0.022536714871724445,0.036546568075815834]},{"name":"car","coordinates":[0.5353100763426887,0.5011942605177562,0.02019431061214871,0.0301413098971049]},{"name":"motorbike","coordinates":[0.4449981821907891,0.4876599550247192,0.012733263439602321,0.0417731761932373]},{"name":"person","coordinates":[0.4449981821907891,0.4876599550247192,0.012733263439602321,0.0417731761932373]},{"name":"car","coordinates":[0.4765180276499854,0.4797461966673533,0.01509511603249444,0.02567364772160848]},{"name":"person","coordinates":[0.4251106656259961,0.4926731735467911,0.0106194449795617,0.030779331922531128]}]}
