{"src":"https://a0.muscache.com/im/pictures/38670961/a65a0f4c_original.jpg?aki_policy=xx_large","name":"A modern &amp; great apartment + garden","listingId":2520108,"photoId":"1010-11","tags":[{"name":"diningtable","coordinates":[0.1867899888082406,0.8693720499674479,0.386553089210818,0.2350989818572998]},{"name":"chair","coordinates":[0.12029661091047136,0.6665135065714518,0.18835593529967837,0.24953929583231607]},{"name":"refrigerator","coordinates":[0.6241247949082928,0.47077833811442055,0.04833497855195747,0.34649407068888344]},{"name":"chair","coordinates":[0.2322060448403816,0.6183886845906575,0.06152740075293105,0.19805243810017903]},{"name":"remote","coordinates":[0.19229807210399644,0.7907766977945964,0.07541067046482473,0.0825565735499064]}]}
