{"src":"https://a0.muscache.com/im/pictures/c259129e-0ec5-47fd-88f3-e9bee7b8aa5e.jpg?aki_policy=xx_large","name":"《地铁口的家》近北京西站南站地铁10号线首经贸站旁50米阳光温馨电梯一居去哪都方便","listingId":20397063,"photoId":"1012-1","tags":[{"name":"diningtable","coordinates":[0.6340298175811767,0.7336360931396484,0.2334468126296997,0.3532514254252116]},{"name":"chair","coordinates":[0.5477526664733887,0.7366111119588216,0.17013049125671387,0.3738602956136068]},{"name":"chair","coordinates":[0.7080102920532226,0.7421475092569987,0.15196433067321777,0.3692400614420573]},{"name":"pottedplant","coordinates":[0.07189091444015502,0.48261022567749023,0.15192182064056398,0.21981911659240722]},{"name":"tvmonitor","coordinates":[0.29507837295532224,0.5475950241088867,0.08739901781082153,0.09472482999165853]},{"name":"pottedplant","coordinates":[0.340355658531189,0.6142786026000977,0.0917973279953003,0.08353139559427897]},{"name":"pottedplant","coordinates":[0.2197873830795288,0.5731868743896484,0.07220762372016906,0.07355174223581949]},{"name":"vase","coordinates":[0.07415164709091186,0.5628722508748373,0.050709384679794314,0.09167279402414957]},{"name":"vase","coordinates":[0.6237916469573974,0.5608310063680013,0.02354511767625809,0.05455206235249837]}]}
