{"src":"https://a0.muscache.com/im/pictures/c259129e-0ec5-47fd-88f3-e9bee7b8aa5e.jpg?aki_policy=xx_large","name":"《地铁口的家》近北京西站南站地铁10号线首经贸站旁50米阳光温馨电梯一居去哪都方便","listingId":20397063,"photoId":"1012-1","tags":[{"name":"diningtable","coordinates":[0.5173064112663268,0.5570103804270425,0.2334468126296997,0.3532514254252116]},{"name":"chair","coordinates":[0.4626874208450318,0.5496809641520182,0.17013049125671387,0.3738602956136068]},{"name":"chair","coordinates":[0.6320281267166138,0.5575274785359701,0.15196433067321777,0.3692400614420573]},{"name":"pottedplant","coordinates":[-0.004069995880126964,0.3727006673812866,0.15192182064056398,0.21981911659240722]},{"name":"tvmonitor","coordinates":[0.2513788640499115,0.5002326091130574,0.08739901781082153,0.09472482999165853]},{"name":"pottedplant","coordinates":[0.29445699453353885,0.5725129048029582,0.0917973279953003,0.08353139559427897]},{"name":"pottedplant","coordinates":[0.18368357121944429,0.5364110032717387,0.07220762372016906,0.07355174223581949]},{"name":"vase","coordinates":[0.048796954751014705,0.5170358538627625,0.050709384679794314,0.09167279402414957]},{"name":"vase","coordinates":[0.6120190881192684,0.5335549751917521,0.02354511767625809,0.05455206235249837]}]}
