{"src":"https://a0.muscache.com/im/pictures/23895d60-13ef-4daf-a3c2-b236cc07e131.jpg?aki_policy=xx_large","name":"Sweet Home studio in the center","listingId":20398222,"photoId":"1013-3","tags":[{"name":"oven","coordinates":[0.49040891859266494,0.8173818588256836,0.16629997889200845,0.22498841285705568]},{"name":"sink","coordinates":[0.6825335608588324,0.6625929514567057,0.14699104097154406,0.050077919165293375]},{"name":"cup","coordinates":[0.37483579847547743,0.3928625742594401,0.03286422888437907,0.07600437800089518]},{"name":"cup","coordinates":[0.783394283718533,0.4020834922790527,0.03499631616804335,0.05221034685770671]},{"name":"knife","coordinates":[0.487774658203125,0.4251391410827637,0.012047860357496474,0.08314981460571289]},{"name":"cup","coordinates":[0.33686383565266925,0.4068155288696289,0.03197144667307536,0.03088352084159851]},{"name":"knife","coordinates":[0.4708502875434028,0.42936410903930666,0.012862450546688504,0.05890731811523438]},{"name":"knife","coordinates":[0.528328365749783,0.43088385264078777,0.00874114301469591,0.07223307291666667]},{"name":"knife","coordinates":[0.5138448079427084,0.4262192726135254,0.008851823541853163,0.05126219590504964]}]}
