{"src":"https://a0.muscache.com/im/pictures/23895d60-13ef-4daf-a3c2-b236cc07e131.jpg?aki_policy=xx_large","name":"Sweet Home studio in the center","listingId":20398222,"photoId":"1013-3","tags":[{"name":"oven","coordinates":[0.40725892914666073,0.7048876523971558,0.16629997889200845,0.22498841285705568]},{"name":"sink","coordinates":[0.6090380403730604,0.637553991874059,0.14699104097154406,0.050077919165293375]},{"name":"cup","coordinates":[0.3584036840332879,0.3548603852589925,0.03286422888437907,0.07600437800089518]},{"name":"cup","coordinates":[0.7658961256345114,0.37597831885019933,0.03499631616804335,0.05221034685770671]},{"name":"knife","coordinates":[0.48175072802437674,0.3835642337799072,0.012047860357496474,0.08314981460571289]},{"name":"cup","coordinates":[0.32087811231613156,0.39137376844882965,0.03197144667307536,0.03088352084159851]},{"name":"knife","coordinates":[0.4644190622700585,0.39991044998168945,0.012862450546688504,0.05890731811523438]},{"name":"knife","coordinates":[0.523957794242435,0.3947673161824544,0.00874114301469591,0.07223307291666667]},{"name":"knife","coordinates":[0.5094188961717818,0.40058817466100055,0.008851823541853163,0.05126219590504964]}]}
