{"src":"https://a0.muscache.com/im/pictures/6951596a-5a9b-404b-b611-f9079ad26949.jpg?aki_policy=xx_large","name":"Appartement Maroc Casablanca","listingId":20406564,"photoId":"1014-2","tags":[{"name":"refrigerator","coordinates":[0.048446676466200086,0.5134998639424642,0.10826411777072482,0.8598732630411784]},{"name":"refrigerator","coordinates":[0.0777760558658176,0.5579314549763997,0.0758764108022054,0.6557908376057943]},{"name":"oven","coordinates":[0.3065084457397461,0.5532037099202474,0.09408069186740452,0.19254501660664877]},{"name":"microwave","coordinates":[0.07490044699774848,0.22657469113667805,0.06032334963480632,0.15859176317850748]},{"name":"sink","coordinates":[0.21001099480523003,0.43833351135253906,0.10240726470947266,0.02005855639775594]}]}
