{"src":"https://a0.muscache.com/im/pictures/6fde84f0-3d2c-4cd3-900d-e1497bf157d5.jpg?aki_policy=xx_large","name":"Appartement Maroc Casablanca","listingId":20406564,"photoId":"1014-2","tags":[{"name":"diningtable","coordinates":[0.5934584299723308,0.6111351013183594,0.39540896945529513,0.721034558614095]},{"name":"chair","coordinates":[0.8041907416449653,0.6061935424804688,0.3469974729749892,0.7408800760904948]},{"name":"chair","coordinates":[0.4243724822998047,0.6018505096435547,0.33440377977159286,0.724984868367513]},{"name":"sofa","coordinates":[0.14401152928670247,0.3699869791666667,0.2832267337375217,0.38512757619222004]},{"name":"chair","coordinates":[0.7883565266927083,0.28027369181315104,0.14395724402533638,0.24631408055623372]},{"name":"chair","coordinates":[0.41284883287217883,0.2758762995402018,0.1256407101949056,0.23149983088175455]},{"name":"cup","coordinates":[0.7223130120171442,0.36154295603434244,0.03892691135406494,0.1184057076772054]},{"name":"cup","coordinates":[0.4923472934299045,0.35092792510986326,0.04156757460700141,0.09193432331085205]},{"name":"cup","coordinates":[0.6203681098090278,0.3212506930033366,0.034243554539150664,0.08710053761800131]},{"name":"cup","coordinates":[0.5280409918891059,0.2943035443623861,0.03241099781460232,0.08617668151855469]}]}
