{"src":"https://a0.muscache.com/im/pictures/6fde84f0-3d2c-4cd3-900d-e1497bf157d5.jpg?aki_policy=xx_large","name":"Appartement Maroc Casablanca","listingId":20406564,"photoId":"1014-2","tags":[{"name":"diningtable","coordinates":[0.3957539452446832,0.25061782201131183,0.39540896945529513,0.721034558614095]},{"name":"chair","coordinates":[0.6306920051574707,0.23575350443522136,0.3469974729749892,0.7408800760904948]},{"name":"chair","coordinates":[0.25717059241400825,0.2393580754597982,0.33440377977159286,0.724984868367513]},{"name":"sofa","coordinates":[0.0023981624179416072,0.17742319107055665,0.2832267337375217,0.38512757619222004]},{"name":"chair","coordinates":[0.71637790468004,0.15711665153503418,0.14395724402533638,0.24631408055623372]},{"name":"chair","coordinates":[0.350028477774726,0.16012638409932456,0.1256407101949056,0.23149983088175455]},{"name":"cup","coordinates":[0.7028495563401117,0.30234010219573976,0.03892691135406494,0.1184057076772054]},{"name":"cup","coordinates":[0.4715635061264038,0.30496076345443723,0.04156757460700141,0.09193432331085205]},{"name":"cup","coordinates":[0.6032463325394525,0.27770042419433594,0.034243554539150664,0.08710053761800131]},{"name":"cup","coordinates":[0.5118354929818048,0.2512152036031087,0.03241099781460232,0.08617668151855469]}]}
