{"src":"https://a0.muscache.com/im/pictures/7ab50281-49ed-4165-97ee-83155a416147.jpg?aki_policy=xx_large","name":"Romantic house","listingId":20422709,"photoId":"1018-4","tags":[{"name":"diningtable","coordinates":[0.5198460472954644,0.6193976561228435,0.48389341566297744,0.29865407943725586]},{"name":"oven","coordinates":[0.45194899241129555,0.46675632794698074,0.25197563171386717,0.5007957140604655]},{"name":"microwave","coordinates":[0.6035716692606607,0.2762832800547282,0.30701580047607424,0.18775421778361004]},{"name":"microwave","coordinates":[0.26386439005533857,0.3734261353810628,0.20571339925130208,0.17798744837443034]},{"name":"sink","coordinates":[0.07400069766574435,0.5495579421520234,0.17602157592773438,0.058531312147776286]},{"name":"bottle","coordinates":[0.29920905960930716,0.010592158635457358,0.05035257339477539,0.13186432520548502]},{"name":"bottle","coordinates":[0.21828126907348633,0.011350437005360925,0.04969827863905165,0.12149511178334554]},{"name":"bottle","coordinates":[0.3816928227742513,0.02411187887191773,0.03708975050184462,0.11805946826934814]},{"name":"bottle","coordinates":[0.07250437471601698,0.45234122276306155,0.031155792872111003,0.10215705235799154]}]}
