{"src":"https://a0.muscache.com/im/pictures/7fff111b-6854-4d57-b6bc-6f7f2b6f8c33.jpg?aki_policy=xx_large","name":"Romantic house","listingId":20422709,"photoId":"1018-2","tags":[{"name":"diningtable","coordinates":[-0.0027598381042480413,0.4422818978627523,0.40841026306152345,0.4933972994486491]},{"name":"sofa","coordinates":[0.6021469593048095,0.4320705890655518,0.31268720626831054,0.4016675631205241]},{"name":"diningtable","coordinates":[0.3445770084857941,0.34605054060618085,0.17110694646835328,0.23718473116556804]},{"name":"chair","coordinates":[0.3445770084857941,0.34605054060618085,0.17110694646835328,0.23718473116556804]},{"name":"cat","coordinates":[0.6734833955764771,0.4254380544026693,0.23261494636535646,0.09612388610839843]},{"name":"chair","coordinates":[0.5098767846822738,0.35224274794260657,0.07916906476020813,0.23321115175882975]},{"name":"chair","coordinates":[0.45555180311203003,0.33572041392326357,0.06617424488067628,0.051405457655588786]},{"name":"vase","coordinates":[0.03202714622020721,0.38292997479438784,0.03995373845100403,0.06519454717636108]},{"name":"vase","coordinates":[0.4312931217253208,0.3224777420361837,0.017561690509319307,0.06803781986236572]}]}
