{"src":"https://a0.muscache.com/im/pictures/7ab50281-49ed-4165-97ee-83155a416147.jpg?aki_policy=xx_large","name":"Romantic house","listingId":20422709,"photoId":"1018-4","tags":[{"name":"diningtable","coordinates":[0.7617927551269531,0.7687246958414714,0.48389341566297744,0.29865407943725586]},{"name":"oven","coordinates":[0.5779368082682291,0.7171541849772135,0.25197563171386717,0.5007957140604655]},{"name":"microwave","coordinates":[0.7570795694986979,0.3701603889465332,0.30701580047607424,0.18775421778361004]},{"name":"microwave","coordinates":[0.3667210896809896,0.46241985956827797,0.20571339925130208,0.17798744837443034]},{"name":"sink","coordinates":[0.16201148562961154,0.5788235982259115,0.17602157592773438,0.058531312147776286]},{"name":"bottle","coordinates":[0.32438534630669486,0.07652432123819987,0.05035257339477539,0.13186432520548502]},{"name":"bottle","coordinates":[0.24313040839301214,0.0720979928970337,0.04969827863905165,0.12149511178334554]},{"name":"bottle","coordinates":[0.4002376980251736,0.0831416130065918,0.03708975050184462,0.11805946826934814]},{"name":"bottle","coordinates":[0.08808227115207248,0.5034197489420573,0.031155792872111003,0.10215705235799154]}]}
