{"src":"https://z0.muscache.cn/im/pictures/26ba46b6-72ab-4bf5-90e2-ba05af9e451d.jpg?aki_policy=xx_large","name":"Harbinger Lounge, Floating Terraces","listingId":20427992,"photoId":"1019-11","tags":[{"name":"diningtable","coordinates":[0.5997879028320312,0.7297093709309895,0.7910640292697483,0.48021599451700847]},{"name":"chair","coordinates":[0.8148044162326389,0.9056668599446615,0.346137703789605,0.1875747044881185]},{"name":"chair","coordinates":[0.40938699510362414,0.5504789352416992,0.19782053629557292,0.10099060535430908]},{"name":"refrigerator","coordinates":[0.5814662509494357,0.3173939069112142,0.13651377360026043,0.12132534980773926]},{"name":"microwave","coordinates":[0.4101119147406684,0.41062920888264975,0.13611782921685112,0.1011333147684733]},{"name":"chair","coordinates":[0.3607375250922309,0.5597042083740235,0.11341412862141927,0.07931630611419678]},{"name":"sink","coordinates":[0.8444952223036024,0.39204851786295575,0.1883018069797092,0.02933945655822754]},{"name":"bowl","coordinates":[0.40803167555067277,0.2735616683959961,0.06284489631652831,0.02074469526608785]},{"name":"cup","coordinates":[0.46326781378851994,0.273684819539388,0.02577087614271376,0.02318291465441386]},{"name":"cup","coordinates":[0.4834737989637587,0.2742550532023112,0.020695357852511937,0.02381231387456258]}]}
