{"src":"https://z0.muscache.cn/im/pictures/26ba46b6-72ab-4bf5-90e2-ba05af9e451d.jpg?aki_policy=xx_large","name":"Harbinger Lounge, Floating Terraces","listingId":20427992,"photoId":"1019-11","tags":[{"name":"diningtable","coordinates":[0.20425588819715707,0.4896013736724853,0.7910640292697483,0.48021599451700847]},{"name":"chair","coordinates":[0.6417355643378364,0.8118795077006022,0.346137703789605,0.1875747044881185]},{"name":"chair","coordinates":[0.31047672695583767,0.4999836325645447,0.19782053629557292,0.10099060535430908]},{"name":"refrigerator","coordinates":[0.5132093641493055,0.2567312320073446,0.13651377360026043,0.12132534980773926]},{"name":"microwave","coordinates":[0.3420530001322428,0.3600625514984131,0.13611782921685112,0.1011333147684733]},{"name":"chair","coordinates":[0.30403046078152124,0.520046055316925,0.11341412862141927,0.07931630611419678]},{"name":"sink","coordinates":[0.7503443188137479,0.37737878958384197,0.1883018069797092,0.02933945655822754]},{"name":"bowl","coordinates":[0.3766092273924086,0.2631893207629522,0.06284489631652831,0.02074469526608785]},{"name":"cup","coordinates":[0.45038237571716305,0.26209336221218105,0.02577087614271376,0.02318291465441386]},{"name":"cup","coordinates":[0.4731261200375027,0.2623488962650299,0.020695357852511937,0.02381231387456258]}]}
