{"src":"https://z0.muscache.cn/im/pictures/c929e8ea-424c-498b-8946-a24a979ed061.jpg?aki_policy=xx_large","name":"Harbinger Lounge, Floating Terraces","listingId":20427992,"photoId":"1019-3","tags":[{"name":"oven","coordinates":[0.3195133845011393,0.6314158121744792,0.18589981926812066,0.13757781982421874]},{"name":"chair","coordinates":[0.8191138638390435,0.8457175334294637,0.14488181008232964,0.14065861701965332]},{"name":"chair","coordinates":[0.8159519169065688,0.8437367677688599,0.08409822781880696,0.09781572024027506]},{"name":"sink","coordinates":[-0.0033595667945014174,0.6646293679873149,0.14483829074435764,0.05138002236684163]},{"name":"knife","coordinates":[0.5840306560198466,0.6836729824543,0.012448636690775554,0.05034100612004598]}]}
