{"src":"https://z0.muscache.cn/im/pictures/c929e8ea-424c-498b-8946-a24a979ed061.jpg?aki_policy=xx_large","name":"Harbinger Lounge, Floating Terraces","listingId":20427992,"photoId":"1019-3","tags":[{"name":"oven","coordinates":[0.41246329413519967,0.7002047220865886,0.18589981926812066,0.13757781982421874]},{"name":"chair","coordinates":[0.8915547688802083,0.9160468419392903,0.14488181008232964,0.14065861701965332]},{"name":"chair","coordinates":[0.8580010308159722,0.8926446278889973,0.08409822781880696,0.09781572024027506]},{"name":"sink","coordinates":[0.0690595785776774,0.6903193791707357,0.14483829074435764,0.05138002236684163]},{"name":"knife","coordinates":[0.5902549743652343,0.708843485514323,0.012448636690775554,0.05034100612004598]}]}
