{"src":"https://z0.muscache.cn/im/pictures/d1ad2e7a-8913-4944-b66f-e5da24f34136.jpg?aki_policy=xx_large","name":"Harbinger Lounge, Floating Terraces","listingId":20427992,"photoId":"1019-5","tags":[{"name":"diningtable","coordinates":[0.02644805908203124,0.22984851201375323,0.7642974853515625,0.7691517512003581]},{"name":"chair","coordinates":[-0.005777888827853725,0.24359769821167,0.26072942945692273,0.7073527654012044]},{"name":"chair","coordinates":[0.6100448926289876,0.24432624181111656,0.2447368409898546,0.7240443547566732]},{"name":"diningtable","coordinates":[0.06054670545789931,0.2571144024531047,0.7095769246419271,0.2404755433400472]},{"name":"pottedplant","coordinates":[0.35646029578314886,-0.013134670257568343,0.19112959967719184,0.3855842272440592]},{"name":"vase","coordinates":[0.38154048124949136,0.21116706530253093,0.052701203028361,0.15033337275187175]},{"name":"chair","coordinates":[0.521492396460639,0.2429566502571106,0.09117692311604818,0.08280351161956787]},{"name":"vase","coordinates":[0.4711335923936632,0.27480278015136717,0.04838519626193576,0.08503150939941406]}]}
