{"src":"https://z0.muscache.cn/im/pictures/26ba46b6-72ab-4bf5-90e2-ba05af9e451d.jpg?aki_policy=xx_large","name":"Harbinger Lounge, Floating Terraces","listingId":20427992,"photoId":"1019-6","tags":[{"name":"diningtable","coordinates":[0.2998939514160156,0.7297093709309895,0.39553201463487414,0.48021599451700847]},{"name":"chair","coordinates":[0.40740220811631944,0.9056668599446615,0.1730688518948025,0.1875747044881185]},{"name":"chair","coordinates":[0.20469349755181207,0.5504789352416992,0.09891026814778646,0.10099060535430908]},{"name":"refrigerator","coordinates":[0.29073312547471786,0.3173939069112142,0.06825688680013021,0.12132534980773926]},{"name":"microwave","coordinates":[0.2050559573703342,0.41062920888264975,0.06805891460842556,0.1011333147684733]},{"name":"chair","coordinates":[0.18036876254611545,0.5597042083740235,0.05670706431070963,0.07931630611419678]},{"name":"sink","coordinates":[0.4222476111518012,0.39204851786295575,0.0941509034898546,0.02933945655822754]},{"name":"bowl","coordinates":[0.20401583777533638,0.2735616683959961,0.03142244815826416,0.02074469526608785]},{"name":"cup","coordinates":[0.23163390689425997,0.273684819539388,0.01288543807135688,0.02318291465441386]},{"name":"cup","coordinates":[0.24173689948187935,0.2742550532023112,0.010347678926255969,0.02381231387456258]}]}
