{"src":"https://z0.muscache.cn/im/pictures/94093821-c435-47e4-96c0-d062b2586868.jpg?aki_policy=xx_large","name":"Harbinger Lounge, Floating Terraces","listingId":20427992,"photoId":"1019-11","tags":[{"name":"sofa","coordinates":[1.006204562717014,0.8034845987955729,1.1147901746961806,0.37191921869913735]},{"name":"person","coordinates":[0.9049118041992188,0.7661516189575195,0.25769352383083766,0.4913743019104004]},{"name":"person","coordinates":[1.2064390394422744,0.7721392313639323,0.2629980511135525,0.4791838010152181]},{"name":"person","coordinates":[0.7130685594346788,0.76560853322347,0.25143504672580297,0.4781170845031738]},{"name":"person","coordinates":[1.0171618143717447,0.8415422439575195,0.26545126173231337,0.3034275690714518]},{"name":"pottedplant","coordinates":[1.6833880954318576,0.7466417948404948,0.16140622033013238,0.1798863410949707]},{"name":"vase","coordinates":[1.6802798800998264,0.8125171025594076,0.06684166060553656,0.07165497144063314]}]}
