{"src":"https://z0.muscache.cn/im/pictures/d1ad2e7a-8913-4944-b66f-e5da24f34136.jpg?aki_policy=xx_large","name":"Harbinger Lounge, Floating Terraces","listingId":20427992,"photoId":"1019-3","tags":[{"name":"diningtable","coordinates":[0.4085968017578125,0.6144243876139323,0.7642974853515625,0.7691517512003581]},{"name":"chair","coordinates":[0.12458682590060764,0.5972740809122722,0.26072942945692273,0.7073527654012044]},{"name":"chair","coordinates":[0.7324133131239149,0.6063484191894531,0.2447368409898546,0.7240443547566732]},{"name":"diningtable","coordinates":[0.41533516777886287,0.37735217412312827,0.7095769246419271,0.2404755433400472]},{"name":"pottedplant","coordinates":[0.4520250956217448,0.17965744336446127,0.19112959967719184,0.3855842272440592]},{"name":"vase","coordinates":[0.40789108276367186,0.2863337516784668,0.052701203028361,0.15033337275187175]},{"name":"chair","coordinates":[0.5670808580186631,0.28435840606689455,0.09117692311604818,0.08280351161956787]},{"name":"vase","coordinates":[0.49532619052463106,0.3173185348510742,0.04838519626193576,0.08503150939941406]}]}
