{"src":"https://a0.muscache.com/im/pictures/86ed7435-b54c-4202-bc05-b1528dbb3370.jpg?aki_policy=xx_large","name":"Windows On The Bay - izmir","listingId":12348437,"photoId":"102-4","tags":[{"name":"sofa","coordinates":[0.7757295608520508,0.6485180536905923,0.2224853515625,0.34170862833658855]},{"name":"chair","coordinates":[0.7954772830009461,0.35259873072306314,0.21680834293365478,0.2924353281656901]},{"name":"sofa","coordinates":[0.7954772830009461,0.35259873072306314,0.21680834293365478,0.2924353281656901]},{"name":"chair","coordinates":[0.12257341146469117,0.4226214249928792,0.1589127779006958,0.29855254491170247]},{"name":"diningtable","coordinates":[0.2744044303894043,0.4098787148793539,0.15653438568115235,0.25564349492390953]},{"name":"chair","coordinates":[0.4130836367607117,0.3875664075215657,0.11321136951446534,0.269840939839681]},{"name":"tvmonitor","coordinates":[0.00833894014358521,0.4227925618489583,0.050327223539352414,0.3270074208577474]},{"name":"pottedplant","coordinates":[0.64031862616539,0.4670673529307047,0.05523978471755982,0.10367670059204101]},{"name":"pottedplant","coordinates":[0.6011803030967712,0.49385195573170976,0.05086033344268799,0.07956674893697104]}]}
