{"src":"https://a0.muscache.com/im/pictures/5e54c642-8d8b-4330-838f-ce41ba557bfd.jpg?aki_policy=xx_large","name":"Charming city centre apartment","listingId":12362524,"photoId":"102-1","tags":[{"name":"car","coordinates":[0.8816818237304688,0.6107940673828125,0.23389352162679036,0.2379175821940104]},{"name":"bicycle","coordinates":[0.26525003645155165,0.5870907465616862,0.07553588019476996,0.19175373713175456]},{"name":"motorbike","coordinates":[0.7205215454101562,0.5511729558308919,0.08438037236531576,0.09870662689208984]},{"name":"bicycle","coordinates":[0.39455396864149306,0.5721847534179687,0.044195818901062014,0.11478714942932129]},{"name":"person","coordinates":[0.4865261501736111,0.5193854014078776,0.026450861824883355,0.0972848653793335]},{"name":"bicycle","coordinates":[0.48717464870876737,0.5478914896647136,0.027810433175828722,0.05600423018137614]},{"name":"bicycle","coordinates":[0.31703951093885635,0.5368612289428711,0.02087754143608941,0.06140963236490885]}]}
