{"src":"https://a0.muscache.com/im/pictures/b1861f74-cb53-4da5-8fb4-02bbe5db8b3b.jpg?aki_policy=xx_large","name":"The Bayt","listingId":20434559,"photoId":"1021-0","tags":[{"name":"chair","coordinates":[0.6443129539489746,0.7151856740315755,0.16126275062561035,0.3202014605204264]},{"name":"chair","coordinates":[0.5032970428466796,0.7656039555867513,0.15589303970336915,0.3200656890869141]},{"name":"chair","coordinates":[0.36582093238830565,0.6692819595336914,0.14174902439117432,0.320082950592041]},{"name":"sofa","coordinates":[0.05206887125968933,0.8379409790039063,0.10310075283050538,0.32323052088419596]},{"name":"diningtable","coordinates":[0.49023823738098143,0.5732560475667318,0.26875259876251223,0.08572871685028076]},{"name":"bowl","coordinates":[0.4703650951385498,0.5177857398986816,0.08398737907409667,0.05445273319880168]},{"name":"chair","coordinates":[0.4703650951385498,0.5177857398986816,0.08398737907409667,0.05445273319880168]}]}
