{"src":"https://a0.muscache.com/im/pictures/b1861f74-cb53-4da5-8fb4-02bbe5db8b3b.jpg?aki_policy=xx_large","name":"The Bayt","listingId":20434559,"photoId":"1021-0","tags":[{"name":"chair","coordinates":[0.5636815786361694,0.5550849437713623,0.16126275062561035,0.3202014605204264]},{"name":"chair","coordinates":[0.4253505229949951,0.6055711110432943,0.15589303970336915,0.3200656890869141]},{"name":"chair","coordinates":[0.2949464201927185,0.5092404842376709,0.14174902439117432,0.320082950592041]},{"name":"sofa","coordinates":[0.00051849484443664,0.6763257185618083,0.10310075283050538,0.32323052088419596]},{"name":"diningtable","coordinates":[0.3558619379997253,0.5303916891415914,0.26875259876251223,0.08572871685028076]},{"name":"bowl","coordinates":[0.42837140560150144,0.49055937329928073,0.08398737907409667,0.05445273319880168]},{"name":"chair","coordinates":[0.42837140560150144,0.49055937329928073,0.08398737907409667,0.05445273319880168]}]}
