{"src":"https://a0.muscache.com/im/pictures/210835ec-01c9-4469-93e9-a9754e3ece75.jpg?aki_policy=xx_large","name":"The Bayt","listingId":20434559,"photoId":"1021-1","tags":[{"name":"oven","coordinates":[0.03151357173919678,0.5995160261789958,0.27223360538482666,0.3780539512634277]},{"name":"sink","coordinates":[0.5001360535621643,0.46172816554705304,0.2125751256942749,0.045033760865529376]},{"name":"bottle","coordinates":[0.7255433395504952,0.41095646818478904,0.017980989813804627,0.061924572785695395]},{"name":"knife","coordinates":[0.3704035796225071,0.3982492506504059,0.013408319652080536,0.03249485095342]},{"name":"knife","coordinates":[0.38684939220547676,0.4153389692306519,0.013017295300960541,0.029790735244750975]},{"name":"knife","coordinates":[0.3884451448917389,0.3986956357955933,0.012522256374359131,0.03038500150044759]}]}
