{"src":"https://a0.muscache.com/im/pictures/210835ec-01c9-4469-93e9-a9754e3ece75.jpg?aki_policy=xx_large","name":"The Bayt","listingId":20434559,"photoId":"1021-1","tags":[{"name":"oven","coordinates":[0.1676303744316101,0.7885430018107097,0.27223360538482666,0.3780539512634277]},{"name":"sink","coordinates":[0.6064236164093018,0.4842450459798177,0.2125751256942749,0.045033760865529376]},{"name":"bottle","coordinates":[0.7345338344573975,0.44191875457763674,0.017980989813804627,0.061924572785695395]},{"name":"knife","coordinates":[0.37710773944854736,0.4144966761271159,0.013408319652080536,0.03249485095342]},{"name":"knife","coordinates":[0.393358039855957,0.43023433685302737,0.013017295300960541,0.029790735244750975]},{"name":"knife","coordinates":[0.3947062730789185,0.4138881365458171,0.012522256374359131,0.03038500150044759]}]}
