{"src":"https://a0.muscache.com/im/pictures/e7a69a95-6ca3-41e8-8b52-83f749dfed94.jpg?aki_policy=xx_large","name":"Trendy loft apartment, The Hague ","listingId":2773247,"photoId":"1027-0","tags":[{"name":"diningtable","coordinates":[0.2464602788289388,0.8381539662679036,0.4693682352701823,0.279145081837972]},{"name":"chair","coordinates":[0.27701695760091144,0.7413892110188802,0.28195160759819876,0.16005775133768718]},{"name":"pottedplant","coordinates":[0.512829844156901,0.4745581309000651,0.15757537417941622,0.1883549213409424]},{"name":"chair","coordinates":[0.43662579854329425,0.7515625635782878,0.11705667707655165,0.18514593442281088]},{"name":"vase","coordinates":[0.06071362495422363,0.5231807708740235,0.08622717327541775,0.16722145080566406]},{"name":"chair","coordinates":[0.3284895155164931,0.6228613535563151,0.12903724246554904,0.10407641728719076]}]}
