{"src":"https://a0.muscache.com/im/pictures/e6d4f42f-f63c-484e-a8b6-e6562f957633.jpg?aki_policy=xx_large","name":"Quiet two bedroom large top-floor apartment.","listingId":2855546,"photoId":"1030-4","tags":[{"name":"chair","coordinates":[0.7140155368381076,0.6638826370239258,0.182180913289388,0.26595064798990886]},{"name":"refrigerator","coordinates":[0.6116104549831815,0.47739121119181316,0.12360686196221246,0.2871778170267741]},{"name":"sink","coordinates":[0.12348622216118707,0.630135981241862,0.24364668528238934,0.0862544298171997]},{"name":"knife","coordinates":[0.13181817796495227,0.45302438735961914,0.01210969156689114,0.038073774178822836]},{"name":"knife","coordinates":[0.1451475567287869,0.45243314107259114,0.010053089592191908,0.03556056420008342]}]}
