{"src":"https://a0.muscache.com/im/pictures/37684002/07b49ee8_original.jpg?aki_policy=xx_large","name":"Beautiful Classic House","listingId":2922614,"photoId":"1031-13","tags":[{"name":"sofa","coordinates":[1.512887259510076,0.6572081247965494,0.6854200987058265,0.19258000055948893]},{"name":"chair","coordinates":[0.8936899725893205,0.6660279591878255,0.3197144362785363,0.25912291208902993]},{"name":"chair","coordinates":[0.14375261205750461,0.6531038920084635,0.2636216778621495,0.2990529696146647]},{"name":"vase","coordinates":[0.5109779619353583,0.5119046529134115,0.08311893189807547,0.07836289405822754]},{"name":"clock","coordinates":[0.4766938396703417,0.2928653081258138,0.07637631187557803,0.07218360900878906]},{"name":"vase","coordinates":[0.6805849164445824,0.521524969736735,0.053680009931047386,0.053707424799601236]}]}
