{"src":"https://a0.muscache.com/im/pictures/37685443/4f02f669_original.jpg?aki_policy=xx_large","name":"Beautiful Classic House","listingId":2922614,"photoId":"1031-6","tags":[{"name":"diningtable","coordinates":[0.7439373732445045,0.7217828750610351,0.28310837782269493,0.2680015563964844]},{"name":"chair","coordinates":[0.6363424020302687,0.8174531936645508,0.12588183661898117,0.36283372243245443]},{"name":"chair","coordinates":[0.7887519149620551,0.8744101206461589,0.17981919623386253,0.21821471850077312]},{"name":"chair","coordinates":[0.4260546091296668,0.6249717076619467,0.11123529448845298,0.30974206924438474]},{"name":"pottedplant","coordinates":[0.771730219327896,0.5108354568481446,0.10257860970347392,0.1390884240468343]},{"name":"pottedplant","coordinates":[0.5953340177675768,0.4856071472167969,0.06890689187006607,0.19311699867248536]},{"name":"chair","coordinates":[0.5971408372813809,0.7318470001220703,0.052699374553629844,0.2337539831797282]},{"name":"vase","coordinates":[0.8143600176367324,0.6689856847127279,0.06120606959490034,0.14617557525634767]},{"name":"chair","coordinates":[0.8329338717943127,0.534466552734375,0.07007521145508494,0.09364945888519287]},{"name":"vase","coordinates":[0.01567726374837126,0.5890373865763346,0.03066289599592338,0.15534871419270832]},{"name":"chair","coordinates":[0.6157824562216504,0.6408955256144205,0.042406562650777704,0.10764390627543131]},{"name":"book","coordinates":[0.012332857694978574,0.7743162790934245,0.02186588199506335,0.15394349098205568]},{"name":"vase","coordinates":[0.7755395286331124,0.5678428014119467,0.04395717186937778,0.06850833892822265]},{"name":"bowl","coordinates":[0.7404582415605373,0.6753172556559245,0.04935746548979414,0.044564096132914226]}]}
