{"src":"https://a0.muscache.com/im/pictures/37685408/a7bca2b7_original.jpg?aki_policy=xx_large","name":"Beautiful Classic House","listingId":2922614,"photoId":"1031-14","tags":[{"name":"sofa","coordinates":[0.6637637512121906,0.49623886744181317,0.35215799712070694,0.2709766705830892]},{"name":"pottedplant","coordinates":[0.7161087185102859,0.8906762440999348,0.32296620984789054,0.22843270301818847]},{"name":"chair","coordinates":[0.7668955868091876,0.6242812474568685,0.20837368293453626,0.3283439000447591]},{"name":"chair","coordinates":[0.31108267769487663,0.5363356908162434,0.15362056162899343,0.3224656422932943]},{"name":"pottedplant","coordinates":[0.04977584583489965,0.5780074437459309,0.07336906741686279,0.2621610164642334]},{"name":"clock","coordinates":[0.20787676142183142,0.1510958194732666,0.03981126335708001,0.08272747993469239]},{"name":"pottedplant","coordinates":[0.17843971624866523,0.3816404660542806,0.041746998764314744,0.06593900918960571]},{"name":"vase","coordinates":[0.2264721603074333,0.367154598236084,0.03413884310542789,0.06600956519444784]}]}
