{"src":"https://a0.muscache.com/im/pictures/38015005/ee3566df_original.jpg?aki_policy=xx_large","name":"Bright apartment near center &amp; sea","listingId":2932490,"photoId":"1032-1","tags":[{"name":"diningtable","coordinates":[0.40135927200317384,0.6850704828898112,0.3896777153015137,0.495214303334554]},{"name":"chair","coordinates":[0.3196104526519775,0.6424029668172201,0.16023461818695067,0.4500054041544596]},{"name":"chair","coordinates":[0.48625984191894533,0.6890995025634765,0.15949970483779907,0.39042733510335287]},{"name":"pottedplant","coordinates":[0.69728684425354,0.5731056213378907,0.11760683059692383,0.3027803421020508]},{"name":"chair","coordinates":[0.6035466194152832,0.6215564727783203,0.10364950895309448,0.3188507080078125]},{"name":"chair","coordinates":[0.4078352928161621,0.452145258585612,0.06084598302841186,0.06126482089360555]},{"name":"pottedplant","coordinates":[0.3679593801498413,0.31217320760091144,0.03273903727531433,0.08422487576802572]},{"name":"bowl","coordinates":[0.545881700515747,0.46290613810221354,0.033666983246803284,0.024828678369522093]}]}
