{"src":"https://a0.muscache.com/im/pictures/78481335/533fc848_original.jpg?aki_policy=xx_large","name":"Bright apartment near center &amp; sea","listingId":2932490,"photoId":"1032-5","tags":[{"name":"pottedplant","coordinates":[0.21921212673187257,0.781494140625,0.479356575012207,0.4401902516682943]},{"name":"chair","coordinates":[0.29871382713317873,0.5316376050313314,0.1421299695968628,0.14343029657999676]},{"name":"tvmonitor","coordinates":[0.5466606616973877,0.5086135228474935,0.08300275206565857,0.10925316015879313]},{"name":"pottedplant","coordinates":[0.8827564239501953,0.4026105244954427,0.048815247416496274,0.07170255184173584]},{"name":"stop-sign","coordinates":[0.18195230960845948,0.35251137415568035,0.04451028704643249,0.06490914424260458]},{"name":"book","coordinates":[0.7608346939086914,0.2884326934814453,0.013522802293300629,0.07120194435119628]},{"name":"book","coordinates":[0.7408056735992432,0.38446079889933266,0.017093756794929506,0.047831185658772785]},{"name":"book","coordinates":[0.721104097366333,0.37781295776367185,0.011485078185796738,0.06499168078104654]},{"name":"book","coordinates":[0.7211413860321045,0.49105199178059894,0.01068250834941864,0.0642762025197347]},{"name":"book","coordinates":[0.7405720710754394,0.4969361941019694,0.01036456972360611,0.06414921681086222]}]}
