{"src":"https://a0.muscache.com/im/pictures/40697254/8b42209f_original.jpg?aki_policy=xx_large","name":"â˜†StudentHouse:5 min. Tram to Centr!","listingId":2951810,"photoId":"1033-7","tags":[{"name":"sofa","coordinates":[0.2602491100242307,0.7552536646525065,0.5159878153794333,0.4682414690653483]},{"name":"diningtable","coordinates":[0.37338205902566496,0.8601812998453776,0.7087250392526513,0.3013500531514486]},{"name":"diningtable","coordinates":[0.8644309859614048,0.6907934188842774,0.241385065962111,0.41878143946329754]},{"name":"chair","coordinates":[0.7632352911215664,0.6631743113199869,0.16475072656453735,0.35363756815592445]},{"name":"chair","coordinates":[0.9465328635691933,0.7037705739339193,0.10719826689018494,0.422698179880778]},{"name":"chair","coordinates":[0.5338709888272557,0.6354895273844401,0.14989622113436088,0.2721165021260579]},{"name":"pottedplant","coordinates":[0.4134605524437152,0.7991189956665039,0.14347353366220444,0.28068745930989586]}]}
