{"src":"https://a0.muscache.com/im/pictures/40696992/bbb7efcb_original.jpg?aki_policy=xx_large","name":"â˜†StudentHouse:5 min. Tram to Centr!","listingId":2951810,"photoId":"1033-0","tags":[{"name":"diningtable","coordinates":[0.2555185034145732,0.8813721338907877,0.45478742278500955,0.22228541374206542]},{"name":"sofa","coordinates":[0.8128036477801199,0.8429173151652019,0.33076124761631825,0.27436863581339516]},{"name":"pottedplant","coordinates":[0.09337813333609506,0.7604770024617513,0.18515992993605485,0.4139330546061198]},{"name":"chair","coordinates":[0.5175284649632736,0.8369490941365559,0.11351273156008236,0.30192820231119794]},{"name":"pottedplant","coordinates":[0.2896763320095184,0.5270647366841634,0.1258692416428525,0.18484360376993816]},{"name":"pottedplant","coordinates":[0.14085779733883322,0.5705703735351563,0.09642855414760627,0.19460166295369466]},{"name":"pottedplant","coordinates":[0.3761123848226704,0.5231051445007324,0.06704095938606952,0.07740654150644938]}]}
