{"src":"https://a0.muscache.com/im/pictures/0dca1d40-96d8-4d60-b112-2a3d5aade90d.jpg?aki_policy=xx_large","name":"Artsy hotspot near beach","listingId":2963617,"photoId":"1034-15","tags":[{"name":"chair","coordinates":[0.5771619319915772,0.25383996963500977,0.14626256227493287,0.38014945983886717]},{"name":"microwave","coordinates":[0.05629491209983826,0.6850681940714518,0.10866705179214478,0.41259950002034507]},{"name":"bowl","coordinates":[0.32891335487365725,0.158633820215861,0.15596200227737428,0.10282447338104247]},{"name":"bottle","coordinates":[0.1379006028175354,0.11478598117828369,0.04929395318031311,0.18405383427937824]},{"name":"bottle","coordinates":[0.027031758427619935,0.158694060643514,0.05655478835105896,0.1205587387084961]},{"name":"bottle","coordinates":[0.10577837228775025,0.13644310633341472,0.03419115543365479,0.10627864996592204]}]}
