{"src":"https://a0.muscache.com/im/pictures/892f0faa-10fe-49dc-9073-f2c991837193.jpg?aki_policy=xx_large","name":"Casa Elma &amp; David","listingId":20502335,"photoId":"1035-2","tags":[{"name":"diningtable","coordinates":[0.48420184100115743,0.7256568272908529,1.0308125813802083,0.5118814786275228]},{"name":"pottedplant","coordinates":[0.6085290979456018,0.1655139923095703,0.25233309710467305,0.3271124521891276]},{"name":"bowl","coordinates":[0.5084435922128183,0.794018300374349,0.25672344631618926,0.09601209958394369]},{"name":"vase","coordinates":[0.34441132722077544,0.4912848154703776,0.1309584864863643,0.16753149032592773]},{"name":"bottle","coordinates":[0.34441132722077544,0.4912848154703776,0.1309584864863643,0.16753149032592773]},{"name":"bottle","coordinates":[0.6733688919632523,0.7029541651407878,0.1167955893057364,0.1577396074930827]},{"name":"pottedplant","coordinates":[0.8064102737991898,0.2740402857462565,0.13479810644079138,0.09711690743764241]},{"name":"fork","coordinates":[0.13978428310818142,0.7936715443929037,0.09429320582637081,0.1318164587020874]},{"name":"fork","coordinates":[0.1769553855613426,0.7943260828653972,0.09004259462709781,0.13541304270426432]},{"name":"bottle","coordinates":[0.048552619086371526,0.6281915664672851,0.09127125210232205,0.13085660139719646]},{"name":"cup","coordinates":[0.6173197993525752,0.611985715230306,0.120569822523329,0.07386114597320556]},{"name":"cup","coordinates":[0.48173099093967015,0.6771987279256185,0.1300689697265625,0.0665909210840861]},{"name":"bowl","coordinates":[0.48173099093967015,0.6771987279256185,0.1300689697265625,0.0665909210840861]},{"name":"cup","coordinates":[0.6455463550708912,0.5415500640869141,0.07704846417462384,0.09916346867879232]},{"name":"fork","coordinates":[0.9188950715241608,0.6823273340861002,0.18166356969762731,0.02352229952812195]}]}
