{"src":"https://a0.muscache.com/im/pictures/38367008/510e2866_original.jpg?aki_policy=xx_large","name":"Unique views from modern apartment","listingId":2981249,"photoId":"1035-2","tags":[{"name":"diningtable","coordinates":[0.5674015045166015,0.6327545166015625,0.7144503593444824,0.7035024007161458]},{"name":"chair","coordinates":[0.7546402931213378,0.7389020919799805,0.1885362982749939,0.47345053354899086]},{"name":"cat","coordinates":[0.36467690467834474,0.5377265930175781,0.2817681312561035,0.29135119120279945]},{"name":"chair","coordinates":[0.12689759731292724,0.4734003702799479,0.16663777828216553,0.4572779655456543]},{"name":"tvmonitor","coordinates":[0.7952362060546875,0.24865237871805826,0.1677376627922058,0.19047274589538574]},{"name":"chair","coordinates":[0.18702173233032227,0.281594975789388,0.11520442962646485,0.07521349589029948]},{"name":"vase","coordinates":[0.3407576560974121,0.2154674530029297,0.057248204946517944,0.15073874791463215]},{"name":"bottle","coordinates":[0.4150669097900391,0.22251351674397787,0.02144457995891571,0.09605088233947753]}]}
