{"src":"https://a0.muscache.com/im/pictures/892f0faa-10fe-49dc-9073-f2c991837193.jpg?aki_policy=xx_large","name":"Casa Elma &amp; David","listingId":20502335,"photoId":"1035-2","tags":[{"name":"diningtable","coordinates":[0.2726475434208811,0.7256568272908529,0.5804366985873958,0.5118814786275228]},{"name":"pottedplant","coordinates":[0.34265454941671014,0.1655139923095703,0.1420853727179598,0.3271124521891276]},{"name":"bowl","coordinates":[0.2862977474399602,0.794018300374349,0.14455751930212948,0.09601209958394369]},{"name":"vase","coordinates":[0.19393338550492048,0.4912848154703776,0.07374096215082035,0.16753149032592773]},{"name":"bottle","coordinates":[0.19393338550492048,0.4912848154703776,0.07374096215082035,0.16753149032592773]},{"name":"bottle","coordinates":[0.3791649652347823,0.7029541651407878,0.06576602526079005,0.1577396074930827]},{"name":"pottedplant","coordinates":[0.4540787777388556,0.2740402857462565,0.07590300049846438,0.09711690743764241]},{"name":"fork","coordinates":[0.07871064950825649,0.7936715443929037,0.05309523581464049,0.1318164587020874]},{"name":"fork","coordinates":[0.09964119729210115,0.7943260828653972,0.050701773825477386,0.13541304270426432]},{"name":"bottle","coordinates":[0.02733932670139794,0.6281915664672851,0.0513936143224754,0.13085660139719646]},{"name":"cup","coordinates":[0.34760447513075143,0.611985715230306,0.06789124521647305,0.07386114597320556]},{"name":"cup","coordinates":[0.2712562409879269,0.6771987279256185,0.07324008722872133,0.0665909210840861]},{"name":"bowl","coordinates":[0.2712562409879269,0.6771987279256185,0.07324008722872133,0.0665909210840861]},{"name":"cup","coordinates":[0.36349846896588245,0.5415500640869141,0.0433849537583909,0.09916346867879232]},{"name":"fork","coordinates":[0.5174174542471813,0.6823273340861002,0.1022923124470477,0.02352229952812195]}]}
