{"src":"https://a0.muscache.com/im/pictures/892f0faa-10fe-49dc-9073-f2c991837193.jpg?aki_policy=xx_large","name":"Casa Elma &amp; David","listingId":20502335,"photoId":"1035-2","tags":[{"name":"diningtable","coordinates":[-0.0312044496889467,0.4697160879770915,1.0308125813802083,0.5118814786275228]},{"name":"pottedplant","coordinates":[0.4823625493932653,0.0019577662150065123,0.25233309710467305,0.3271124521891276]},{"name":"bowl","coordinates":[0.3800818690547237,0.7460122505823771,0.25672344631618926,0.09601209958394369]},{"name":"vase","coordinates":[0.2789320839775933,0.40751907030741374,0.1309584864863643,0.16753149032592773]},{"name":"bottle","coordinates":[0.2789320839775933,0.40751907030741374,0.1309584864863643,0.16753149032592773]},{"name":"bottle","coordinates":[0.6149710973103841,0.6240843613942464,0.1167955893057364,0.1577396074930827]},{"name":"pottedplant","coordinates":[0.7390112205787942,0.2254818320274353,0.13479810644079138,0.09711690743764241]},{"name":"fork","coordinates":[0.09263768019499602,0.72776331504186,0.09429320582637081,0.1318164587020874]},{"name":"fork","coordinates":[0.1319340882477937,0.726619561513265,0.09004259462709781,0.13541304270426432]},{"name":"bottle","coordinates":[0.002916993035210501,0.562763265768687,0.09127125210232205,0.13085660139719646]},{"name":"cup","coordinates":[0.5570348880909107,0.5750551422437032,0.120569822523329,0.07386114597320556]},{"name":"cup","coordinates":[0.41669650607638886,0.6439032673835755,0.1300689697265625,0.0665909210840861]},{"name":"bowl","coordinates":[0.41669650607638886,0.6439032673835755,0.1300689697265625,0.0665909210840861]},{"name":"cup","coordinates":[0.6070221229835793,0.4919683297475179,0.07704846417462384,0.09916346867879232]},{"name":"fork","coordinates":[0.8280632866753472,0.6705661843220393,0.18166356969762731,0.02352229952812195]}]}
