{"src":"https://a0.muscache.com/im/pictures/bf6a8ae4-d687-4461-9164-c0a66fb8b1e0.jpg?aki_policy=xx_large","name":"P` Residence (Batu Kawa Kuching)","listingId":20504624,"photoId":"1037-5","tags":[{"name":"sofa","coordinates":[0.5671954188469701,0.4061418533325195,0.42180238674619436,0.40641695658365884]},{"name":"diningtable","coordinates":[0.43908844470605546,0.4040214061737061,0.15018944959915959,0.15973971684773763]},{"name":"tvmonitor","coordinates":[0.05977024909204845,0.30906304518381755,0.10166513054376464,0.2086310863494873]},{"name":"chair","coordinates":[0.5247722450035982,0.395425542195638,0.07702784422875195,0.18434371948242187]},{"name":"chair","coordinates":[0.5559058505794575,0.4053658088048299,0.07357622514377805,0.17258893648783366]},{"name":"chair","coordinates":[0.3709225293530979,0.39474755922953286,0.06436198321661848,0.1797956148783366]}]}
