{"src":"https://a0.muscache.com/im/pictures/3212846/c14c5ee1_original.jpg?aki_policy=xx_large","name":"Cosy apt @ sea with rooftop jacuzzi","listingId":298947,"photoId":"1037-5","tags":[{"name":"oven","coordinates":[0.5294591267903646,0.7663565317789713,0.3326207054985894,0.2949858029683431]},{"name":"sink","coordinates":[1.5311642116970485,0.7355095545450846,0.352276971605089,0.09280497233072917]},{"name":"pottedplant","coordinates":[1.0167037116156683,0.4741090774536133,0.15307466718885634,0.17407104174296062]},{"name":"pottedplant","coordinates":[0.9395088195800781,0.5155019760131836,0.07641625934176975,0.07389220396677652]},{"name":"bowl","coordinates":[1.146703847249349,0.5351294835408529,0.09741321139865451,0.04677004814147949]},{"name":"knife","coordinates":[1.2972535027398004,0.5123873392740885,0.0144232882393731,0.04246822198232015]},{"name":"knife","coordinates":[1.2931868659125434,0.48140303293863934,0.01344346867667304,0.04301780064900716]}]}
