{"src":"https://a0.muscache.com/im/pictures/3143857/3fba2cdb_original.jpg?aki_policy=xx_large","name":"ATTIC near city center The Hague, 3 km to BEACH !","listingId":299424,"photoId":"1038-7","tags":[{"name":"sofa","coordinates":[0.220675171746148,0.6073217391967773,0.44755660163031685,0.41785383224487305]},{"name":"chair","coordinates":[0.6247249603271484,0.7418089548746745,0.3528858608669705,0.4838715553283691]},{"name":"bed","coordinates":[0.518520016140408,0.3652459780375163,0.2341361575656467,0.20503543217976888]},{"name":"cup","coordinates":[0.8157636854383681,0.46843592325846356,0.03717156251271566,0.06486251354217529]},{"name":"cup","coordinates":[0.879103257921007,0.48792937596638997,0.015029839674631755,0.041712323824564614]}]}
