{"src":"https://a0.muscache.com/im/pictures/3315370/48936661_original.jpg?aki_policy=xx_large","name":"ATTIC near city center The Hague, 3 km to BEACH !","listingId":299424,"photoId":"1038-2","tags":[{"name":"sofa","coordinates":[0.7421115451388889,0.7650913874308268,0.4893572489420573,0.3830957094828288]},{"name":"tvmonitor","coordinates":[0.18787235683865017,0.7465759913126627,0.16263819800482857,0.28560129801432294]},{"name":"pottedplant","coordinates":[0.4297052171495226,0.6007117589314779,0.07110914654201932,0.10445825258890788]},{"name":"pottedplant","coordinates":[0.6889374203152127,0.4905104955037435,0.04299152692159017,0.06852807998657226]},{"name":"vase","coordinates":[0.42692010667588975,0.6260522206624349,0.02897707091437446,0.04902255932490031]},{"name":"vase","coordinates":[0.6856101565890842,0.5082318623860677,0.017366005314721003,0.03209474285443624]}]}
