{"src":"https://a0.muscache.com/im/pictures/39407293/4b949031_original.jpg?aki_policy=xx_large","name":"Light attic with lovely roof garden","listingId":3030616,"photoId":"1039-6","tags":[{"name":"diningtable","coordinates":[0.3571061452229818,0.8658924738566081,0.4562660641140408,0.24847092628479003]},{"name":"pottedplant","coordinates":[0.7569428337944879,0.7229405721028646,0.1528725200229221,0.2468135674794515]},{"name":"chair","coordinates":[0.3753052181667752,0.895988655090332,0.14669195810953775,0.22398099899291993]},{"name":"chair","coordinates":[0.5592822604709201,0.8783936818440755,0.1283807012769911,0.2412775993347168]},{"name":"bottle","coordinates":[0.9340863545735677,0.8562151590983073,0.03920431401994493,0.1753827412923177]},{"name":"vase","coordinates":[0.7594022962782118,0.804182497660319,0.06778007613288031,0.0931098222732544]}]}
