{"src":"https://a0.muscache.com/im/pictures/9fc050dc-08f3-438b-9d93-1c1292ef527a.jpg?aki_policy=xx_large","name":"Luxury Two Bed Room Suite With Private Entrance","listingId":20545256,"photoId":"1039-0","tags":[{"name":"chair","coordinates":[0.10081263648139108,0.44739305178324384,0.15138511657714843,0.37284924189249674]},{"name":"chair","coordinates":[0.00010600884755452428,0.3993309020996094,0.0512839158376058,0.4022064208984375]},{"name":"refrigerator","coordinates":[0.4427933269076877,0.27404464085896807,0.12428264617919922,0.15526943206787108]},{"name":"chair","coordinates":[0.2499644200007121,0.44375263849894203,0.05952936278449165,0.29296627044677737]},{"name":"microwave","coordinates":[0.4452807108561198,0.1685654560724894,0.12186177571614583,0.09867943127950032]},{"name":"tvmonitor","coordinates":[0.4452807108561198,0.1685654560724894,0.12186177571614583,0.09867943127950032]},{"name":"chair","coordinates":[0.19991547796461318,0.4175845464070638,0.06544817818535699,0.06778221130371094]},{"name":"chair","coordinates":[0.07959094180001153,0.422405993938446,0.03875497976938883,0.08073338667551676]}]}
