{"src":"https://a0.muscache.com/im/pictures/9fc050dc-08f3-438b-9d93-1c1292ef527a.jpg?aki_policy=xx_large","name":"Luxury Two Bed Room Suite With Private Entrance","listingId":20545256,"photoId":"1039-0","tags":[{"name":"chair","coordinates":[0.1765051947699653,0.6338176727294922,0.15138511657714843,0.37284924189249674]},{"name":"chair","coordinates":[0.025747966766357423,0.6004341125488282,0.0512839158376058,0.4022064208984375]},{"name":"refrigerator","coordinates":[0.5049346499972873,0.35167935689290364,0.12428264617919922,0.15526943206787108]},{"name":"chair","coordinates":[0.2797291013929579,0.5902357737223307,0.05952936278449165,0.29296627044677737]},{"name":"microwave","coordinates":[0.5062115987141927,0.21790517171223958,0.12186177571614583,0.09867943127950032]},{"name":"tvmonitor","coordinates":[0.5062115987141927,0.21790517171223958,0.12186177571614583,0.09867943127950032]},{"name":"chair","coordinates":[0.23263956705729166,0.45147565205891926,0.06544817818535699,0.06778221130371094]},{"name":"chair","coordinates":[0.09896843168470594,0.4627726872762044,0.03875497976938883,0.08073338667551676]}]}
