{"src":"https://a0.muscache.com/im/pictures/f9f90437-c0e3-4814-97b1-66c6a01ed6e4.jpg?aki_policy=xx_large","name":"良一/湖景房/临近南湖-单独房间","listingId":20549797,"photoId":"1040-19","tags":[{"name":"pottedplant","coordinates":[0.651337993144989,0.16635241508483883,0.3091017007827759,0.49383490880330405]},{"name":"diningtable","coordinates":[0.8186280906200409,0.5247153759002685,0.18157106637954712,0.5101351102193197]},{"name":"book","coordinates":[0.5914482951164245,0.49667750199635824,0.14620487689971923,0.2348974068959554]},{"name":"book","coordinates":[0.5970813274383545,0.5323052565256755,0.07298612594604492,0.20577484766642254]},{"name":"book","coordinates":[0.5688702493906022,0.5545974493026733,0.04833480715751648,0.2166021188100179]},{"name":"book","coordinates":[0.46267800629138944,0.5366782665252685,0.03877028822898865,0.2679800351460775]},{"name":"book","coordinates":[0.5375092968344689,0.5534438212712607,0.03679600059986114,0.22937652269999187]},{"name":"clock","coordinates":[0.6728779792785644,0.06318161090215048,0.06958246231079102,0.11051739851633707]}]}
