{"src":"https://a0.muscache.com/im/pictures/1cf8d9ad-8fd3-4931-869a-a3ae8837f3cb.jpg?aki_policy=xx_large","name":"良一/湖景房/临近南湖-单独房间","listingId":20549797,"photoId":"1040-20","tags":[{"name":"diningtable","coordinates":[0.5096535205841064,0.719158681233724,0.910682201385498,0.6096352895100912]},{"name":"pottedplant","coordinates":[0.2836578369140625,0.8185866673787435,0.2874894618988037,0.30366636912027994]},{"name":"chair","coordinates":[0.1463930368423462,0.6851494471232097,0.22050483226776124,0.30599660873413087]},{"name":"chair","coordinates":[0.4335775375366211,0.5329937299092611,0.12195221185684205,0.21285724639892578]},{"name":"chair","coordinates":[0.5735506057739258,0.4566418965657552,0.07384610176086426,0.17409674326578775]},{"name":"wine-glass","coordinates":[0.8385887145996094,0.4166005452473958,0.06154619455337525,0.2064320723215739]},{"name":"vase","coordinates":[0.8385887145996094,0.4166005452473958,0.06154619455337525,0.2064320723215739]},{"name":"chair","coordinates":[0.9677163124084472,0.5273146629333496,0.05582810640335083,0.18160468737284344]},{"name":"chair","coordinates":[0.6667864799499512,0.4189242998758952,0.06838011741638184,0.14126529693603515]},{"name":"chair","coordinates":[0.7407627105712891,0.39193048477172854,0.049567845463752744,0.11130832036336263]},{"name":"chair","coordinates":[0.98548583984375,0.44303976694742836,0.026139050722122192,0.037781508763631184]}]}
