{"src":"https://a0.muscache.com/im/pictures/9d77390e-590b-4dc1-8a23-d3c4809371e1.jpg?aki_policy=xx_large","name":"良一/湖景房/临近南湖-单独房间","listingId":20549797,"photoId":"1040-34","tags":[{"name":"chair","coordinates":[0.6859707990094717,0.6743293762207032,0.29242874845751066,0.2942994435628255]},{"name":"person","coordinates":[0.21645399193371884,0.27524169286092126,0.16150024479201408,0.494916025797526]},{"name":"diningtable","coordinates":[0.45541057769873106,0.6548603216807047,0.29301568258279415,0.26473906834920247]},{"name":"chair","coordinates":[0.2781099626832227,0.7215046564737956,0.276142165144327,0.27404607137044273]},{"name":"pottedplant","coordinates":[0.8360101950206776,0.36654125849405916,0.16264833431997064,0.3840243657430013]},{"name":"pottedplant","coordinates":[0.5856555421680625,0.4544626871744792,0.12805847526232741,0.22080574035644532]}]}
