{"src":"https://a0.muscache.com/im/pictures/9d77390e-590b-4dc1-8a23-d3c4809371e1.jpg?aki_policy=xx_large","name":"良一/湖景房/临近南湖-单独房间","listingId":20549797,"photoId":"1040-34","tags":[{"name":"chair","coordinates":[0.832185173238227,0.8214790980021159,0.29242874845751066,0.2942994435628255]},{"name":"person","coordinates":[0.2972041143297259,0.5226997057596843,0.16150024479201408,0.494916025797526]},{"name":"diningtable","coordinates":[0.6019184189901281,0.787229855855306,0.29301568258279415,0.26473906834920247]},{"name":"chair","coordinates":[0.4161810452553862,0.8585276921590169,0.276142165144327,0.27404607137044273]},{"name":"pottedplant","coordinates":[0.917334362180663,0.5585534413655598,0.16264833431997064,0.3840243657430013]},{"name":"pottedplant","coordinates":[0.6496847797992262,0.5648655573527018,0.12805847526232741,0.22080574035644532]}]}
