{"src":"https://a0.muscache.com/im/pictures/f9f90437-c0e3-4814-97b1-66c6a01ed6e4.jpg?aki_policy=xx_large","name":"良一/湖景房/临近南湖-单独房间","listingId":20549797,"photoId":"1040-19","tags":[{"name":"pottedplant","coordinates":[0.8058888435363769,0.41326986948649086,0.3091017007827759,0.49383490880330405]},{"name":"diningtable","coordinates":[0.9094136238098145,0.7797829310099283,0.18157106637954712,0.5101351102193197]},{"name":"book","coordinates":[0.6645507335662841,0.6141262054443359,0.14620487689971923,0.2348974068959554]},{"name":"book","coordinates":[0.633574390411377,0.6351926803588868,0.07298612594604492,0.20577484766642254]},{"name":"book","coordinates":[0.5930376529693604,0.6628985087076823,0.04833480715751648,0.2166021188100179]},{"name":"book","coordinates":[0.48206315040588377,0.6706682840983073,0.03877028822898865,0.2679800351460775]},{"name":"book","coordinates":[0.5559072971343995,0.6681320826212566,0.03679600059986114,0.22937652269999187]},{"name":"clock","coordinates":[0.7076692104339599,0.11844031016031902,0.06958246231079102,0.11051739851633707]}]}
