{"src":"https://a0.muscache.com/im/pictures/9bc8f28f-e2b3-4a76-92b9-cf324d5160d8.jpg?aki_policy=xx_large","name":"良一/湖景房/临近南湖-单独房间","listingId":20549797,"photoId":"1040-20","tags":[{"name":"pottedplant","coordinates":[0.2799086093902588,0.49536911646525067,0.6003983497619629,0.9423548380533854]},{"name":"chair","coordinates":[0.5812813758850097,0.7748774846394857,0.4606544017791748,0.43416144053141276]},{"name":"diningtable","coordinates":[0.7972611427307129,0.7124061584472656,0.39229331016540525,0.5073920567830403]},{"name":"pottedplant","coordinates":[0.8172229766845703,0.3117214202880859,0.23098185062408447,0.3256270408630371]},{"name":"cup","coordinates":[0.7212824344635009,0.49345006942749026,0.04643416404724121,0.0788897196451823]},{"name":"vase","coordinates":[0.759399700164795,0.4632139523824056,0.03051706850528717,0.08166468143463135]}]}
