{"src":"https://a0.muscache.com/im/pictures/9bc8f28f-e2b3-4a76-92b9-cf324d5160d8.jpg?aki_policy=xx_large","name":"良一/湖景房/临近南湖-单独房间","listingId":20549797,"photoId":"1040-20","tags":[{"name":"pottedplant","coordinates":[0.4523775505297112,0.49536911646525067,0.9703407672920612,0.9423548380533854]},{"name":"chair","coordinates":[0.9394446478949653,0.7748774846394857,0.7444919624713936,0.43416144053141276]},{"name":"diningtable","coordinates":[1.288502856938526,0.7124061584472656,0.6340093901663115,0.5073920567830403]},{"name":"pottedplant","coordinates":[1.3207644067629418,0.3117214202880859,0.3733040010086214,0.3256270408630371]},{"name":"cup","coordinates":[1.1657089849915168,0.49345006942749026,0.07504511361170296,0.0788897196451823]},{"name":"vase","coordinates":[1.2273126467309816,0.4632139523824056,0.049320514756019666,0.08166468143463135]}]}
