{"src":"https://a0.muscache.com/im/pictures/1cf8d9ad-8fd3-4931-869a-a3ae8837f3cb.jpg?aki_policy=xx_large","name":"良一/湖景房/临近南湖-单独房间","listingId":20549797,"photoId":"1040-20","tags":[{"name":"diningtable","coordinates":[0.05431241989135738,0.41434103647867837,0.910682201385498,0.6096352895100912]},{"name":"pottedplant","coordinates":[0.13991310596466064,0.6667534828186036,0.2874894618988037,0.30366636912027994]},{"name":"chair","coordinates":[0.036140620708465576,0.5321511427561443,0.22050483226776124,0.30599660873413087]},{"name":"chair","coordinates":[0.3726014316082001,0.4265651067097982,0.12195221185684205,0.21285724639892578]},{"name":"chair","coordinates":[0.5366275548934937,0.36959352493286135,0.07384610176086426,0.17409674326578775]},{"name":"wine-glass","coordinates":[0.8078156173229217,0.31338450908660886,0.06154619455337525,0.2064320723215739]},{"name":"vase","coordinates":[0.8078156173229217,0.31338450908660886,0.06154619455337525,0.2064320723215739]},{"name":"chair","coordinates":[0.9398022592067719,0.4365123192469279,0.05582810640335083,0.18160468737284344]},{"name":"chair","coordinates":[0.6325964212417603,0.3482916514078776,0.06838011741638184,0.14126529693603515]},{"name":"chair","coordinates":[0.7159787878394127,0.3362763245900472,0.049567845463752744,0.11130832036336263]},{"name":"chair","coordinates":[0.972416314482689,0.42414901256561277,0.026139050722122192,0.037781508763631184]}]}
