{"src":"https://a0.muscache.com/im/pictures/e56fa174-e542-45f9-9b99-dac332a81f0f.jpg?aki_policy=xx_large","name":"Lakeview tower apartment loft with amazing sunset!","listingId":304145,"photoId":"1041-10","tags":[{"name":"diningtable","coordinates":[0.5685485363006592,0.910381571451823,0.9064037322998046,0.14686341285705568]},{"name":"chair","coordinates":[0.9820271492004394,0.6957585016886393,0.27793097496032715,0.4626678466796875]},{"name":"sofa","coordinates":[0.2901630878448486,0.4827816327412923,0.3468735694885254,0.2604781945546468]},{"name":"sofa","coordinates":[0.6482011318206787,0.484219233194987,0.24904580116271974,0.26153135299682617]},{"name":"pottedplant","coordinates":[1.0492919921875,0.29415206909179686,0.14556703567504883,0.41242650349934895]},{"name":"pottedplant","coordinates":[0.05774557590484619,0.41047633488972984,0.12301596403121948,0.40709867477416994]},{"name":"pottedplant","coordinates":[0.403118896484375,0.25922056833902996,0.0759466290473938,0.12415665785471598]},{"name":"pottedplant","coordinates":[0.6358474254608154,0.3039891560872396,0.04201553463935852,0.0750091552734375]}]}
