{"src":"https://a0.muscache.com/im/pictures/5b78e0ec-7482-4ff6-9b66-be5fbcbd572c.jpg?aki_policy=xx_large","name":"Lakeview tower apartment loft with amazing sunset!","listingId":304145,"photoId":"1041-9","tags":[{"name":"sofa","coordinates":[0.2882767890855898,0.48074747721354166,0.27169008215213186,0.2527204831441244]},{"name":"sofa","coordinates":[0.5953255813874522,0.46767962773640953,0.239972025694867,0.24644447962443033]},{"name":"pottedplant","coordinates":[0.9342973945203842,0.4176392873128255,0.12866356309829732,0.31656808853149415]},{"name":"bowl","coordinates":[0.9601841954428895,0.7146543502807617,0.08118193073299233,0.19672943751017252]},{"name":"pottedplant","coordinates":[0.40640241811272165,0.2479831059773763,0.07222848608364482,0.15581607818603516]},{"name":"orange","coordinates":[0.06807306048269895,0.34684057235717775,0.025350146233952594,0.027474323908487957]}]}
