{"src":"https://a0.muscache.com/im/pictures/b6d268c3-77de-4f06-a67f-67df356926ce.jpg?aki_policy=xx_large","name":"Glenwood Studio Cottage","listingId":20568157,"photoId":"1044-2","tags":[{"name":"chair","coordinates":[0.6340118249257405,0.535883355140686,0.08815353181627061,0.17979655265808106]},{"name":"pottedplant","coordinates":[0.41938372717963324,0.3842533469200134,0.08433045281304254,0.06370925108591716]},{"name":"bowl","coordinates":[0.3633030255635579,0.5680529395739238,0.10726456112331814,0.04896886348724365]},{"name":"pottedplant","coordinates":[0.5314572572708129,0.39231947660446165,0.06392688221401638,0.050548640886942546]},{"name":"sink","coordinates":[0.8200911998748779,0.505691197514534,0.11854528850979275,0.018791351715723673]}]}
