{"src":"https://a0.muscache.com/im/pictures/b6d268c3-77de-4f06-a67f-67df356926ce.jpg?aki_policy=xx_large","name":"Glenwood Studio Cottage","listingId":20568157,"photoId":"1044-2","tags":[{"name":"chair","coordinates":[0.6780885908338758,0.6257816314697265,0.08815353181627061,0.17979655265808106]},{"name":"pottedplant","coordinates":[0.4615489535861545,0.416107972462972,0.08433045281304254,0.06370925108591716]},{"name":"bowl","coordinates":[0.416935306125217,0.5925373713175456,0.10726456112331814,0.04896886348724365]},{"name":"pottedplant","coordinates":[0.5634206983778212,0.4175937970479329,0.06392688221401638,0.050548640886942546]},{"name":"sink","coordinates":[0.8793638441297743,0.5150868733723958,0.11854528850979275,0.018791351715723673]}]}
