{"src":"https://a0.muscache.com/im/pictures/2c6ddd8e-ae5b-48f2-a9f3-b600589d1bb2.jpg?aki_policy=xx_large","name":"Modern retreat 110m close to beach","listingId":3096731,"photoId":"1044-2","tags":[{"name":"book","coordinates":[0.7950002882215712,0.4939226468404134,0.3702150132921007,0.8144337972005208]},{"name":"diningtable","coordinates":[0.4213550567626953,0.8516193389892578,0.8762173970540365,0.3024981180826823]},{"name":"chair","coordinates":[0.7846068488226996,0.9140293757120769,0.261723878648546,0.1541463534037272]},{"name":"pottedplant","coordinates":[0.18199596405029297,0.4841501235961914,0.16866024865044488,0.23043120702107747]},{"name":"pottedplant","coordinates":[0.38873960706922744,0.49030984242757164,0.10932188034057617,0.337045415242513]},{"name":"chair","coordinates":[0.4910888248019748,0.6461949666341146,0.14909010993109809,0.11821235815684]},{"name":"bottle","coordinates":[0.29902691311306423,0.8393092473347982,0.04954615169101291,0.28417466481526693]},{"name":"tvmonitor","coordinates":[0.6972694396972656,0.5922313054402669,0.0771330303615994,0.1036776860555013]},{"name":"wine-glass","coordinates":[0.35513994428846574,0.8383768717447917,0.04040113819970025,0.1472347100575765]},{"name":"pottedplant","coordinates":[0.21434184180365667,0.6528483072916667,0.0429614437950982,0.08923142751057943]},{"name":"book","coordinates":[0.8745126512315539,0.30400733947753905,0.008810198969311185,0.05241177876790364]},{"name":"book","coordinates":[0.9316559685601129,0.19639201164245607,0.008076057169172498,0.055385267734527587]},{"name":"book","coordinates":[0.856697760687934,0.3067625999450684,0.007913901408513387,0.05391244093577067]},{"name":"book","coordinates":[0.8756841871473524,0.22444515228271483,0.007779330677456326,0.051624107360839847]}]}
