{"src":"https://a0.muscache.com/im/pictures/e4eedf29-087b-4391-8712-fa500fcbaf66.jpg?aki_policy=xx_large","name":"Spacious Downstairs Apartment","listingId":20572313,"photoId":"1045-0","tags":[{"name":"chair","coordinates":[0.02881035274929472,0.5155476888020833,0.3813863118489583,0.48804155985514325]},{"name":"chair","coordinates":[0.6986615392896863,0.3873733361562094,0.2679665671454536,0.46606423060099283]},{"name":"pottedplant","coordinates":[0.39354418648613826,0.15197022755940756,0.17376528845893013,0.40285078684488934]},{"name":"pottedplant","coordinates":[0.20513715214199488,0.20610557397206625,0.16080817116631402,0.22081726392110188]},{"name":"pottedplant","coordinates":[0.9460152202182346,0.5105646689732869,0.04961096445719401,0.24470648765563965]},{"name":"pottedplant","coordinates":[0.45721800857120093,0.43055652379989623,0.07348326047261557,0.12857016722361247]},{"name":"truck","coordinates":[0.09632867707146539,0.13742342392603557,0.1038416650560167,0.08252044518788655]},{"name":"car","coordinates":[0.09632867707146539,0.13742342392603557,0.1038416650560167,0.08252044518788655]},{"name":"pottedplant","coordinates":[0.8542569650544061,0.039224855105082196,0.0390561925040351,0.13946520487467448]},{"name":"pottedplant","coordinates":[0.8382304377026029,0.3844391783078512,0.04510335392422146,0.0809459129969279]},{"name":"pottedplant","coordinates":[0.7912112845314874,0.3922550082206726,0.047941064834594725,0.0732894500096639]}]}
