{"src":"https://a0.muscache.com/im/pictures/e4eedf29-087b-4391-8712-fa500fcbaf66.jpg?aki_policy=xx_large","name":"Spacious Downstairs Apartment","listingId":20572313,"photoId":"1045-0","tags":[{"name":"chair","coordinates":[0.21950350867377388,0.759568468729655,0.3813863118489583,0.48804155985514325]},{"name":"chair","coordinates":[0.8326448228624131,0.6204054514567058,0.2679665671454536,0.46606423060099283]},{"name":"pottedplant","coordinates":[0.4804268307156033,0.35339562098185223,0.17376528845893013,0.40285078684488934]},{"name":"pottedplant","coordinates":[0.2855412377251519,0.3165142059326172,0.16080817116631402,0.22081726392110188]},{"name":"pottedplant","coordinates":[0.9708207024468316,0.6329179128011068,0.04961096445719401,0.24470648765563965]},{"name":"pottedplant","coordinates":[0.4939596388075087,0.49484160741170247,0.07348326047261557,0.12857016722361247]},{"name":"truck","coordinates":[0.14824950959947375,0.17868364651997884,0.1038416650560167,0.08252044518788655]},{"name":"car","coordinates":[0.14824950959947375,0.17868364651997884,0.1038416650560167,0.08252044518788655]},{"name":"pottedplant","coordinates":[0.8737850613064236,0.10895745754241944,0.0390561925040351,0.13946520487467448]},{"name":"pottedplant","coordinates":[0.8607821146647135,0.4249121348063151,0.04510335392422146,0.0809459129969279]},{"name":"pottedplant","coordinates":[0.8151818169487848,0.42889973322550456,0.047941064834594725,0.0732894500096639]}]}
