{"src":"https://a0.muscache.com/im/pictures/eec1056b-b5c9-41fd-a82f-9905c76946b2.jpg?aki_policy=xx_large","name":"Feel at home in this cozy apartment","listingId":3145702,"photoId":"1048-10","tags":[{"name":"diningtable","coordinates":[0.5065469106038412,0.8335257212320963,0.562968741522895,0.3462193489074707]},{"name":"pottedplant","coordinates":[0.3953219519721137,0.5976324081420898,0.1767823749118381,0.4549194653828939]},{"name":"chair","coordinates":[0.2826255586412218,0.8843324661254883,0.1708052635192871,0.2397073745727539]},{"name":"chair","coordinates":[0.6603250291612414,0.7090201695760091,0.11687928305731879,0.08962910970052083]},{"name":"chair","coordinates":[0.5072364807128906,0.6798806508382161,0.10495871437920465,0.06738101641337077]},{"name":"pottedplant","coordinates":[0.5615698496500651,0.5362542470296224,0.05046028031243218,0.10685250759124756]},{"name":"wine-glass","coordinates":[0.29412884182400173,0.596803855895996,0.02208448913362291,0.1423970381418864]}]}
