{"src":"https://a0.muscache.com/im/pictures/fccf3048-844b-43fa-a30c-df70ed7682ea.jpg?aki_policy=xx_large","name":"Feel at home in this cozy apartment","listingId":3145702,"photoId":"1048-1","tags":[{"name":"sofa","coordinates":[0.7766343116760254,0.6332246780395507,0.2508769273757935,0.25642544428507485]},{"name":"pottedplant","coordinates":[0.811156940460205,0.8270971298217773,0.22101142406463622,0.28366047541300454]},{"name":"pottedplant","coordinates":[0.1133110523223877,0.7764387766520182,0.2065363883972168,0.2857892354329427]},{"name":"pottedplant","coordinates":[0.41842188835144045,0.5456476847330729,0.12260557413101196,0.17315271695454915]},{"name":"chair","coordinates":[0.5402034759521485,0.541477648417155,0.10784080028533935,0.16829994519551594]},{"name":"pottedplant","coordinates":[0.22724606990814208,0.5124151229858398,0.08883151412010193,0.15023783047993977]},{"name":"tvmonitor","coordinates":[0.22724606990814208,0.5124151229858398,0.08883151412010193,0.15023783047993977]},{"name":"pottedplant","coordinates":[0.16192269325256348,0.5939319610595704,0.03274626135826111,0.050036394596099855]}]}
