{"src":"https://a0.muscache.com/im/pictures/bf1a5f84-2d45-4dc1-8475-0b26463c61e0.jpg?aki_policy=xx_large","name":"Green, Serene Home near Sri Sri AOL Ashram - B","listingId":20599639,"photoId":"1051-0","tags":[{"name":"chair","coordinates":[0.5354212019178602,0.6681609471638997,0.38016094631618924,0.3249187469482422]},{"name":"sofa","coordinates":[0.5354212019178602,0.6681609471638997,0.38016094631618924,0.3249187469482422]},{"name":"diningtable","coordinates":[0.11631698608398439,0.8489861210187276,0.6057241651746962,0.12892086505889894]},{"name":"chair","coordinates":[0.0002397007412380664,0.5309534867604574,0.1415631506178114,0.46381731033325196]},{"name":"chair","coordinates":[0.2951665189531114,0.530887222290039,0.1533747461107042,0.36057395935058595]},{"name":"vase","coordinates":[0.38920774194929336,0.8625812649726868,0.04609598053826226,0.11885411739349365]}]}
