{"src":"https://a0.muscache.com/im/pictures/bf1a5f84-2d45-4dc1-8475-0b26463c61e0.jpg?aki_policy=xx_large","name":"Green, Serene Home near Sri Sri AOL Ashram - B","listingId":20599639,"photoId":"1051-0","tags":[{"name":"chair","coordinates":[0.8161893844604492,0.8306203206380208,0.42768106460571287,0.3249187469482422]},{"name":"sofa","coordinates":[0.8161893844604492,0.8306203206380208,0.42768106460571287,0.3249187469482422]},{"name":"diningtable","coordinates":[0.471576452255249,0.913446553548177,0.6814396858215332,0.12892086505889894]},{"name":"chair","coordinates":[0.07989893555641174,0.7628621419270833,0.15925854444503784,0.46381731033325196]},{"name":"chair","coordinates":[0.4183356285095215,0.711174201965332,0.17254658937454223,0.36057395935058595]},{"name":"vase","coordinates":[0.46378769874572756,0.9220083236694336,0.051857978105545044,0.11885411739349365]}]}
