{"src":"https://a0.muscache.com/im/pictures/bf1a5f84-2d45-4dc1-8475-0b26463c61e0.jpg?aki_policy=xx_large","name":"Green, Serene Home near Sri Sri AOL Ashram - B","listingId":20599639,"photoId":"1051-0","tags":[{"name":"chair","coordinates":[0.7255016750759549,0.8306203206380208,0.38016094631618924,0.3249187469482422]},{"name":"sofa","coordinates":[0.7255016750759549,0.8306203206380208,0.38016094631618924,0.3249187469482422]},{"name":"diningtable","coordinates":[0.4191790686713325,0.913446553548177,0.6057241651746962,0.12892086505889894]},{"name":"chair","coordinates":[0.07102127605014377,0.7628621419270833,0.1415631506178114,0.46381731033325196]},{"name":"chair","coordinates":[0.3718538920084635,0.711174201965332,0.1533747461107042,0.36057395935058595]},{"name":"vase","coordinates":[0.4122557322184245,0.9220083236694336,0.04609598053826226,0.11885411739349365]}]}
