{"src":"https://a0.muscache.com/im/pictures/40533590/a145978e_original.jpg?aki_policy=xx_large","name":"Stylish room in classic townhouse","listingId":3183748,"photoId":"1052-7","tags":[{"name":"diningtable","coordinates":[0.8334405982513675,0.8658924738566081,1.0648673133293658,0.24847092628479003]},{"name":"pottedplant","coordinates":[1.7666088827618518,0.7229405721028646,0.35678513587197375,0.2468135674794515]},{"name":"chair","coordinates":[0.8759149338090053,0.895988655090332,0.3423604857013523,0.22398099899291993]},{"name":"chair","coordinates":[1.3052940925091168,0.8783936818440755,0.29962432712944437,0.2412775993347168]},{"name":"bottle","coordinates":[2.180039466103626,0.8562151590983073,0.09149791278560893,0.1753827412923177]},{"name":"vase","coordinates":[1.7723489572781606,0.804182497660319,0.1581901290621518,0.0931098222732544]}]}
