{"src":"https://a0.muscache.com/im/pictures/5e31c882-97a2-45f4-87c5-40a1fd512824.jpg?aki_policy=xx_large","name":"Charme e muito verde","listingId":20606901,"photoId":"1052-8","tags":[{"name":"bed","coordinates":[0.3359167098999024,0.6625840663909912,0.6583672841389974,0.3298962593078613]},{"name":"sofa","coordinates":[0.3359167098999024,0.6625840663909912,0.6583672841389974,0.3298962593078613]},{"name":"diningtable","coordinates":[0.4041905297173394,0.503984252611796,0.3743643866644965,0.2149674892425537]},{"name":"sofa","coordinates":[0.001285213894314241,0.5559000333150228,0.11782715055677626,0.42758261362711586]},{"name":"chair","coordinates":[0.37117071946462,0.4891012668609619,0.06864692370096842,0.3144592603047689]},{"name":"chair","coordinates":[0.7337132877773709,0.4739070097605387,0.08778531816270617,0.22314201990763347]}]}
