{"src":"https://a0.muscache.com/im/pictures/d228956e-f2a8-4ca9-a8cd-00009f8c0d18.jpg?aki_policy=xx_large","name":"Charme e muito verde","listingId":20606901,"photoId":"1052-7","tags":[{"name":"chair","coordinates":[0.47353269788953994,0.8188632329305013,0.4282693650987413,0.3725192387898763]},{"name":"diningtable","coordinates":[0.6005189259847005,0.7194744110107422,0.3236476262410482,0.33567879994710287]},{"name":"chair","coordinates":[0.7607530381944444,0.7209944407145182,0.17557057274712456,0.37255798975626625]},{"name":"pottedplant","coordinates":[0.6061797247992622,0.2251124858856201,0.1658805423312717,0.2000044345855713]},{"name":"chair","coordinates":[0.43430252075195314,0.5942973454793294,0.09413409762912327,0.18381679852803548]},{"name":"pottedplant","coordinates":[0.5992112053765191,0.5162743886311849,0.07979596455891927,0.1167939821879069]},{"name":"chair","coordinates":[0.6884579128689237,0.5368434270222981,0.07577285766601563,0.06009822289148967]},{"name":"vase","coordinates":[0.6033270517985027,0.5521388371785482,0.028125622537400988,0.046400551001230875]}]}
