{"src":"https://a0.muscache.com/im/pictures/d228956e-f2a8-4ca9-a8cd-00009f8c0d18.jpg?aki_policy=xx_large","name":"Charme e muito verde","listingId":20606901,"photoId":"1052-7","tags":[{"name":"chair","coordinates":[0.25939801534016926,0.6326036135355632,0.4282693650987413,0.3725192387898763]},{"name":"diningtable","coordinates":[0.4386951128641764,0.5516350110371907,0.3236476262410482,0.33567879994710287]},{"name":"chair","coordinates":[0.6729677518208821,0.5347154458363851,0.17557057274712456,0.37255798975626625]},{"name":"pottedplant","coordinates":[0.5232394536336263,0.12511026859283447,0.1658805423312717,0.2000044345855713]},{"name":"chair","coordinates":[0.3872354719373915,0.5023889462153117,0.09413409762912327,0.18381679852803548]},{"name":"pottedplant","coordinates":[0.5593132230970594,0.45787739753723145,0.07979596455891927,0.1167939821879069]},{"name":"chair","coordinates":[0.6505714840359158,0.5067943155765533,0.07577285766601563,0.06009822289148967]},{"name":"vase","coordinates":[0.5892642405298022,0.5289385616779327,0.028125622537400988,0.046400551001230875]}]}
