{"src":"https://a0.muscache.com/im/pictures/90b0ec82-afa2-4d5d-aad1-b78ddd61dc7f.jpg?aki_policy=xx_large","name":"Private room for 2, near The Hague!","listingId":3216719,"photoId":"1053-1","tags":[{"name":"chair","coordinates":[0.8325031280517579,0.8370082219441731,0.33737099170684814,0.29704500834147135]},{"name":"bed","coordinates":[0.06668584942817687,0.7293145497639973,0.13091129064559937,0.48077780405680337]},{"name":"chair","coordinates":[0.29389042854309083,0.6122975667317708,0.15425301790237428,0.21506530443827312]},{"name":"book","coordinates":[0.6496182441711426,0.6361965815226237,0.11514424085617066,0.05679441690444946]},{"name":"book","coordinates":[0.6508540153503418,0.6153324127197266,0.1041980504989624,0.0550803542137146]},{"name":"pottedplant","coordinates":[0.3997525691986084,0.5942464192708333,0.04464331269264221,0.0625483234723409]}]}
