{"src":"https://a0.muscache.com/im/pictures/42179251/147c3854_original.jpg?aki_policy=xx_large","name":"Nice light classic 90m2 apartment","listingId":3242898,"photoId":"1054-5","tags":[{"name":"diningtable","coordinates":[0.4448576185438368,0.8248709996541341,0.4640159606933594,0.34350179036458334]},{"name":"chair","coordinates":[0.6022375318739149,0.8681959788004557,0.20609647962782118,0.27985111872355145]},{"name":"chair","coordinates":[0.24920056660970052,0.8842645009358724,0.1815307829115126,0.22821954091389973]},{"name":"chair","coordinates":[0.45429424709743926,0.6184569040934245,0.07906052271525064,0.12436439196268717]},{"name":"vase","coordinates":[0.30405989752875434,0.6783217112223308,0.07212356991238064,0.12064000765482584]},{"name":"bowl","coordinates":[0.43364825778537325,0.7365992863972982,0.07174240748087565,0.0549168864885966]}]}
