{"src":"https://a0.muscache.com/im/pictures/42179204/041a4252_original.jpg?aki_policy=xx_large","name":"Nice light classic 90m2 apartment","listingId":3242898,"photoId":"1054-7","tags":[{"name":"diningtable","coordinates":[0.45230640835232205,0.8376362482706706,0.6086447397867839,0.33561712900797525]},{"name":"chair","coordinates":[0.16630656984117295,0.8672845204671223,0.09509270985921224,0.26640865008036296]},{"name":"chair","coordinates":[0.6229687160915799,0.7800376892089844,0.09617265065511067,0.1124672253926595]},{"name":"vase","coordinates":[0.38918321397569444,0.71256529490153,0.06676448716057672,0.15358111063639324]},{"name":"pottedplant","coordinates":[0.7062068515353732,0.3724329630533854,0.09620113372802734,0.08186728954315185]},{"name":"chair","coordinates":[0.49428482055664064,0.7159906387329101,0.04713852670457628,0.06255035797754924]},{"name":"bottle","coordinates":[0.5541170332166884,0.5429693857828776,0.01414240731133355,0.06549789905548095]},{"name":"book","coordinates":[0.9326728820800781,0.3319664637247721,0.009444440073437161,0.0671899159749349]},{"name":"book","coordinates":[0.8949846903483073,0.33883899052937827,0.010075999630822076,0.06185714801152547]},{"name":"book","coordinates":[0.9141294691297743,0.3355694770812988,0.009439422686894735,0.05996632973353068]},{"name":"cup","coordinates":[0.9534655253092448,0.4963318506876628,0.013583539591895209,0.03809378147125244]}]}
