{"src":"https://a0.muscache.com/im/pictures/42179237/154a8ee1_original.jpg?aki_policy=xx_large","name":"Nice light classic 90m2 apartment","listingId":3242898,"photoId":"1054-9","tags":[{"name":"refrigerator","coordinates":[0.14118883344862196,0.639153798421224,0.24123073154025607,0.7062128067016602]},{"name":"chair","coordinates":[0.7535530938042535,0.7119232177734375,0.09432284037272136,0.11317041714986166]},{"name":"chair","coordinates":[0.6218989902072483,0.6649225234985352,0.08740856382581923,0.07798082033793131]},{"name":"chair","coordinates":[0.8934342278374566,0.627876091003418,0.10481609768337674,0.0571474035580953]},{"name":"vase","coordinates":[0.7595419141981337,0.599010721842448,0.06671140458848741,0.07887492974599203]},{"name":"pottedplant","coordinates":[0.8787749396430121,0.45810200373331705,0.06397291289435493,0.07715051968892415]},{"name":"bowl","coordinates":[0.06668515735202366,0.20863553682963054,0.09507901933458117,0.05188484191894531]},{"name":"pottedplant","coordinates":[0.5051983727349175,0.6085734049479167,0.059286472532484265,0.06758147875467936]}]}
