{"src":"https://a0.muscache.com/im/pictures/3809de80-3ee1-4580-8507-63466acaebe6.jpg?aki_policy=xx_large","name":"市政府CBD核心区宝龙商圈典雅唯美一居~~茶隐居","listingId":20626332,"photoId":"1056-1","tags":[{"name":"sofa","coordinates":[0.5945416450500488,0.7067397435506185,0.5592798709869384,0.48608500162760415]},{"name":"diningtable","coordinates":[0.3682220220565796,0.8471768061319987,0.5319910049438477,0.2715869903564453]},{"name":"vase","coordinates":[0.2957612991333008,0.715853500366211,0.036695972084999084,0.15814770062764485]},{"name":"cup","coordinates":[0.47467789649963377,0.8702274958292643,0.045925450325012204,0.06019686857859294]},{"name":"cup","coordinates":[0.5128401756286621,0.8300652821858724,0.04169082939624787,0.05949684778849284]},{"name":"cup","coordinates":[0.41925530433654784,0.7958822250366211,0.022139188647270203,0.05898533264795939]}]}
