{"src":"https://a0.muscache.com/im/pictures/3809de80-3ee1-4580-8507-63466acaebe6.jpg?aki_policy=xx_large","name":"市政府CBD核心区宝龙商圈典雅唯美一居~~茶隐居","listingId":20626332,"photoId":"1056-1","tags":[{"name":"sofa","coordinates":[0.3149017095565796,0.46369724273681645,0.5592798709869384,0.48608500162760415]},{"name":"diningtable","coordinates":[0.10222651958465578,0.7113833109537762,0.5319910049438477,0.2715869903564453]},{"name":"vase","coordinates":[0.27741331309080125,0.6367796500523886,0.036695972084999084,0.15814770062764485]},{"name":"cup","coordinates":[0.4517151713371277,0.8401290615399678,0.045925450325012204,0.06019686857859294]},{"name":"cup","coordinates":[0.4919947609305382,0.800316858291626,0.04169082939624787,0.05949684778849284]},{"name":"cup","coordinates":[0.40818571001291276,0.7663895587126414,0.022139188647270203,0.05898533264795939]}]}
