{"src":"https://a0.muscache.com/im/pictures/18653530/7a9075e7_original.jpg?aki_policy=xx_large","name":"Amazing SkyStudio on 30th floor 733","listingId":1237340,"photoId":"106-3","tags":[{"name":"sofa","coordinates":[1.6635799938761016,0.6878517786661784,1.0857978778336619,0.39049866994222004]},{"name":"diningtable","coordinates":[1.0890422530873145,0.5356780370076497,0.44692752533808267,0.20778223673502605]},{"name":"chair","coordinates":[0.9878071234708372,0.573736572265625,0.2280014264561471,0.2027692159016927]},{"name":"chair","coordinates":[0.877717536544092,0.5264546712239583,0.17288643973214285,0.1714482307434082]},{"name":"chair","coordinates":[1.1650823193268784,0.4447604179382324,0.11254590517514712,0.03572659095128377]},{"name":"bowl","coordinates":[0.9809536341169991,0.4315578142801921,0.12779606693529685,0.026577464739481606]}]}
