{"src":"https://a0.muscache.com/im/pictures/18653536/0e145625_original.jpg?aki_policy=xx_large","name":"Amazing SkyStudio on 30th floor 733","listingId":1237340,"photoId":"106-0","tags":[{"name":"chair","coordinates":[0.5532593707215968,0.7559890747070312,0.2000243673735766,0.349054495493571]},{"name":"sofa","coordinates":[0.3102049635249152,0.5387102762858073,0.13322936841940847,0.24478987058003743]},{"name":"diningtable","coordinates":[0.5505817185191021,0.5647446314493815,0.12262997474723465,0.1313091039657593]},{"name":"tvmonitor","coordinates":[0.7793321039149427,0.5118628819783528,0.05073502266025676,0.11821409861246744]},{"name":"vase","coordinates":[0.741151175678025,0.4889779726664225,0.018272309707832602,0.04561235507329305]}]}
