{"src":"https://a0.muscache.com/im/pictures/52589483/3b2902e8_original.jpg?aki_policy=xx_large","name":"Fijn familiehuis dicht bij strand en centrum","listingId":3351313,"photoId":"1062-1","tags":[{"name":"diningtable","coordinates":[0.5107374827067057,0.8232314427693684,0.7628826565212674,0.31672856012980144]},{"name":"chair","coordinates":[0.8611519707573785,0.8146994908650717,0.13798376719156902,0.35559425354003904]},{"name":"chair","coordinates":[0.7396472507052951,0.880749766031901,0.16537424723307292,0.24898619651794435]},{"name":"chair","coordinates":[0.3717039320203993,0.7176642100016276,0.252337392171224,0.14396953582763672]},{"name":"chair","coordinates":[0.5568848927815755,0.9090890884399414,0.19301581912570528,0.18407829602559408]},{"name":"pottedplant","coordinates":[0.6011548784044054,0.6613703409830729,0.1470533053080241,0.2081177870432536]},{"name":"pottedplant","coordinates":[0.7515922546386719,0.45872885386149087,0.0788150363498264,0.1601870854695638]},{"name":"vase","coordinates":[0.6047349717881945,0.7226234436035156,0.07041127416822646,0.08714671929677327]},{"name":"bowl","coordinates":[0.708188968234592,0.687663459777832,0.08418971167670355,0.06222832202911377]},{"name":"orange","coordinates":[0.7376184251573351,0.68087158203125,0.02899904516008165,0.0360728661219279]},{"name":"orange","coordinates":[0.7257249620225694,0.6661807378133138,0.025790447658962674,0.039982024828592935]},{"name":"apple","coordinates":[0.7257249620225694,0.6661807378133138,0.025790447658962674,0.039982024828592935]},{"name":"apple","coordinates":[0.7003329806857639,0.6658719380696615,0.024997544288635255,0.03615451653798421]},{"name":"apple","coordinates":[0.7058229234483507,0.6818958282470703,0.024245489968193902,0.035007445017496745]}]}
