{"src":"https://a0.muscache.com/im/pictures/52589486/d8ba88b7_original.jpg?aki_policy=xx_large","name":"Fijn familiehuis dicht bij strand en centrum","listingId":3351313,"photoId":"1062-4","tags":[{"name":"oven","coordinates":[0.5481737772623698,0.6909100214640299,0.1235910521613227,0.27274611790974934]},{"name":"sink","coordinates":[0.26019842359754775,0.5997612635294597,0.1680670844184028,0.043834388256073]},{"name":"clock","coordinates":[0.15754028956095378,0.040717371304829914,0.07162638770209419,0.08477323849995931]},{"name":"bottle","coordinates":[0.1988787333170573,0.20134140650431315,0.032694458961486816,0.11173977057139078]},{"name":"bottle","coordinates":[0.24651790195041232,0.21914987564086913,0.02158136102888319,0.10068669319152831]},{"name":"bottle","coordinates":[0.273223516676161,0.23334876696268717,0.01716239187452528,0.08616886933644613]},{"name":"bottle","coordinates":[0.22479065789116753,0.22139485677083334,0.016202000776926677,0.08591262499491374]},{"name":"bowl","coordinates":[0.4767104254828559,0.551723861694336,0.046702167722913954,0.026562003294626872]},{"name":"bottle","coordinates":[0.6045172373453777,0.5367832819620768,0.017057944668663873,0.05427648226420085]},{"name":"bottle","coordinates":[0.628288820054796,0.5339553197224934,0.01488385730319553,0.05037549336751302]}]}
