{"src":"https://a0.muscache.com/im/pictures/44049449/02f04128_original.jpg?aki_policy=xx_large","name":"Nice apartment Scheveningen","listingId":3352351,"photoId":"1063-2","tags":[{"name":"sofa","coordinates":[0.7887867397732204,0.6027686436971028,0.40149290296766493,0.3614702860514323]},{"name":"diningtable","coordinates":[0.11903400421142578,0.5762735366821289,0.24022863176133896,0.33332370122273763]},{"name":"chair","coordinates":[0.17551162507798937,0.5707967758178711,0.13878953721788195,0.2598488648732503]},{"name":"chair","coordinates":[0.05032232072618273,0.582785161336263,0.08790819380018446,0.2797174135843913]},{"name":"vase","coordinates":[0.08437104754977756,0.42858247756958007,0.023932388093736438,0.03957964181900024]}]}
