{"src":"https://a0.muscache.com/im/pictures/44d4abe8-8e71-48a6-a34d-bfa8866f6ebc.jpg?aki_policy=xx_large","name":"Bright and Stella Welcomes you. Akwaaba!!","listingId":20665654,"photoId":"1064-0","tags":[{"name":"sofa","coordinates":[0.49550230238172743,0.754470952351888,0.9177922566731771,0.5349411010742188]},{"name":"chair","coordinates":[0.9030682033962674,0.41749114990234376,0.12475371890597874,0.17617772420247396]},{"name":"tvmonitor","coordinates":[0.063501951429579,0.244535493850708,0.11939863628811306,0.1830363114674886]},{"name":"person","coordinates":[0.03328641255696615,0.2533151149749756,0.07213196224636502,0.1308857758839925]},{"name":"remote","coordinates":[0.7204695807562934,0.6692646026611329,0.03280216058095296,0.02797772685686747]}]}
