{"src":"https://a0.muscache.com/im/pictures/44d4abe8-8e71-48a6-a34d-bfa8866f6ebc.jpg?aki_policy=xx_large","name":"Bright and Stella Welcomes you. Akwaaba!!","listingId":20665654,"photoId":"1064-0","tags":[{"name":"sofa","coordinates":[0.036606174045138884,0.4870004018147786,0.9177922566731771,0.5349411010742188]},{"name":"chair","coordinates":[0.840691343943278,0.3294022878011068,0.12475371890597874,0.17617772420247396]},{"name":"tvmonitor","coordinates":[0.0038026332855224665,0.1530173381169637,0.11939863628811306,0.1830363114674886]},{"name":"person","coordinates":[-0.0027795685662163616,0.18787222703297934,0.07213196224636502,0.1308857758839925]},{"name":"remote","coordinates":[0.7040685004658169,0.6552757392326991,0.03280216058095296,0.02797772685686747]}]}
