{"src":"https://a0.muscache.com/im/pictures/42638870/1cd46d72_original.jpg?aki_policy=xx_large","name":"Amazing SkyStudio on 30th floor 732","listingId":3364927,"photoId":"1064-6","tags":[{"name":"diningtable","coordinates":[0.49726935492621527,0.7548995971679687,0.9031604342990451,0.47457602818806965]},{"name":"sofa","coordinates":[1.5768853081597223,0.8275227228800456,0.7547288682725695,0.3476338068644206]},{"name":"chair","coordinates":[0.752066887749566,0.7569520950317383,0.36768904791937934,0.5015878677368164]},{"name":"chair","coordinates":[0.36275558471679686,0.8357544581095377,0.416005622016059,0.34896780649820963]},{"name":"chair","coordinates":[0.11758899688720703,0.7524501800537109,0.19943375057644314,0.40245272318522135]},{"name":"bowl","coordinates":[0.429905276828342,0.5633964538574219,0.21036374833848742,0.08127764066060385]}]}
