{"src":"https://a0.muscache.com/im/pictures/42786305/a21ec658_original.jpg?aki_policy=xx_large","name":"Cottage in the suburb of The Hague ","listingId":3375859,"photoId":"1065-0","tags":[{"name":"diningtable","coordinates":[0.4425967917831955,0.7199832280476888,0.20599372359101412,0.27536436716715496]},{"name":"sofa","coordinates":[0.35889918702121837,0.6055455525716146,0.1980390021773164,0.193051544825236]},{"name":"chair","coordinates":[0.5159677468385214,0.7490268071492513,0.08295721506794139,0.3082030614217122]},{"name":"pottedplant","coordinates":[0.21771059741305934,0.5992940266927084,0.08343894156964372,0.20482589403788248]},{"name":"pottedplant","coordinates":[0.5033129977808852,0.44407714207967125,0.10910276420385458,0.15129257837931315]}]}
