{"src":"https://a0.muscache.com/im/pictures/84362383/f2609da1_original.jpg?aki_policy=xx_large","name":"Peaceful In The Heart of The Hague","listingId":3423545,"photoId":"1067-1","tags":[{"name":"diningtable","coordinates":[0.2626151593278818,0.8341005961100261,0.6341196973036235,0.33323634465535484]},{"name":"pottedplant","coordinates":[0.3458060535475438,0.5188766161600749,0.10456457472033073,0.35881439844767254]},{"name":"chair","coordinates":[0.05256180225179353,0.6435986200968424,0.11009445487293287,0.18078136444091797]},{"name":"tvmonitor","coordinates":[0.246556263489482,0.436315377553304,0.09244526666426009,0.147032101949056]},{"name":"vase","coordinates":[0.1821216627781493,0.47071892420450845,0.016128434652484345,0.054251348972320555]}]}
