{"src":"https://z0.muscache.cn/im/pictures/4c85d96f-44f1-47d4-8a2d-a3e1f06bebf1.jpg?aki_policy=xx_large","name":"丽江逸人乡村会所\nLijiang Escape Inn,Yunnan","listingId":12388931,"photoId":"107-1","tags":[{"name":"diningtable","coordinates":[0.07441783481174052,0.22229557037353515,0.8797331068250868,0.7523741404215495]},{"name":"chair","coordinates":[0.5113205167982313,0.010770781834920251,0.4586065928141276,0.4651648203531901]},{"name":"vase","coordinates":[0.453203010559082,0.3349443435668945,0.16437119377983941,0.2819797515869141]},{"name":"sandwich","coordinates":[0.17036197980244955,0.6380976041158041,0.1641961521572537,0.2259071985880534]},{"name":"sandwich","coordinates":[0.3160736931694878,0.6087237596511841,0.22645696004231772,0.1569182236989339]},{"name":"wine-glass","coordinates":[0.2878566053178575,0.2671610673268636,0.10044183731079101,0.3234400749206543]},{"name":"cup","coordinates":[0.6418268097771539,0.5338186581929525,0.14243382347954645,0.18909982045491536]},{"name":"cup","coordinates":[0.19164778921339248,0.3097866932551066,0.11139898300170899,0.1630226929982503]}]}
