{"src":"https://z0.muscache.cn/im/pictures/4c85d96f-44f1-47d4-8a2d-a3e1f06bebf1.jpg?aki_policy=xx_large","name":"丽江逸人乡村会所\nLijiang Escape Inn,Yunnan","listingId":12388931,"photoId":"107-1","tags":[{"name":"diningtable","coordinates":[0.5142843882242839,0.5984826405843099,0.8797331068250868,0.7523741404215495]},{"name":"chair","coordinates":[0.7406238132052951,0.2433531920115153,0.4586065928141276,0.4651648203531901]},{"name":"vase","coordinates":[0.5353886074490017,0.4759342193603516,0.16437119377983941,0.2819797515869141]},{"name":"sandwich","coordinates":[0.2524600558810764,0.7510512034098308,0.1641961521572537,0.2259071985880534]},{"name":"sandwich","coordinates":[0.4293021731906467,0.687182871500651,0.22645696004231772,0.1569182236989339]},{"name":"wine-glass","coordinates":[0.338077523973253,0.42888110478719077,0.10044183731079101,0.3234400749206543]},{"name":"cup","coordinates":[0.7130437215169271,0.6283685684204101,0.14243382347954645,0.18909982045491536]},{"name":"cup","coordinates":[0.24734728071424697,0.3912980397542318,0.11139898300170899,0.1630226929982503]}]}
