{"src":"https://z0.muscache.cn/im/pictures/4c85d96f-44f1-47d4-8a2d-a3e1f06bebf1.jpg?aki_policy=xx_large","name":"丽江逸人乡村会所\nLijiang Escape Inn,Yunnan","listingId":12388931,"photoId":"107-1","tags":[{"name":"diningtable","coordinates":[1.1607672712272237,0.5984826405843099,1.985604504432798,0.7523741404215495]},{"name":"chair","coordinates":[1.6716274153849922,0.2433531920115153,1.0350995198312598,0.4651648203531901]},{"name":"vase","coordinates":[1.2084006186936715,0.4759342193603516,0.3709945439544965,0.2819797515869141]},{"name":"sandwich","coordinates":[0.5698158001077587,0.7510512034098308,0.3705994656840836,0.2259071985880534]},{"name":"sandwich","coordinates":[0.9689578830635286,0.687182871500651,0.5111254270547609,0.1569182236989339]},{"name":"wine-glass","coordinates":[0.7630589882781886,0.42888110478719077,0.2267025795102493,0.3234400749206543]},{"name":"cup","coordinates":[1.609377678658895,0.6283685684204101,0.32148073011057504,0.18909982045491536]},{"name":"cup","coordinates":[0.5582759940885825,0.3912980397542318,0.2514334412577758,0.1630226929982503]}]}
