{"src":"https://z0.muscache.cn/im/pictures/61b11a11-6033-4418-8d8a-829eb149cf43.jpg?aki_policy=xx_large","name":"Spacious family house in a park!","listingId":12390875,"photoId":"107-1","tags":[{"name":"diningtable","coordinates":[0.4347198486328125,0.6864762624104818,0.2535479651557075,0.2694163004557292]},{"name":"sofa","coordinates":[0.11263621648152669,0.8672053654988606,0.21988546583387586,0.2739966074625651]},{"name":"pottedplant","coordinates":[0.7366817898220486,0.8040581385294596,0.14523425632052953,0.30735063552856445]},{"name":"chair","coordinates":[0.4012749989827474,0.6884663263956706,0.09148434533013237,0.25366554260253904]},{"name":"chair","coordinates":[0.522215313381619,0.6555212656656901,0.05848307079739041,0.22237372398376465]},{"name":"chair","coordinates":[0.4134492662217882,0.5490372975667318,0.03264396720462375,0.03827988704045614]}]}
