{"src":"https://a0.muscache.com/im/pictures/ddf9c0dd-8866-4300-b701-c8668ceeffe9.jpg?aki_policy=xx_large","name":"Boyan Heights Rainforest Homestay Deluxe Room 2","listingId":20680358,"photoId":"1070-8","tags":[{"name":"bench","coordinates":[0.4621464835272895,0.6253651301066081,0.2436619652642144,0.3641699473063151]},{"name":"chair","coordinates":[0.4621464835272895,0.6253651301066081,0.2436619652642144,0.3641699473063151]},{"name":"chair","coordinates":[0.19777312808566624,0.6580387751261393,0.2056524912516276,0.3290968577067057]},{"name":"chair","coordinates":[0.3652747790018717,0.5089831670125325,0.148849974738227,0.24040209452311198]},{"name":"pottedplant","coordinates":[0.48920470343695743,0.564146864414215,0.04344389173719618,0.08779106934865316]},{"name":"vase","coordinates":[0.4901383426454332,0.6107463439305623,0.033389679590861004,0.043189318974812825]},{"name":"cup","coordinates":[0.4901383426454332,0.6107463439305623,0.033389679590861004,0.043189318974812825]}]}
