{"src":"https://a0.muscache.com/im/pictures/ddf9c0dd-8866-4300-b701-c8668ceeffe9.jpg?aki_policy=xx_large","name":"Boyan Heights Rainforest Homestay Deluxe Room 2","listingId":20680358,"photoId":"1070-8","tags":[{"name":"bench","coordinates":[0.5839774661593967,0.8074501037597657,0.2436619652642144,0.3641699473063151]},{"name":"chair","coordinates":[0.5839774661593967,0.8074501037597657,0.2436619652642144,0.3641699473063151]},{"name":"chair","coordinates":[0.30059937371148004,0.8225872039794921,0.2056524912516276,0.3290968577067057]},{"name":"chair","coordinates":[0.43969976637098523,0.6291842142740885,0.148849974738227,0.24040209452311198]},{"name":"pottedplant","coordinates":[0.5109266493055555,0.6080423990885416,0.04344389173719618,0.08779106934865316]},{"name":"vase","coordinates":[0.5068331824408637,0.6323410034179687,0.033389679590861004,0.043189318974812825]},{"name":"cup","coordinates":[0.5068331824408637,0.6323410034179687,0.033389679590861004,0.043189318974812825]}]}
