{"src":"https://a0.muscache.com/im/pictures/6611a671-c7ea-4f5b-9385-0ae35b8dc160.jpg?aki_policy=xx_large","name":"Big apartment+5stars breakfast +bikes+free parking","listingId":3540006,"photoId":"1074-8","tags":[{"name":"diningtable","coordinates":[0.8933448791503906,0.592256736755371,1.167200215657552,0.5262677192687988]},{"name":"chair","coordinates":[1.4407672458224827,0.7431471506754558,0.6819175720214844,0.4580742835998535]},{"name":"chair","coordinates":[0.21752938164605035,0.7010751088460286,0.4161461724175347,0.4614937464396159]},{"name":"chair","coordinates":[0.5568242390950521,0.8773607889811198,0.7343904283311632,0.2300317605336507]},{"name":"chair","coordinates":[0.3762296888563368,0.3781123161315918,0.2722086164686415,0.13825685183207195]},{"name":"chair","coordinates":[1.4597754584418403,0.4166855494181315,0.2275061289469401,0.15189453760782878]},{"name":"bowl","coordinates":[1.1417851765950522,0.4323007901509603,0.2552266862657335,0.11081467469533285]},{"name":"bottle","coordinates":[1.222422112358941,0.5404649098714193,0.10830337736341689,0.19753991762797038]},{"name":"bowl","coordinates":[0.9414969550238715,0.5388223648071289,0.18283850351969402,0.08622330029805501]},{"name":"bowl","coordinates":[0.7751485188802083,0.5331171035766602,0.14829460779825845,0.10051684379577637]},{"name":"cup","coordinates":[0.7751485188802083,0.5331171035766602,0.14829460779825845,0.10051684379577637]},{"name":"chair","coordinates":[0.8132774353027343,0.3037839889526367,0.21798121134440104,0.06621237198511759]},{"name":"wine-glass","coordinates":[0.6339720831976996,0.5214547475179037,0.08235553105672201,0.10259842077891032]},{"name":"bowl","coordinates":[0.721449449327257,0.3799502690633138,0.13545237647162545,0.06211562554041545]},{"name":"cup","coordinates":[0.508802244398329,0.4649946848551432,0.07333120240105523,0.07917315165201823]},{"name":"apple","coordinates":[1.32717039320204,0.4422446886698405,0.05937544504801432,0.04111940860748291]},{"name":"orange","coordinates":[1.2161995781792534,0.40544220606486003,0.053709549374050564,0.027509172757466633]}]}
