{"src":"https://a0.muscache.com/im/pictures/48701856/18ef6516_original.jpg?aki_policy=xx_large","name":"Lovely apartment on 6th floor","listingId":3556728,"photoId":"1075-15","tags":[{"name":"sofa","coordinates":[0.29690799885445623,0.764544932047526,0.528906190619028,0.4186017354329427]},{"name":"tvmonitor","coordinates":[0.82071942931832,0.47235081990559896,0.1774906479210552,0.16181041399637858]},{"name":"book","coordinates":[0.7018898333668129,0.8861740748087565,0.09308070221901603,0.05894787708918254]},{"name":"vase","coordinates":[0.8895855784996091,0.630148442586263,0.052256034760942385,0.09261717796325683]},{"name":"book","coordinates":[0.7174800954981758,0.8660333633422852,0.08236584056989446,0.04207700490951538]},{"name":"vase","coordinates":[0.32595842161304506,0.4089317003885905,0.02301406330164312,0.0481382409731547]},{"name":"book","coordinates":[0.5804646102979499,0.8343241373697917,0.03959414261426256,0.024203030268351237]},{"name":"bottle","coordinates":[0.2010123310526516,0.37936185201009115,0.015595044420360277,0.052043946584065755]}]}
