{"src":"https://a0.muscache.com/im/pictures/48702131/58b3ea4a_original.jpg?aki_policy=xx_large","name":"Lovely apartment on 6th floor","listingId":3556728,"photoId":"1075-1","tags":[{"name":"diningtable","coordinates":[0.32647367879033834,0.8016191482543945,0.24448656157705004,0.4044338862101237]},{"name":"chair","coordinates":[0.4048304130336822,0.766788101196289,0.1509393051815497,0.40677461624145506]},{"name":"clock","coordinates":[0.6723731639403449,0.19370835622151691,0.08837083680005103,0.1481808344523112]},{"name":"pottedplant","coordinates":[0.912025987149279,0.5812611897786458,0.08410026863103447,0.10579327742258708]},{"name":"vase","coordinates":[0.9149501607018763,0.6203421274820964,0.029187778369513875,0.047687228520711264]}]}
