{"src":"https://a0.muscache.com/im/pictures/48701897/d1d4d6de_original.jpg?aki_policy=xx_large","name":"Lovely apartment on 6th floor","listingId":3556728,"photoId":"1075-0","tags":[{"name":"sofa","coordinates":[0.17087317572699653,0.7391761144002279,0.36105982462565106,0.4692567507425944]},{"name":"sofa","coordinates":[0.9060357835557725,0.7030275980631511,0.21162387000189886,0.4053710619608561]},{"name":"pottedplant","coordinates":[0.7949679904513889,0.4777276357014974,0.15022587246365018,0.48305050532023114]},{"name":"tvmonitor","coordinates":[0.5164457533094619,0.43544158935546873,0.14548921585083008,0.12180589040120443]},{"name":"vase","coordinates":[0.5809570736355252,0.5463729858398437,0.030639489491780598,0.06141090393066406]},{"name":"book","coordinates":[0.439544677734375,0.7197970072428386,0.05973481602138943,0.014688976605733236]},{"name":"book","coordinates":[0.5474476284450955,0.7208871205647787,0.058088095982869466,0.014642328023910522]},{"name":"book","coordinates":[0.5467274983723959,0.7360123952229818,0.06526572439405653,0.010147817929585775]}]}
