{"src":"https://a0.muscache.com/im/pictures/905e7767-0e31-40c1-a2b9-e6132c09c614.jpg?aki_policy=xx_large","name":"之一江景民宿","listingId":20698573,"photoId":"1076-13","tags":[{"name":"oven","coordinates":[0.37904331684112547,0.750294049580892,0.3743257999420166,0.20605322519938152]},{"name":"pottedplant","coordinates":[0.8347836494445801,0.6889706929524739,0.1877017617225647,0.19229671160380046]},{"name":"sink","coordinates":[1.0282124519348144,0.8056186040242513,0.1696298599243164,0.14881340662638345]},{"name":"spoon","coordinates":[0.5952878475189209,0.5154141743977865,0.024833883345127105,0.1535226027170817]},{"name":"spoon","coordinates":[0.573841905593872,0.5132017135620117,0.019957606494426728,0.15479925473531086]}]}
