{"src":"https://a0.muscache.com/im/pictures/30a98b08-5814-4b7c-82b6-0df4e2f6c165.jpg?aki_policy=xx_large","name":"之一江景民宿","listingId":20698573,"photoId":"1076-13","tags":[{"name":"pottedplant","coordinates":[0.06331469190472575,0.2937152862548828,0.14256960029135168,0.6721055348714192]},{"name":"vase","coordinates":[0.5439019309607575,0.5155176957448323,0.12187813305013724,0.15241085688273112]},{"name":"vase","coordinates":[0.4931553977268733,0.5206334431966146,0.035519313606278684,0.15602989196777345]},{"name":"cup","coordinates":[0.3138403854754608,0.6174985885620117,0.03642382529075408,0.08479169209798178]},{"name":"bowl","coordinates":[0.39164655203438214,0.6341840744018554,0.041128041848937244,0.0388250986735026]}]}
