{"src":"https://a0.muscache.com/im/pictures/2f6bfb9e-46eb-4a5b-8d5c-b369bd7cd39c.jpg?aki_policy=xx_large","name":"Beach appartement Den Haag;","listingId":3582648,"photoId":"1078-1","tags":[{"name":"refrigerator","coordinates":[0.814522213406033,0.8458369572957357,0.2489022996690538,0.3000511169433594]},{"name":"microwave","coordinates":[0.8129707336425781,0.6000965118408204,0.2358935250176324,0.17481005986531575]},{"name":"sink","coordinates":[0.27566515604654945,0.7650513966878255,0.2318102306789822,0.09980782667795816]},{"name":"bottle","coordinates":[0.12432392968071831,0.7109487533569336,0.039178003205193414,0.15102208455403646]},{"name":"pottedplant","coordinates":[0.5240538279215495,0.5022394180297851,0.06556422445509169,0.08245133558909098]},{"name":"pottedplant","coordinates":[0.637526618109809,0.5041465123494466,0.05198992623223199,0.07586668332417806]}]}
