{"src":"https://a0.muscache.com/im/pictures/9d1cd83e-133c-4262-960a-2e988669c934.jpg?aki_policy=xx_large","name":"Beach appartement Den Haag;","listingId":3582648,"photoId":"1078-4","tags":[{"name":"diningtable","coordinates":[0.35422494676378036,0.8695632298787435,0.7097228580050998,0.24855133692423503]},{"name":"sofa","coordinates":[0.19117853376600477,0.7378064473470052,0.40827971564398874,0.3673884391784668]},{"name":"pottedplant","coordinates":[0.5854542202419705,0.691606076558431,0.11826710171169705,0.32027308146158856]},{"name":"tvmonitor","coordinates":[0.7100457509358724,0.570218022664388,0.1880189683702257,0.18222557703653972]},{"name":"pottedplant","coordinates":[0.9035137600368923,0.3926122029622396,0.15211157268948025,0.20792385737101238]},{"name":"pottedplant","coordinates":[0.6719998677571615,0.40741424560546874,0.08402480019463433,0.16053039232889812]},{"name":"clock","coordinates":[0.3862365298800998,0.2362297534942627,0.046986892488267686,0.08764336903889974]}]}
