{"src":"https://a0.muscache.com/im/pictures/23e40998-858e-4eba-a14f-de67dd5d3934.jpg?aki_policy=xx_large","name":"Cosy apartment on small square..central location","listingId":12405705,"photoId":"108-0","tags":[{"name":"bench","coordinates":[0.8707191467285156,0.4087095578511556,1.524708218044705,0.8039588292439779]},{"name":"diningtable","coordinates":[0.7987290276421442,0.6731317520141602,0.9763454861111112,0.3907995859781901]},{"name":"chair","coordinates":[1.4698230319552952,0.6767878214518229,0.47359614902072483,0.5142897923787435]},{"name":"chair","coordinates":[0.20804413689507378,0.6707864125569661,0.38799849616156684,0.4176916758219401]},{"name":"wine-glass","coordinates":[0.7450665791829427,0.4914592742919922,0.0689387904273139,0.10362807114919027]},{"name":"bottle","coordinates":[0.8048472086588542,0.4911179224650065,0.05202667978074815,0.12685268719991047]},{"name":"wine-glass","coordinates":[0.8642768012152777,0.4924057642618815,0.05862953397962782,0.11011960506439208]}]}
