{"src":"https://a0.muscache.com/im/pictures/d7cfbe89-3736-4c88-bb27-bd3e795f9e95.jpg?aki_policy=xx_large","name":"Quiet and serene place with well furnished room","listingId":20715140,"photoId":"1080-0","tags":[{"name":"bed","coordinates":[-0.052188407050238694,0.4920707702636718,1.0487122429741753,0.5133497873942058]},{"name":"chair","coordinates":[0.4872677697075738,0.38153741359710697,0.2111392550998264,0.20797956784566243]},{"name":"sink","coordinates":[0.0032797601487901396,0.37045177618662517,0.21086173587375218,0.07113785743713379]},{"name":"book","coordinates":[0.8871808979246352,0.02636983394622803,0.031059143278333874,0.08017009099324544]},{"name":"book","coordinates":[0.882575950357649,0.12837793429692587,0.029593480957878962,0.07706298033396403]},{"name":"book","coordinates":[0.8591034200456407,0.22494273980458576,0.029211542341444227,0.0777082602183024]},{"name":"book","coordinates":[0.8598056932290395,0.05409680406252543,0.0163986775610182,0.05697900056838989]}]}
