{"src":"https://a0.muscache.com/im/pictures/d7cfbe89-3736-4c88-bb27-bd3e795f9e95.jpg?aki_policy=xx_large","name":"Quiet and serene place with well furnished room","listingId":20715140,"photoId":"1080-0","tags":[{"name":"bed","coordinates":[0.47216771443684896,0.7487456639607747,1.0487122429741753,0.5133497873942058]},{"name":"chair","coordinates":[0.592837397257487,0.48552719751993817,0.2111392550998264,0.20797956784566243]},{"name":"sink","coordinates":[0.10871062808566623,0.40602070490519204,0.21086173587375218,0.07113785743713379]},{"name":"book","coordinates":[0.9027104695638021,0.06645487944285075,0.031059143278333874,0.08017009099324544]},{"name":"book","coordinates":[0.8973726908365885,0.16690942446390789,0.029593480957878962,0.07706298033396403]},{"name":"book","coordinates":[0.8737091912163628,0.26379686991373696,0.029211542341444227,0.0777082602183024]},{"name":"book","coordinates":[0.8680050320095486,0.08258630434672037,0.0163986775610182,0.05697900056838989]}]}
