{"src":"https://a0.muscache.com/im/pictures/27aaac4f-b2fe-42e6-a598-b0d8836cb26d.jpg?aki_policy=xx_large","name":"important thing is friendship","listingId":20719224,"photoId":"1082-3","tags":[{"name":"sofa","coordinates":[-0.029792356491088856,0.34022003809611,0.8061651229858399,0.3715131123860677]},{"name":"pottedplant","coordinates":[0.745438814163208,0.10633854866027831,0.2538447380065918,0.5242935498555501]},{"name":"sofa","coordinates":[0.3795206308364868,0.43968672752380367,0.3750357151031494,0.34182507197062173]},{"name":"vase","coordinates":[0.8582647681236267,0.3883241097132365,0.13618309497833253,0.23423225084940594]},{"name":"laptop","coordinates":[0.3262885510921478,0.4012072761853536,0.14581562280654908,0.1269647200902303]},{"name":"cup","coordinates":[0.24055666476488113,0.466980771223704,0.03043113648891449,0.055354889233907065]}]}
