{"src":"https://a0.muscache.com/im/pictures/42e89723-bd8a-4965-bacb-5475be253570.jpg?aki_policy=xx_large","name":"Amazing family home (+10 p). Close to beach&amp;centre","listingId":3636336,"photoId":"1083-6","tags":[{"name":"sofa","coordinates":[1.1789783053927951,0.6844050725301106,0.9745262145996094,0.5034736315409343]},{"name":"chair","coordinates":[0.2342800564236111,0.8402581532796224,0.45947884453667537,0.26254450480143227]},{"name":"tvmonitor","coordinates":[0.12438753975762261,0.4577021598815918,0.20139607323540581,0.18787190119425456]},{"name":"vase","coordinates":[0.9433255513509115,0.41850372950236003,0.04509688483344184,0.06545253197352091]},{"name":"vase","coordinates":[0.6320562574598524,0.516753609975179,0.05726906988355848,0.04372228781382243]}]}
