{"src":"https://a0.muscache.com/im/pictures/d2350c35-cede-4aa0-a341-c1d70c73009d.jpg?aki_policy=xx_large","name":"A bright 1st floor bedroom  in a new house","listingId":20748117,"photoId":"1085-5","tags":[{"name":"diningtable","coordinates":[0.4802339553833008,0.6328561782836913,0.46372862921820746,0.26993916829427084]},{"name":"chair","coordinates":[0.43725970586140955,0.6884308497111002,0.29724369049072263,0.3039989471435547]},{"name":"chair","coordinates":[0.7550850338406033,0.6920787334442139,0.23798429701063367,0.29416208267211913]},{"name":"refrigerator","coordinates":[0.008131959703233507,0.360294516881307,0.14375227822197809,0.3327558199564616]},{"name":"chair","coordinates":[0.0054890685611301004,0.7658382813135783,0.1612264633178711,0.24962201118469238]},{"name":"chair","coordinates":[0.2658871120876736,0.6757328987121582,0.13107037014431425,0.3034348169962565]},{"name":"chair","coordinates":[0.14792650010850694,0.7252686182657877,0.1422267066107856,0.26216303507486977]},{"name":"chair","coordinates":[0.4192021581861708,0.6119549830754598,0.12530799441867405,0.15588574409484862]},{"name":"chair","coordinates":[0.7816440105438232,0.5409520467122395,0.11500974231296116,0.1383385976155599]},{"name":"chair","coordinates":[0.5241714186138577,0.5628141403198242,0.08873220549689399,0.1555622100830078]},{"name":"clock","coordinates":[0.6024700403213501,0.2170076568921407,0.0678735891977946,0.11512485345204672]},{"name":"pottedplant","coordinates":[0.2355169455210368,0.5079566597938537,0.08284930123223198,0.0804838260014852]},{"name":"vase","coordinates":[0.6622523016399807,0.704334302743276,0.06423449516296387,0.08862919012705485]}]}
