{"src":"https://a0.muscache.com/im/pictures/0afd7fac-6a70-4ae3-abcf-9d12f7abe50a.jpg?aki_policy=xx_large","name":"Gated Beachfront Villa - 10 minutes from Kingston","listingId":20762977,"photoId":"1088-0","tags":[{"name":"sofa","coordinates":[0.24655676947699653,0.7725248336791992,0.4320707533094618,0.4596795717875163]},{"name":"sofa","coordinates":[0.8052471584743923,0.8749919891357422,0.3861002604166667,0.22895506223042805]},{"name":"sofa","coordinates":[0.2807311799791124,0.5935882568359375,0.21499930487738717,0.15220486323038737]},{"name":"tvmonitor","coordinates":[0.6729679107666016,0.34330889383951824,0.14770309660169814,0.144884459177653]},{"name":"tvmonitor","coordinates":[0.6381012810601129,0.5406531651814779,0.11449686686197917,0.1441367785135905]},{"name":"chair","coordinates":[0.5659331851535373,0.5466772079467773,0.035118161307440866,0.13280628522237142]},{"name":"vase","coordinates":[0.46873296101888023,0.5975943247477213,0.019718492031097413,0.07758359909057617]},{"name":"clock","coordinates":[0.5352607303195529,0.39076852798461914,0.02607725726233588,0.04528465668360392]}]}
