{"src":"https://a0.muscache.com/im/pictures/b8bbc3aa-a619-445d-808e-9889112109e1.jpg?aki_policy=xx_large","name":"Gated Beachfront Villa - 10 minutes from Kingston","listingId":20762977,"photoId":"1088-6","tags":[{"name":"microwave","coordinates":[0.711608992682563,0.6299252510070801,0.2844610850016276,0.3499381383260091]},{"name":"oven","coordinates":[0.14444043901231554,0.4988057295481364,0.20247908698187933,0.38452011744181314]},{"name":"sink","coordinates":[0.4286890241834852,0.5826944788297018,0.20463358561197917,0.10946061611175537]},{"name":"clock","coordinates":[0.8064254230923124,0.12713906367619832,0.0683209949069553,0.09444124698638916]},{"name":"pottedplant","coordinates":[0.6305891805224949,0.5763904094696044,0.04055775006612142,0.08927927017211915]},{"name":"clock","coordinates":[0.47672379944059584,0.2893081963062286,0.01917236910925971,0.03842684825261434]}]}
