{"src":"https://a0.muscache.com/im/pictures/0afd7fac-6a70-4ae3-abcf-9d12f7abe50a.jpg?aki_policy=xx_large","name":"Gated Beachfront Villa - 10 minutes from Kingston","listingId":20762977,"photoId":"1088-0","tags":[{"name":"sofa","coordinates":[0.030521392822265625,0.542685047785441,0.4320707533094618,0.4596795717875163]},{"name":"sofa","coordinates":[0.6121970282660589,0.7605144580205281,0.3861002604166667,0.22895506223042805]},{"name":"sofa","coordinates":[0.17323152754041882,0.5174858252207438,0.21499930487738717,0.15220486323038737]},{"name":"tvmonitor","coordinates":[0.5991163624657525,0.2708666642506917,0.14770309660169814,0.144884459177653]},{"name":"tvmonitor","coordinates":[0.5808528476291233,0.4685847759246826,0.11449686686197917,0.1441367785135905]},{"name":"chair","coordinates":[0.5483741044998168,0.4802740653355916,0.035118161307440866,0.13280628522237142]},{"name":"vase","coordinates":[0.4588737150033315,0.5588025252024332,0.019718492031097413,0.07758359909057617]},{"name":"clock","coordinates":[0.522222101688385,0.3681261996428172,0.02607725726233588,0.04528465668360392]}]}
