{"src":"https://a0.muscache.com/im/pictures/db7ea39b-eaf3-4e73-a301-baa6e167c4f7.jpg?aki_policy=xx_large","name":"Condo eLgimikero","listingId":20763903,"photoId":"1089-4","tags":[{"name":"diningtable","coordinates":[0.012480640411376975,0.18245340983072916,1.0070524215698242,0.8402676900227865]},{"name":"spoon","coordinates":[0.21003372669219972,0.7961291472117106,0.30111303329467776,0.20634679794311522]},{"name":"cup","coordinates":[0.7446917653083801,0.4171028693517049,0.14133927822113038,0.20428207715352376]},{"name":"cup","coordinates":[0.21396715641021727,0.5492360432942709,0.1322300910949707,0.20044949849446614]},{"name":"wine-glass","coordinates":[0.34270557165145876,0.29709914525349934,0.09996187686920166,0.23826942443847657]},{"name":"vase","coordinates":[0.37790663838386535,0.22483317454655966,0.07733577489852905,0.1071268637975057]},{"name":"spoon","coordinates":[0.6234143435955047,0.3856830398241679,0.15088106393814088,0.04547930558522542]}]}
