{"src":"https://a0.muscache.com/im/pictures/db7ea39b-eaf3-4e73-a301-baa6e167c4f7.jpg?aki_policy=xx_large","name":"Condo eLgimikero","listingId":20763903,"photoId":"1089-4","tags":[{"name":"diningtable","coordinates":[0.5160068511962891,0.6025872548421224,1.0070524215698242,0.8402676900227865]},{"name":"spoon","coordinates":[0.3605902433395386,0.8993025461832682,0.30111303329467776,0.20634679794311522]},{"name":"cup","coordinates":[0.8153614044189453,0.5192439079284668,0.14133927822113038,0.20428207715352376]},{"name":"cup","coordinates":[0.2800822019577026,0.6494607925415039,0.1322300910949707,0.20044949849446614]},{"name":"wine-glass","coordinates":[0.3926865100860596,0.4162338574727376,0.09996187686920166,0.23826942443847657]},{"name":"vase","coordinates":[0.41657452583312987,0.2783966064453125,0.07733577489852905,0.1071268637975057]},{"name":"spoon","coordinates":[0.6988548755645752,0.4084226926167806,0.15088106393814088,0.04547930558522542]}]}
