{"src":"https://a0.muscache.com/im/pictures/47465330/176695ba_original.jpg?aki_policy=xx_large","name":"Unique houseboat near beach/centre","listingId":3696406,"photoId":"1089-0","tags":[{"name":"chair","coordinates":[0.6740208943684896,0.7504879633585612,0.6189176347520616,0.46478188832600914]},{"name":"sofa","coordinates":[0.5730017344156901,0.4967322031656901,0.3652104271782769,0.2441174825032552]},{"name":"chair","coordinates":[0.04879148801167806,0.7665203094482422,0.09105063544379341,0.44053541819254555]},{"name":"chair","coordinates":[0.3513048383924696,0.5678486506144206,0.12553691864013672,0.21592493057250978]},{"name":"tvmonitor","coordinates":[0.17493595547146268,0.41303284962972003,0.13172310723198785,0.16572381655375162]},{"name":"book","coordinates":[0.29769393073187933,0.29310614267985025,0.010997888776991102,0.057498868306477866]},{"name":"book","coordinates":[0.2980219946967231,0.3972048123677572,0.008441102504730225,0.05787213643391927]},{"name":"book","coordinates":[0.29794676038953993,0.49499429066975914,0.008075260453754,0.056430784861246745]}]}
