{"src":"https://a0.muscache.com/im/pictures/98dabe2e-f210-440e-a609-63df0c72db7a.jpg?aki_policy=xx_large","name":"☆Authentic&amp;cosy beach skippershome☆","listingId":12415719,"photoId":"109-0","tags":[{"name":"chair","coordinates":[0.5644421047634549,0.8077664693196615,0.3991602579752604,0.37012856801350913]},{"name":"diningtable","coordinates":[0.35303781297471787,0.7248653411865235,0.7127594841851128,0.16141231854756674]},{"name":"chair","coordinates":[0.10024702284071181,0.8200989405314127,0.19412892659505207,0.3533793449401855]},{"name":"chair","coordinates":[0.6652392493353949,0.8204959869384766,0.18619992997911242,0.3470860799153646]},{"name":"pottedplant","coordinates":[0.3352700975206163,0.14537022908528646,0.21289535098605686,0.24810932477315267]},{"name":"pottedplant","coordinates":[0.3414828618367513,0.5864021937052409,0.19138721889919705,0.19531901677449545]},{"name":"bowl","coordinates":[0.4647757212320964,0.6456689834594727,0.11842717064751519,0.07135888735453287]},{"name":"vase","coordinates":[0.3785509321424696,0.24180973370869954,0.08272413677639431,0.061614457766215006]}]}
