{"src":"https://a0.muscache.com/im/pictures/49454437/56a5589c_original.jpg?aki_policy=xx_large","name":"Prachtig vissershuisje aan zee!","listingId":3709838,"photoId":"1090-5","tags":[{"name":"oven","coordinates":[0.3325478235880534,0.8255772908528646,0.24591744740804036,0.2908504486083984]},{"name":"bowl","coordinates":[0.8598009745279948,0.7751988093058269,0.1891598171657986,0.09506680965423583]},{"name":"cup","coordinates":[0.10450851652357314,0.31564725240071617,0.03958207236395942,0.07940529982248942]},{"name":"cup","coordinates":[0.06767181820339627,0.3064134915669759,0.0340946356455485,0.08105874061584473]},{"name":"spoon","coordinates":[0.41475533379448787,0.45834391911824546,0.019627690315246582,0.13865408897399903]},{"name":"spoon","coordinates":[0.43171568976508246,0.4547823588053385,0.021777464283837214,0.12058180967966715]},{"name":"person","coordinates":[0.77992189195421,0.3074157396952311,0.01879796716901991,0.04710888862609863]}]}
