{"src":"https://a0.muscache.com/im/pictures/237f4a63-c64e-485c-92b9-3cb50cba32da.jpg?aki_policy=xx_large","name":"cozy apartment in old Tbilisi","listingId":20771235,"photoId":"1091-12","tags":[{"name":"sofa","coordinates":[0.5258895397186278,0.5012339115142822,0.4661508560180664,0.4667084058125814]},{"name":"diningtable","coordinates":[0.045616781711578375,0.4354154427846273,0.26135146617889404,0.27589826583862304]},{"name":"chair","coordinates":[0.17774319052696227,0.42742829322814935,0.1429637551307678,0.27218745549519857]},{"name":"chair","coordinates":[0.0030019342899322496,0.40292288462320963,0.09937093257904053,0.3218274434407552]},{"name":"chair","coordinates":[0.3178509593009949,0.391881275177002,0.1057399034500122,0.28230857849121094]},{"name":"tvmonitor","coordinates":[0.6054640769958496,0.349664568901062,0.10237560272216797,0.1561119556427002]},{"name":"clock","coordinates":[0.13018524050712588,0.0574525276819865,0.06356898546218873,0.08035566012064616]}]}
