{"src":"https://a0.muscache.com/im/pictures/0be142bb-2bac-44ae-a3ed-3493c8eae9e6.jpg?aki_policy=xx_large","name":"cozy apartment in old Tbilisi","listingId":20771235,"photoId":"1091-11","tags":[{"name":"sink","coordinates":[0.5806839466094971,0.8758084615071614,0.4616647720336914,0.2257264773050944]},{"name":"sink","coordinates":[0.3835386991500854,0.8200062433878581,0.33730206489562986,0.30516824722290037]},{"name":"bottle","coordinates":[0.5928614139556885,0.6997210184733073,0.06715813875198365,0.16130003929138184]},{"name":"cup","coordinates":[0.6869266510009766,0.7846294403076172,0.049054300785064696,0.10940165519714355]},{"name":"toothbrush","coordinates":[0.6109240055084229,0.28593419392903646,0.030569618940353392,0.1696371873219808]}]}
