{"src":"https://a0.muscache.com/im/pictures/237f4a63-c64e-485c-92b9-3cb50cba32da.jpg?aki_policy=xx_large","name":"cozy apartment in old Tbilisi","listingId":20771235,"photoId":"1091-12","tags":[{"name":"sofa","coordinates":[0.7589649677276611,0.7345881144205729,0.4661508560180664,0.4667084058125814]},{"name":"diningtable","coordinates":[0.1762925148010254,0.5733645757039388,0.26135146617889404,0.27589826583862304]},{"name":"chair","coordinates":[0.24922506809234618,0.5635220209757487,0.1429637551307678,0.27218745549519857]},{"name":"chair","coordinates":[0.052687400579452516,0.5638366063435872,0.09937093257904053,0.3218274434407552]},{"name":"chair","coordinates":[0.37072091102600097,0.5330355644226075,0.1057399034500122,0.28230857849121094]},{"name":"tvmonitor","coordinates":[0.6566518783569336,0.4277205467224121,0.10237560272216797,0.1561119556427002]},{"name":"clock","coordinates":[0.16196973323822023,0.09763035774230958,0.06356898546218873,0.08035566012064616]}]}
