{"src":"https://a0.muscache.com/im/pictures/52477040/03432fc4_original.jpg?aki_policy=xx_large","name":"Sea view apartment at the beach!","listingId":3762943,"photoId":"1093-1","tags":[{"name":"diningtable","coordinates":[0.33507616255018446,0.8304025014241536,0.2929770363701714,0.3798537254333496]},{"name":"person","coordinates":[0.7467981974283854,0.45166769027709963,0.21581603156195747,0.2883750915527344]},{"name":"chair","coordinates":[0.1732473479376899,0.8181590398152669,0.1505485004848904,0.3538729031880697]},{"name":"chair","coordinates":[0.3253550211588542,0.8522077560424804,0.16025652355617948,0.30519787470499676]},{"name":"chair","coordinates":[0.21896432240804037,0.8216653823852539,0.08653055826822917,0.31356239318847656]},{"name":"pottedplant","coordinates":[0.9180923461914062,0.7163923899332683,0.11531544791327583,0.18481144905090333]},{"name":"pottedplant","coordinates":[0.5879701402452256,0.7112635294596354,0.07544423739115397,0.20147109031677246]},{"name":"pottedplant","coordinates":[0.323031128777398,0.6080490112304687,0.043541834089491104,0.08765568733215331]},{"name":"pottedplant","coordinates":[0.283596314324273,0.5983058929443359,0.041568069987826875,0.07126157283782959]},{"name":"vase","coordinates":[0.32041070726182724,0.6278605143229167,0.03335590362548828,0.03781881332397461]},{"name":"vase","coordinates":[0.2250917010837131,0.608685557047526,0.02538017961714003,0.04475087722142537]}]}
