{"src":"https://a0.muscache.com/im/pictures/e1de50d5-ced8-4830-9190-575f6933d5e9.jpg?aki_policy=xx_large","name":"Casa  en fraccionamiento Alta California","listingId":20788098,"photoId":"1093-1","tags":[{"name":"chair","coordinates":[0.44983659320407443,0.5579888502756755,0.2735207663642036,0.30591166814168297]},{"name":"chair","coordinates":[0.22040771908230256,0.5419088681538899,0.23414276970757378,0.26590353647867837]},{"name":"chair","coordinates":[0.3148499965667725,0.48169201215108237,0.09279646343655057,0.0670781135559082]},{"name":"chair","coordinates":[0.5847375366422864,0.49833419322967526,0.06773653560214572,0.07440158526102701]},{"name":"bowl","coordinates":[0.4205712265438504,0.5484626869360606,0.09508055580986871,0.02829791307449341]},{"name":"apple","coordinates":[0.4435711476537917,0.5540180762608846,0.037663155131869845,0.017455689112345376]},{"name":"apple","coordinates":[0.44608185953564117,0.5426791310310364,0.027216299374898275,0.018448170026143393]},{"name":"apple","coordinates":[0.42801278829574585,0.5544123222430547,0.029069553481207953,0.015997972091039023]},{"name":"orange","coordinates":[0.469628541999393,0.5547122190395991,0.02927810615963406,0.01577570637067159]},{"name":"apple","coordinates":[0.469628541999393,0.5547122190395991,0.02927810615963406,0.01577570637067159]}]}
