{"src":"https://a0.muscache.com/im/pictures/14acf596-d64e-41d2-b569-ad96e0688152.jpg?aki_policy=xx_large","name":"C. Water Fall Room Hosted By Derek And Du","listingId":20819867,"photoId":"1098-3","tags":[{"name":"refrigerator","coordinates":[0.06172665490044488,0.3379978497823079,0.24542261759440104,0.4656052271525065]},{"name":"oven","coordinates":[0.500321732627021,0.4677168369293213,0.0972848998175727,0.1061814308166504]},{"name":"pottedplant","coordinates":[0.7223240481482612,0.13082368771235148,0.08654680252075195,0.08751869996388753]},{"name":"oven","coordinates":[0.43119066026475694,0.5049366315205892,0.07938503689236111,0.08514232635498047]},{"name":"microwave","coordinates":[0.4380120860205756,0.3739493687947591,0.06373862160576714,0.0717797597249349]}]}
