{"src":"https://a0.muscache.com/im/pictures/c514d56d-d8f4-442e-b780-644c3036a1ee.jpg?aki_policy=xx_large","name":"Enjoy The Hague; Beach &amp; forest both nearby","listingId":3885792,"photoId":"1098-3","tags":[{"name":"sofa","coordinates":[0.23776743412017823,0.8035254160563151,0.43528242111206056,0.3728560129801432]},{"name":"sofa","coordinates":[0.8294443130493164,0.6171721776326498,0.3130642890930176,0.35221792856852213]},{"name":"sofa","coordinates":[0.7208310127258301,0.4997602780659994,0.26875197887420654,0.2070642630259196]},{"name":"pottedplant","coordinates":[0.12226674556732178,0.591320546468099,0.12644569873809813,0.11831273237864176]},{"name":"pottedplant","coordinates":[0.6704639911651611,0.3662276268005371,0.07237059473991395,0.1549030621846517]},{"name":"pottedplant","coordinates":[0.41279191970825196,0.36158717473347984,0.0668797254562378,0.13776375452677408]},{"name":"book","coordinates":[0.2419585943222046,0.6149935404459635,0.11284914016723632,0.052016238371531166]},{"name":"vase","coordinates":[0.24498200416564941,0.4098345438639323,0.018529263138771058,0.052013556162516274]}]}
