{"src":"https://a0.muscache.com/im/pictures/54127749/a47e0ce1_original.jpg?aki_policy=xx_large","name":"Light modern renovated apartment","listingId":3976217,"photoId":"1104-0","tags":[{"name":"sofa","coordinates":[0.3275769710540771,0.9056845347086588,0.7184398651123047,0.18974307378133137]},{"name":"sofa","coordinates":[0.1395668387413025,0.8220329920450846,0.26888651847839357,0.23680013020833332]},{"name":"pottedplant","coordinates":[0.8633419036865234,0.7277779897054036,0.15702083110809326,0.2652085781097412]},{"name":"pottedplant","coordinates":[0.3000797748565674,0.6735715866088867,0.14035724401473998,0.1927692731221517]},{"name":"tvmonitor","coordinates":[0.5794003009796143,0.41127630869547527,0.17904150485992432,0.1443467934926351]},{"name":"vase","coordinates":[0.5527977466583252,0.6579635620117188,0.02916201651096344,0.04151168664296468]}]}
