{"src":"https://a0.muscache.com/im/pictures/bcc3db5c-9ac2-4ab3-a27e-fd2ea7b692f4.jpg?aki_policy=xx_large","name":"The Meadow of the Doves Homestay | بيت مرج الحمام","listingId":20866723,"photoId":"1106-3","tags":[{"name":"oven","coordinates":[0.6606584180603743,0.4985418637593587,0.22978414456484558,0.37162548700968423]},{"name":"bottle","coordinates":[0.13842930916792906,0.1343849817911784,0.03134359877215782,0.11734195550282796]},{"name":"bottle","coordinates":[0.3187692983715305,0.14929885864257814,0.03596520442530175,0.10193434556325277]},{"name":"bottle","coordinates":[0.19656580849678093,0.1548769474029541,0.03055358958300247,0.09784805774688721]},{"name":"bowl","coordinates":[0.3510485925741546,0.3240411122639974,0.0728795675675882,0.04064067602157593]},{"name":"cup","coordinates":[0.4567895908668882,0.4836560885111491,0.027570209995296618,0.05088038444519043]},{"name":"cup","coordinates":[0.4320912066616986,0.507591438293457,0.023250454566365018,0.035174334049224855]}]}
