{"src":"https://a0.muscache.com/im/pictures/2af81a06-4908-4c68-af9b-af39ef577468.jpg?aki_policy=xx_large","name":"Village Residency 2 @  Hauz Khas village","listingId":20883343,"photoId":"1109-17","tags":[{"name":"diningtable","coordinates":[0.42500991821289064,0.6107346852620442,0.8269707573784723,0.7256390889485677]},{"name":"pottedplant","coordinates":[0.3240178214179145,0.2287133534749349,0.1675296465555827,0.3964342753092448]},{"name":"pottedplant","coordinates":[0.47659386528862846,0.1676428476969401,0.16321856180826824,0.339739735921224]},{"name":"chair","coordinates":[0.9331400553385417,0.1962478001912435,0.13241022957695855,0.37524665196736656]},{"name":"chair","coordinates":[0.7607841491699219,0.1751648743947347,0.14807488123575846,0.2991272608439128]},{"name":"bowl","coordinates":[0.4548164791531033,0.2469199339548747,0.13430052863226996,0.1658411979675293]}]}
