{"src":"https://a0.muscache.com/im/pictures/64520479-719a-4151-b74f-8f9d6f308471.jpg?aki_policy=xx_large","name":"Village Residency 2 @  Hauz Khas village","listingId":20883343,"photoId":"1109-9","tags":[{"name":"diningtable","coordinates":[0.5662090301513671,0.770295524597168,1.1140976905822755,0.38392712275187174]},{"name":"chair","coordinates":[0.8470925331115723,0.5825452168782552,0.3305415153503418,0.20225170453389485]},{"name":"pottedplant","coordinates":[0.07306385040283203,0.4113033294677734,0.1336674213409424,0.35354830423990885]},{"name":"wine-glass","coordinates":[0.6545635223388672,0.5698967615763346,0.12267993688583374,0.31818037033081054]},{"name":"chair","coordinates":[0.33589558601379393,0.5469184239705404,0.13932044506073,0.14852975209554037]},{"name":"wine-glass","coordinates":[0.5244714736938476,0.5337702433268229,0.08943055868148804,0.1900265375773112]},{"name":"pottedplant","coordinates":[0.10437144041061401,0.47421509424845376,0.07780486345291138,0.2108976682027181]},{"name":"pottedplant","coordinates":[0.15541369915008546,0.45885047912597654,0.06744766831398011,0.22002078692118326]},{"name":"pottedplant","coordinates":[0.23193910121917724,0.4578076998392741,0.07512918710708619,0.19649977684020997]},{"name":"pottedplant","coordinates":[0.19659572839736938,0.4562520027160645,0.0686268150806427,0.21444648106892902]}]}
