{"src":"https://a0.muscache.com/im/pictures/2af81a06-4908-4c68-af9b-af39ef577468.jpg?aki_policy=xx_large","name":"Village Residency 2 @  Hauz Khas village","listingId":20883343,"photoId":"1109-17","tags":[{"name":"diningtable","coordinates":[0.011524539523654509,0.2479151407877604,0.8269707573784723,0.7256390889485677]},{"name":"pottedplant","coordinates":[0.2402529981401232,0.030496215820312506,0.1675296465555827,0.3964342753092448]},{"name":"pottedplant","coordinates":[0.39498458438449435,-0.002227020263671886,0.16321856180826824,0.339739735921224]},{"name":"chair","coordinates":[0.8669349405500625,0.008624474207560212,0.13241022957695855,0.37524665196736656]},{"name":"chair","coordinates":[0.6867467085520427,0.025601243972778298,0.14807488123575846,0.2991272608439128]},{"name":"bowl","coordinates":[0.38766621483696834,0.16399933497111002,0.13430052863226996,0.1658411979675293]}]}
