{"src":"https://a0.muscache.com/im/pictures/64520479-719a-4151-b74f-8f9d6f308471.jpg?aki_policy=xx_large","name":"Village Residency 2 @  Hauz Khas village","listingId":20883343,"photoId":"1109-9","tags":[{"name":"diningtable","coordinates":[0.5032969156901042,0.770295524597168,0.9903090582953559,0.38392712275187174]},{"name":"chair","coordinates":[0.7529711405436198,0.5825452168782552,0.29381468031141494,0.20225170453389485]},{"name":"pottedplant","coordinates":[0.06494564480251735,0.4113033294677734,0.11881548563639323,0.35354830423990885]},{"name":"wine-glass","coordinates":[0.581834242078993,0.5698967615763346,0.10904883278740776,0.31818037033081054]},{"name":"chair","coordinates":[0.2985738542344835,0.5469184239705404,0.12384039560953776,0.14852975209554037]},{"name":"wine-glass","coordinates":[0.4661968655056424,0.5337702433268229,0.07949382993910048,0.1900265375773112]},{"name":"pottedplant","coordinates":[0.09277461369832357,0.47421509424845376,0.06915987862481011,0.2108976682027181]},{"name":"pottedplant","coordinates":[0.13814551035563152,0.45885047912597654,0.05995348294576009,0.22002078692118326]},{"name":"pottedplant","coordinates":[0.206168089972602,0.4578076998392741,0.06678149965074327,0.19649977684020997]},{"name":"pottedplant","coordinates":[0.17475175857543945,0.4562520027160645,0.06100161340501573,0.21444648106892902]}]}
