{"src":"https://a0.muscache.com/im/pictures/168aff55-8f35-4751-afa6-dbae44dd8b59.jpg?aki_policy=xx_large","name":"lovely City Centre apartment","listingId":12515460,"photoId":"111-3","tags":[{"name":"car","coordinates":[0.8837066650390625,0.6085419336954753,0.22814085218641494,0.23872440656026203]},{"name":"bicycle","coordinates":[0.2645864698621962,0.5872227350870768,0.07721618546379937,0.1917462189992269]},{"name":"motorbike","coordinates":[0.721651373969184,0.5514945983886719,0.1160382800632053,0.12171388467152913]},{"name":"bicycle","coordinates":[0.3961244371202257,0.572423807779948,0.043547831641303165,0.11745883623758951]},{"name":"motorbike","coordinates":[0.4864823659261068,0.544767951965332,0.025192769368489583,0.059275321165720624]},{"name":"bicycle","coordinates":[0.31694984436035156,0.5373129526774089,0.020995985137091742,0.06436205705006917]},{"name":"person","coordinates":[0.48657803005642364,0.5169087727864583,0.01811881595187717,0.06165705521901448]}]}
