{"src":"https://a0.muscache.com/im/pictures/51175487/b22efb04_original.jpg?aki_policy=xx_large","name":"Great seaside-style apartment!","listingId":4070966,"photoId":"1110-5","tags":[{"name":"pottedplant","coordinates":[1.6151531643337673,0.5170387585957845,0.29452164967854816,0.8871681213378906]},{"name":"sofa","coordinates":[1.2502443101671008,0.5288102149963378,0.6259535895453558,0.19863193829854328]},{"name":"chair","coordinates":[0.7168468051486545,0.848959223429362,0.45485797458224825,0.2712929407755534]},{"name":"chair","coordinates":[1.2215289645724827,0.8720728556315104,0.41047418382432727,0.2578393300374349]},{"name":"pottedplant","coordinates":[0.8763894822862414,0.37729288736979166,0.21530348459879559,0.2663053194681803]},{"name":"pottedplant","coordinates":[0.22642784118652343,0.25555572509765623,0.12818328009711372,0.0909233808517456]},{"name":"vase","coordinates":[0.8581726921929254,0.4562742869059245,0.044949478573269315,0.054085906346639]}]}
