{"src":"https://a0.muscache.com/im/pictures/77376728/4a436727_original.jpg?aki_policy=xx_large","name":"Cosy attic in most popular neighbourhood in town.","listingId":4114457,"photoId":"1111-1","tags":[{"name":"diningtable","coordinates":[0.548695797390408,0.5893927256266276,0.851070319281684,0.7942452748616536]},{"name":"book","coordinates":[0.8440347459581163,0.48703187306722007,0.19181573655870227,0.3090129216512044]},{"name":"bowl","coordinates":[0.35279386308458116,0.5756448109944662,0.1290946324666341,0.15515130360921223]},{"name":"cup","coordinates":[0.5003374311659071,0.5286535580952962,0.10688517888387045,0.15541041692097982]},{"name":"cup","coordinates":[0.5977224985758464,0.4882883389790853,0.10026766459147135,0.14993545214335124]}]}
