{"src":"https://a0.muscache.com/im/pictures/97959222/52361450_original.jpg?aki_policy=xx_large","name":"City apartment Spinoza","listingId":4119030,"photoId":"1113-1","tags":[{"name":"sofa","coordinates":[0.8608762356037265,0.7347340265909831,0.2611238005015772,0.3722032864888509]},{"name":"chair","coordinates":[0.8608762356037265,0.7347340265909831,0.2611238005015772,0.3722032864888509]},{"name":"diningtable","coordinates":[0.573408004450313,0.7265342076619467,0.2891045273376369,0.25915605227152505]},{"name":"tvmonitor","coordinates":[0.20217446579433196,0.5330368995666503,0.15373373255483422,0.1620556354522705]},{"name":"pottedplant","coordinates":[0.5979030173336023,0.5630987167358399,0.13061812375446255,0.1765766143798828]},{"name":"vase","coordinates":[0.5978909822323699,0.6136535008748373,0.03650325900512122,0.07339034875233968]}]}
