{"src":"https://a0.muscache.com/im/pictures/8294148a-5e9e-44ee-8bf7-bda734948c60.jpg?aki_policy=xx_large","name":"New and comfortable flat in istanbul","listingId":20908016,"photoId":"1113-1","tags":[{"name":"diningtable","coordinates":[0.30718221664428713,0.6346628030141195,0.720867919921875,0.35873149236043295]},{"name":"sofa","coordinates":[-0.002207434177398687,0.51505552927653,0.17877564430236817,0.43196640014648435]},{"name":"bowl","coordinates":[0.4673776865005493,0.799393892288208,0.14959731101989746,0.18139994939168294]},{"name":"chair","coordinates":[0.3188905537128448,0.3955773194630941,0.14518893957138063,0.18101504643758137]},{"name":"chair","coordinates":[0.5111011683940888,0.37967253526051836,0.12468239068984985,0.18761124610900878]},{"name":"chair","coordinates":[0.35305567383766173,0.800989532470703,0.08908065557479858,0.19167861938476563]},{"name":"bottle","coordinates":[0.6850616753101348,0.6327711741129557,0.0593924880027771,0.22211367289225262]},{"name":"bottle","coordinates":[0.7409422039985657,0.7086816549301147,0.03665425777435303,0.13968752225240072]},{"name":"orange","coordinates":[0.5144173890352249,0.8806036233901978,0.043237441778182985,0.04795451164245605]},{"name":"vase","coordinates":[0.6888110741972924,0.4526860475540161,0.022706010937690736,0.05068806012471517]}]}
