{"src":"https://a0.muscache.com/im/pictures/8294148a-5e9e-44ee-8bf7-bda734948c60.jpg?aki_policy=xx_large","name":"New and comfortable flat in istanbul","listingId":20908016,"photoId":"1113-1","tags":[{"name":"diningtable","coordinates":[0.6676161766052247,0.814028549194336,0.720867919921875,0.35873149236043295]},{"name":"sofa","coordinates":[0.0871803879737854,0.7310387293497721,0.17877564430236817,0.43196640014648435]},{"name":"bowl","coordinates":[0.542176342010498,0.8900938669840495,0.14959731101989746,0.18139994939168294]},{"name":"chair","coordinates":[0.39148502349853515,0.4860848426818848,0.14518893957138063,0.18101504643758137]},{"name":"chair","coordinates":[0.5734423637390137,0.47347815831502277,0.12468239068984985,0.18761124610900878]},{"name":"chair","coordinates":[0.39759600162506104,0.8968288421630859,0.08908065557479858,0.19167861938476563]},{"name":"bottle","coordinates":[0.7147579193115234,0.743828010559082,0.0593924880027771,0.22211367289225262]},{"name":"bottle","coordinates":[0.7592693328857422,0.7785254160563151,0.03665425777435303,0.13968752225240072]},{"name":"orange","coordinates":[0.5360361099243164,0.9045808792114258,0.043237441778182985,0.04795451164245605]},{"name":"vase","coordinates":[0.7001640796661377,0.47803007761637367,0.022706010937690736,0.05068806012471517]}]}
