{"src":"https://a0.muscache.com/im/pictures/279513da-2a1d-4f95-9f0e-537644d880ec.jpg?aki_policy=xx_large","name":"RENEWED AND FULLY EQUIPPED APARTMENT!","listingId":20913960,"photoId":"1115-4","tags":[{"name":"diningtable","coordinates":[0.28609657287597656,0.6570693333943685,0.5923464298248291,0.599057388305664]},{"name":"pottedplant","coordinates":[0.23113036155700684,0.24512777328491211,0.16878068447113037,0.4288254102071126]},{"name":"wine-glass","coordinates":[0.2684332847595215,0.4795651435852051,0.08535352349281311,0.23785839080810547]},{"name":"bowl","coordinates":[0.11770646572113037,0.5298298517862956,0.15397171974182128,0.12116941610972086]},{"name":"pottedplant","coordinates":[0.49556427001953124,0.29825719197591144,0.09956861734390259,0.16642155647277831]},{"name":"bottle","coordinates":[0.32702314853668213,0.31459194819132485,0.04895409345626831,0.27647482554117836]},{"name":"chair","coordinates":[0.5463025569915771,0.2976892153422038,0.037854349613189696,0.2048194408416748]},{"name":"bowl","coordinates":[0.47461419105529784,0.40054814020792645,0.10310416221618653,0.061532966295878094]},{"name":"wine-glass","coordinates":[0.36971354484558105,0.3518264134724935,0.045901530981063844,0.13308196067810057]}]}
