{"src":"https://a0.muscache.com/im/pictures/bcf1eeba-878b-4e78-839b-32bdb6f18902.jpg?aki_policy=xx_large","name":"RENEWED AND FULLY EQUIPPED APARTMENT!","listingId":20913960,"photoId":"1115-4","tags":[{"name":"diningtable","coordinates":[0.5745257377624512,0.6054701487223307,0.7431767463684082,0.7400753021240234]},{"name":"chair","coordinates":[0.2398247241973877,0.6167647679646809,0.45236687660217284,0.733247947692871]},{"name":"chair","coordinates":[0.8317958831787109,0.4061838467915853,0.23210089206695556,0.6492769241333007]},{"name":"pottedplant","coordinates":[0.466989803314209,0.1660614013671875,0.1269159197807312,0.3160198847452799]},{"name":"bowl","coordinates":[0.5507465362548828,0.3377278963724772,0.16180623769760133,0.09506397247314453]},{"name":"pottedplant","coordinates":[0.7437765598297119,0.21373705863952636,0.0707867681980133,0.18762157758076986]},{"name":"wine-glass","coordinates":[0.466033411026001,0.34066864649454753,0.06177899837493896,0.16945756276448568]},{"name":"bottle","coordinates":[0.5449370861053466,0.22674139340718588,0.05053133964538574,0.190747865041097]},{"name":"cup","coordinates":[0.37422995567321776,0.36875807444254555,0.10014908313751221,0.080031418800354]},{"name":"bowl","coordinates":[0.37422995567321776,0.36875807444254555,0.10014908313751221,0.080031418800354]},{"name":"wine-glass","coordinates":[0.583228349685669,0.2533809026082357,0.041196173429489134,0.12387026945749918]},{"name":"cup","coordinates":[0.6626669883728027,0.2920611063639323,0.08105947971343994,0.05302037398020427]},{"name":"bowl","coordinates":[0.6626669883728027,0.2920611063639323,0.08105947971343994,0.05302037398020427]},{"name":"apple","coordinates":[0.5728896141052247,0.3285702705383301,0.035227876901626584,0.035573871930440266]},{"name":"orange","coordinates":[0.5728896141052247,0.3285702705383301,0.035227876901626584,0.035573871930440266]}]}
