{"src":"https://a0.muscache.com/im/pictures/bcf1eeba-878b-4e78-839b-32bdb6f18902.jpg?aki_policy=xx_large","name":"RENEWED AND FULLY EQUIPPED APARTMENT!","listingId":20913960,"photoId":"1115-4","tags":[{"name":"diningtable","coordinates":[0.20293736457824707,0.23543249766031904,0.7431767463684082,0.7400753021240234]},{"name":"chair","coordinates":[0.013641285896301286,0.2501407941182454,0.45236687660217284,0.733247947692871]},{"name":"chair","coordinates":[0.7157454371452331,0.08154538472493494,0.23210089206695556,0.6492769241333007]},{"name":"pottedplant","coordinates":[0.4035318434238434,0.008051458994547539,0.1269159197807312,0.3160198847452799]},{"name":"bowl","coordinates":[0.46984341740608215,0.2901959101359049,0.16180623769760133,0.09506397247314453]},{"name":"pottedplant","coordinates":[0.7083831757307053,0.11992626984914143,0.0707867681980133,0.18762157758076986]},{"name":"wine-glass","coordinates":[0.4351439118385315,0.2559398651123047,0.06177899837493896,0.16945756276448568]},{"name":"bottle","coordinates":[0.5196714162826538,0.13136746088663737,0.05053133964538574,0.190747865041097]},{"name":"cup","coordinates":[0.32415541410446164,0.32874236504236853,0.10014908313751221,0.080031418800354]},{"name":"bowl","coordinates":[0.32415541410446164,0.32874236504236853,0.10014908313751221,0.080031418800354]},{"name":"wine-glass","coordinates":[0.5626302629709243,0.1914457678794861,0.041196173429489134,0.12387026945749918]},{"name":"cup","coordinates":[0.6221372485160828,0.26555091937383013,0.08105947971343994,0.05302037398020427]},{"name":"bowl","coordinates":[0.6221372485160828,0.26555091937383013,0.08105947971343994,0.05302037398020427]},{"name":"apple","coordinates":[0.5552756756544114,0.31078333457310997,0.035227876901626584,0.035573871930440266]},{"name":"orange","coordinates":[0.5552756756544114,0.31078333457310997,0.035227876901626584,0.035573871930440266]}]}
