{"src":"https://z0.muscache.cn/im/pictures/cc3b208e-7a9c-4d01-9b70-ef91d7f5273c.jpg?aki_policy=xx_large","name":"佐儿家民宿~最ins清新风的市区大两居","listingId":20923876,"photoId":"1117-8","tags":[{"name":"sofa","coordinates":[0.8093211703830295,0.7712324142456055,0.40246497260199654,0.4279852549235026]},{"name":"tvmonitor","coordinates":[0.12763042449951173,0.54026304880778,0.1934319814046224,0.1917146364847819]},{"name":"sofa","coordinates":[0.5966206868489583,0.6941821416219075,0.1739649772644043,0.15711528460184734]},{"name":"pottedplant","coordinates":[0.6894375695122613,0.5183643023173015,0.12876093122694227,0.20845557848612467]},{"name":"pottedplant","coordinates":[0.49597405327690974,0.6260374069213868,0.0464340951707628,0.13624043464660646]},{"name":"pottedplant","coordinates":[0.29825736151801213,0.5501303990681966,0.06054167747497559,0.07952757676442464]},{"name":"vase","coordinates":[0.4922021230061849,0.6666290283203125,0.02123375203874376,0.05479055643081665]}]}
