{"src":"https://z0.muscache.cn/im/pictures/ee56cc2d-a575-4270-ba5d-98f8c2845cc2.jpg?aki_policy=xx_large","name":"佐儿家民宿~最ins清新风的市区大两居","listingId":20923876,"photoId":"1117-9","tags":[{"name":"sofa","coordinates":[0.06877691480848525,0.5431474367777507,0.859249030219184,0.3829331080118815]},{"name":"sofa","coordinates":[0.26897214253743484,0.5085061073303222,0.6083187527126737,0.2782008488972982]},{"name":"pottedplant","coordinates":[0.08524980545043945,0.2934476375579834,0.19015581342909071,0.38332128524780273]},{"name":"chair","coordinates":[0.6246958202785916,0.7881322622299195,0.19367205301920573,0.2007603168487549]},{"name":"vase","coordinates":[0.4908689353201124,0.688873831431071,0.03498601648542616,0.10819835662841797]}]}
