{"src":"https://z0.muscache.cn/im/pictures/ee56cc2d-a575-4270-ba5d-98f8c2845cc2.jpg?aki_policy=xx_large","name":"佐儿家民宿~最ins清新风的市区大两居","listingId":20923876,"photoId":"1117-9","tags":[{"name":"sofa","coordinates":[0.49840142991807723,0.7346139907836914,0.859249030219184,0.3829331080118815]},{"name":"sofa","coordinates":[0.5731315188937717,0.6476065317789713,0.6083187527126737,0.2782008488972982]},{"name":"pottedplant","coordinates":[0.1803277121649848,0.4851082801818848,0.19015581342909071,0.38332128524780273]},{"name":"chair","coordinates":[0.7215318467881945,0.8885124206542969,0.19367205301920573,0.2007603168487549]},{"name":"vase","coordinates":[0.5083619435628255,0.7429730097452799,0.03498601648542616,0.10819835662841797]}]}
