{"src":"https://z0.muscache.cn/im/pictures/2468ce7e-0836-4eb8-8e82-c42ce47b3286.jpg?aki_policy=xx_large","name":"佐儿家民宿~最ins清新风的市区大两居","listingId":20923876,"photoId":"1117-10","tags":[{"name":"diningtable","coordinates":[0.518091795179579,0.6164535522460938,0.9422515869140625,0.6869328816731771]},{"name":"chair","coordinates":[0.17588751051161025,0.5376823425292969,0.2225507312350803,0.30289201736450194]},{"name":"chair","coordinates":[0.4085092332628038,0.36288407643636067,0.13763244416978623,0.22691256205240887]},{"name":"bowl","coordinates":[0.7048627217610677,0.6429873784383138,0.16115389929877388,0.1559853235880534]},{"name":"bottle","coordinates":[0.6579460567898221,0.42168973286946615,0.06531310081481934,0.29908987681070964]},{"name":"bowl","coordinates":[0.3952154795328776,0.5383902231852213,0.1417732662624783,0.13507580757141113]},{"name":"orange","coordinates":[0.5826202816433377,0.2580808321634928,0.12671564949883354,0.131400465965271]},{"name":"bowl","coordinates":[0.893416765001085,0.44608786900838215,0.1178111818101671,0.1046435038248698]},{"name":"spoon","coordinates":[0.7941437615288629,0.5640228907267253,0.07474419275919596,0.1070749839146932]},{"name":"apple","coordinates":[0.5219913906521267,0.36825873057047526,0.06907994482252333,0.10190541744232177]},{"name":"apple","coordinates":[0.5821718427870008,0.3897007942199707,0.07114058600531684,0.09627205530802409]},{"name":"apple","coordinates":[0.5622297498914931,0.30841633478800456,0.058898205227322045,0.0843959093093872]},{"name":"apple","coordinates":[0.6194621192084419,0.32015584309895834,0.04999273618062337,0.0828337828318278]}]}
