{"src":"https://z0.muscache.cn/im/pictures/47c8ebfb-4cca-4b48-a153-c16d0e506d41.jpg?aki_policy=xx_large","name":"佐儿家民宿~最ins清新风的市区大两居","listingId":20923876,"photoId":"1117-10","tags":[{"name":"diningtable","coordinates":[0.48143107096354165,0.6808066209157307,0.5197625054253472,0.29784326553344725]},{"name":"refrigerator","coordinates":[0.6445637543996176,0.3939273834228516,0.12275510364108616,0.36312777201334634]},{"name":"chair","coordinates":[0.5301926188998752,0.7935121933619181,0.1861984888712565,0.20552347501118978]},{"name":"chair","coordinates":[0.7279438336690267,0.8570124626159668,0.24776376088460286,0.1441048304239909]},{"name":"pottedplant","coordinates":[0.38930373191833495,0.5675200303395589,0.09825529522365994,0.23823976516723633]},{"name":"bowl","coordinates":[0.8489291350046794,0.7292143026987711,0.10097307629055446,0.09241787592569987]},{"name":"clock","coordinates":[0.8392366197374133,0.2539847215016683,0.0434358384874132,0.1511061668395996]},{"name":"chair","coordinates":[0.5887967030207316,0.6847034116586049,0.07839778794182671,0.06432183980941772]},{"name":"clock","coordinates":[0.5664000193277994,0.3559951424598694,0.05605748494466146,0.08286534150441488]},{"name":"bowl","coordinates":[0.7542717059453328,0.7679661631584167,0.07856545448303223,0.05675044854482015]},{"name":"vase","coordinates":[0.6657829364140829,0.6596808592478434,0.023951196670532228,0.11958049138387045]},{"name":"bottle","coordinates":[0.6657829364140829,0.6596808592478434,0.023951196670532228,0.11958049138387045]},{"name":"apple","coordinates":[0.7267209370930989,0.7000126222769419,0.024126349555121527,0.04025020202000936]},{"name":"apple","coordinates":[0.7448434260156419,0.7226611057917277,0.026065982712639702,0.03650558789571126]}]}
