{"src":"https://z0.muscache.cn/im/pictures/cc3b208e-7a9c-4d01-9b70-ef91d7f5273c.jpg?aki_policy=xx_large","name":"佐儿家民宿~最ins清新风的市区大两居","listingId":20923876,"photoId":"1117-8","tags":[{"name":"sofa","coordinates":[0.6080886840820312,0.5572397867838542,0.40246497260199654,0.4279852549235026]},{"name":"tvmonitor","coordinates":[0.030914433797200533,0.444405730565389,0.1934319814046224,0.1917146364847819]},{"name":"sofa","coordinates":[0.5096381982167562,0.6156244993209838,0.1739649772644043,0.15711528460184734]},{"name":"pottedplant","coordinates":[0.6250571038987902,0.41413651307423915,0.12876093122694227,0.20845557848612467]},{"name":"pottedplant","coordinates":[0.47275700569152834,0.5579171895980836,0.0464340951707628,0.13624043464660646]},{"name":"pottedplant","coordinates":[0.2679865227805243,0.5103666106859843,0.06054167747497559,0.07952757676442464]},{"name":"vase","coordinates":[0.481585246986813,0.6392337501049041,0.02123375203874376,0.05479055643081665]}]}
