{"src":"https://z0.muscache.cn/im/pictures/13042f81-3f6d-4d51-9bfd-6908c337e08e.jpg?aki_policy=xx_large","name":"佐儿家民宿~最ins清新风的市区大两居","listingId":20923876,"photoId":"1117-9","tags":[{"name":"diningtable","coordinates":[0.41705254448784723,0.7599407831827799,0.6413589901394314,0.47585067749023435]},{"name":"refrigerator","coordinates":[0.31702115800645614,0.3123992284138997,0.22931317223442926,0.5462439219156902]},{"name":"chair","coordinates":[0.7191727532280816,0.7707183202107747,0.27600222693549264,0.44907830556233724]},{"name":"pottedplant","coordinates":[0.5208888583713107,0.2916981379191081,0.16761794620090062,0.5220558802286784]},{"name":"clock","coordinates":[0.6013355678982205,0.05632678270339966,0.09613922966851128,0.11282956600189209]},{"name":"vase","coordinates":[0.5339150322808159,0.46360467274983724,0.048328860600789385,0.20947572390238445]},{"name":"chair","coordinates":[0.2962998072306315,0.5736932118733724,0.12304426829020182,0.08031619389851888]},{"name":"clock","coordinates":[0.09447697533501519,0.032950661579767865,0.1298733393351237,0.06069606939951579]},{"name":"bowl","coordinates":[0.49057676527235244,0.6081322352091472,0.12645963033040364,0.062022753556569415]},{"name":"bowl","coordinates":[0.4934324476453993,0.5683411280314128,0.09835327996148004,0.04275737603505452]},{"name":"bowl","coordinates":[0.37355516221788193,0.5633872985839844,0.08221609327528212,0.04916164477666219]},{"name":"apple","coordinates":[0.6320177714029948,0.5408481597900391,0.03823202186160617,0.044991568724314375]},{"name":"apple","coordinates":[0.5998913235134549,0.5491872787475586,0.0384531921810574,0.03998703559239705]},{"name":"apple","coordinates":[0.5797572241889106,0.5147555987040202,0.03337407112121582,0.04414928356806437]},{"name":"apple","coordinates":[0.6121721903483073,0.5073924700419108,0.029457129372490776,0.041007645924886066]}]}
