{"src":"https://a0.muscache.com/im/pictures/c05aac44-a80d-40d3-a4b3-02d23d5b0e90.jpg?aki_policy=xx_large","name":"401 For family freewifi &amp;Parking  2Bed room","listingId":20928590,"photoId":"1118-6","tags":[{"name":"chair","coordinates":[0.28340868949890136,0.7159237543741862,0.30809774398803713,0.5139748573303222]},{"name":"diningtable","coordinates":[0.16776214838027953,0.776528803507487,0.36862156391143797,0.42921107610066733]},{"name":"sofa","coordinates":[0.7831366062164307,0.48623940149943035,0.21708402633666993,0.1589604377746582]},{"name":"chair","coordinates":[0.7831366062164307,0.48623940149943035,0.21708402633666993,0.1589604377746582]},{"name":"diningtable","coordinates":[0.6313355445861817,0.47665154139200844,0.17142237424850465,0.183693265914917]},{"name":"chair","coordinates":[0.5310682773590087,0.45599889755249023,0.13478220701217652,0.1746495246887207]},{"name":"tvmonitor","coordinates":[0.3324041604995728,0.40977703730265297,0.10648115873336791,0.21169486045837402]},{"name":"pottedplant","coordinates":[0.40842156410217284,0.49427483876546224,0.0823192536830902,0.13886690139770508]}]}
