{"src":"https://a0.muscache.com/im/pictures/c05aac44-a80d-40d3-a4b3-02d23d5b0e90.jpg?aki_policy=xx_large","name":"401 For family freewifi &amp;Parking  2Bed room","listingId":20928590,"photoId":"1118-6","tags":[{"name":"chair","coordinates":[0.1293598175048828,0.4589363257090251,0.30809774398803713,0.5139748573303222]},{"name":"diningtable","coordinates":[-0.016548633575439453,0.5619232654571533,0.36862156391143797,0.42921107610066733]},{"name":"sofa","coordinates":[0.6745945930480957,0.40675918261210126,0.21708402633666993,0.1589604377746582]},{"name":"chair","coordinates":[0.6745945930480957,0.40675918261210126,0.21708402633666993,0.1589604377746582]},{"name":"diningtable","coordinates":[0.5456243574619294,0.38480490843454995,0.17142237424850465,0.183693265914917]},{"name":"chair","coordinates":[0.4636771738529205,0.36867413520812986,0.13478220701217652,0.1746495246887207]},{"name":"tvmonitor","coordinates":[0.2791635811328888,0.30392960707346595,0.10648115873336791,0.21169486045837402]},{"name":"pottedplant","coordinates":[0.3672619372606277,0.4248413880666097,0.0823192536830902,0.13886690139770508]}]}
