{"src":"https://a0.muscache.com/im/pictures/c05aac44-a80d-40d3-a4b3-02d23d5b0e90.jpg?aki_policy=xx_large","name":"401 For family freewifi &amp;Parking  2Bed room","listingId":20928590,"photoId":"1118-4","tags":[{"name":"chair","coordinates":[0.5038376702202692,0.7159237543741862,0.5477293226453993,0.5139748573303222]},{"name":"diningtable","coordinates":[0.2982438193427192,0.776528803507487,0.6553272247314453,0.42921107610066733]},{"name":"sofa","coordinates":[1.3922428554958768,0.48623940149943035,0.3859271579318576,0.1589604377746582]},{"name":"chair","coordinates":[1.3922428554958768,0.48623940149943035,0.3859271579318576,0.1589604377746582]},{"name":"diningtable","coordinates":[1.122374301486545,0.47665154139200844,0.30475088755289714,0.183693265914917]},{"name":"chair","coordinates":[0.9441213819715711,0.45599889755249023,0.2396128124660916,0.1746495246887207]},{"name":"tvmonitor","coordinates":[0.5909407297770183,0.40977703730265297,0.18929983774820963,0.21169486045837402]},{"name":"pottedplant","coordinates":[0.7260827806260851,0.49427483876546224,0.14634533988104925,0.13886690139770508]}]}
