{"src":"https://a0.muscache.com/im/pictures/4072ccbe-cfd7-4bea-8be5-72128362a145.jpg?aki_policy=xx_large","name":"離塵不離城的世外桃源，明亮的空間欣賞雪山山脈讓你享受到幽靜舒適的空間","listingId":12485899,"photoId":"112-7","tags":[{"name":"bed","coordinates":[0.20668979220920142,0.7628687540690103,0.7926022847493489,0.23250160217285157]},{"name":"chair","coordinates":[0.5863775041368273,0.6125826279322306,0.11428510877821181,0.18602579434712727]},{"name":"wine-glass","coordinates":[0.03111838897069295,0.4749348004659017,0.03270737065209283,0.08555450439453124]},{"name":"wine-glass","coordinates":[0.06932800875769722,0.45714639425277714,0.024132214652167427,0.10436921914418539]},{"name":"book","coordinates":[0.7776816901233461,0.40717415014902747,0.007656096749835544,0.04778726895650228]}]}
