{"src":"https://a0.muscache.com/im/pictures/4072ccbe-cfd7-4bea-8be5-72128362a145.jpg?aki_policy=xx_large","name":"離塵不離城的世外桃源，明亮的空間欣賞雪山山脈讓你享受到幽靜舒適的空間","listingId":12485899,"photoId":"112-7","tags":[{"name":"bed","coordinates":[0.6029909345838759,0.8791195551554362,0.7926022847493489,0.23250160217285157]},{"name":"chair","coordinates":[0.6435200585259332,0.7055955251057943,0.11428510877821181,0.18602579434712727]},{"name":"wine-glass","coordinates":[0.047472074296739365,0.5177120526631673,0.03270737065209283,0.08555450439453124]},{"name":"wine-glass","coordinates":[0.08139411608378093,0.5093310038248698,0.024132214652167427,0.10436921914418539]},{"name":"book","coordinates":[0.7815097384982639,0.4310677846272786,0.007656096749835544,0.04778726895650228]}]}
