{"src":"https://a0.muscache.com/im/pictures/4072ccbe-cfd7-4bea-8be5-72128362a145.jpg?aki_policy=xx_large","name":"離塵不離城的世外桃源，明亮的空間欣賞雪山山脈讓你享受到幽靜舒適的空間","listingId":12485899,"photoId":"112-7","tags":[{"name":"bed","coordinates":[1.1306080023447673,0.8791195551554362,1.4861292839050293,0.23250160217285157]},{"name":"chair","coordinates":[1.2066001097361247,0.7055955251057943,0.21428457895914713,0.18602579434712727]},{"name":"wine-glass","coordinates":[0.08901013930638631,0.5177120526631673,0.06132631997267405,0.08555450439453124]},{"name":"wine-glass","coordinates":[0.15261396765708923,0.5093310038248698,0.045247902472813926,0.10436921914418539]},{"name":"book","coordinates":[1.4653307596842449,0.4310677846272786,0.014355181405941645,0.04778726895650228]}]}
