{"src":"https://a0.muscache.com/im/pictures/5c2710d7-df13-44f5-a09b-b685c87574b9.jpg?aki_policy=xx_large","name":"Central, Comfortable and Cozy","listingId":20951837,"photoId":"1121-6","tags":[{"name":"book","coordinates":[0.004467540317111551,-0.04479713439941402,0.28458387586805556,0.8479506810506184]},{"name":"diningtable","coordinates":[0.010229025946723092,0.7275598208109537,0.5403309292263455,0.2690444310506185]},{"name":"chair","coordinates":[0.4975136915842693,0.5399751504262289,0.14440166685316297,0.30348882675170896]},{"name":"chair","coordinates":[0.33523189756605365,0.5722087939580282,0.13566294776068794,0.22504080136617025]},{"name":"tvmonitor","coordinates":[0.4738054858313667,0.5222942531108856,0.05884019003974067,0.06662924687067667]},{"name":"laptop","coordinates":[0.4738054858313667,0.5222942531108856,0.05884019003974067,0.06662924687067667]},{"name":"book","coordinates":[0.09106554587682089,0.11714009046554566,0.025472638342115612,0.11608568032582602]},{"name":"book","coordinates":[0.07804704043600294,0.11244189739227295,0.0214620312054952,0.12115143140157064]},{"name":"book","coordinates":[0.037074943383534745,0.10654090245564779,0.022056947814093696,0.11512667338053385]},{"name":"book","coordinates":[0.1715601921081543,0.13403446276982625,0.020089870029025608,0.10745184421539307]}]}
