{"src":"https://a0.muscache.com/im/pictures/30167140/f0e3a607_original.jpg?aki_policy=xx_large","name":"Beautiful heart of city location","listingId":427903,"photoId":"1121-6","tags":[{"name":"sink","coordinates":[0.13147960238986545,0.8989375432332357,0.29806090460883244,0.1302682320276896]},{"name":"chair","coordinates":[0.44747289021809894,0.7003766377766927,0.1376307275560167,0.1645032246907552]},{"name":"bowl","coordinates":[0.44268319871690537,0.8738754908243815,0.13609175152248806,0.14146685600280762]},{"name":"chair","coordinates":[0.5978467305501302,0.6996721267700196,0.08255433506435818,0.19822373390197753]},{"name":"chair","coordinates":[0.6602235582139757,0.6390570322672526,0.04384638998243544,0.11930111249287924]},{"name":"chair","coordinates":[0.5708875868055555,0.589201291402181,0.06356078253851996,0.06504610776901246]},{"name":"chair","coordinates":[0.4928953806559245,0.5956964492797852,0.06392396291097005,0.0557573676109314]},{"name":"chair","coordinates":[0.44871626959906685,0.5993659973144532,0.04478468365139431,0.056349682807922366]},{"name":"vase","coordinates":[0.5286140865749783,0.604750378926595,0.01833477814992269,0.06902450720469157]}]}
