{"src":"https://a0.muscache.com/im/pictures/5c2710d7-df13-44f5-a09b-b685c87574b9.jpg?aki_policy=xx_large","name":"Central, Comfortable and Cozy","listingId":20951837,"photoId":"1121-6","tags":[{"name":"book","coordinates":[0.14675947825113933,0.3791782061258952,0.28458387586805556,0.8479506810506184]},{"name":"diningtable","coordinates":[0.28039449055989585,0.862082036336263,0.5403309292263455,0.2690444310506185]},{"name":"chair","coordinates":[0.5697145250108507,0.6917195638020833,0.14440166685316297,0.30348882675170896]},{"name":"chair","coordinates":[0.4030633714463976,0.6847291946411133,0.13566294776068794,0.22504080136617025]},{"name":"tvmonitor","coordinates":[0.503225580851237,0.5556088765462239,0.05884019003974067,0.06662924687067667]},{"name":"laptop","coordinates":[0.503225580851237,0.5556088765462239,0.05884019003974067,0.06662924687067667]},{"name":"book","coordinates":[0.1038018650478787,0.17518293062845866,0.025472638342115612,0.11608568032582602]},{"name":"book","coordinates":[0.08877805603875054,0.17301761309305827,0.0214620312054952,0.12115143140157064]},{"name":"book","coordinates":[0.048103417290581596,0.1641042391459147,0.022056947814093696,0.11512667338053385]},{"name":"book","coordinates":[0.1816051271226671,0.18776038487752278,0.020089870029025608,0.10745184421539307]}]}
