{"src":"https://a0.muscache.com/im/pictures/30166658/735dbc2a_original.jpg?aki_policy=xx_large","name":"Beautiful heart of city location","listingId":427903,"photoId":"1121-4","tags":[{"name":"diningtable","coordinates":[0.747167460123698,0.7995179494222006,0.5402796936035156,0.39981714884440106]},{"name":"oven","coordinates":[0.20282405853271485,0.7979834874471029,0.26625050862630206,0.3875901540120443]},{"name":"clock","coordinates":[0.2432813008626302,0.13830610911051433,0.08254692713419597,0.135019318262736]},{"name":"vase","coordinates":[0.5789736938476563,0.3967957814534505,0.05757005055745443,0.09255758921305339]},{"name":"vase","coordinates":[0.8759911092122395,0.38726927439371744,0.05245979944864909,0.09801077047983806]}]}
