{"src":"https://a0.muscache.com/im/pictures/55061283/cf96c25e_original.jpg?aki_policy=xx_large","name":"Lovely house with large garden.","listingId":4323403,"photoId":"1124-0","tags":[{"name":"sofa","coordinates":[0.7933449485085228,0.7986706415812175,0.3945974069875437,0.3954384485880534]},{"name":"chair","coordinates":[0.17435187493170892,0.8282081604003906,0.32061566973065997,0.3231195449829102]},{"name":"chair","coordinates":[0.20176205935178104,0.6038682937622071,0.07048762394831731,0.11777400970458984]},{"name":"chair","coordinates":[0.14352330561284418,0.6247278213500976,0.04017821625396088,0.08676675160725912]},{"name":"clock","coordinates":[0.22849836016034747,0.2504566669464111,0.042249287425221264,0.06323697566986083]},{"name":"book","coordinates":[0.4318515590854458,0.48524977366129557,0.009960672071763686,0.04572000106175741]}]}
