{"src":"https://a0.muscache.com/im/pictures/55061036/214aff85_original.jpg?aki_policy=xx_large","name":"Lovely house with large garden.","listingId":4323403,"photoId":"1124-8","tags":[{"name":"diningtable","coordinates":[0.7095365736219618,0.8508703231811523,0.5464064280192057,0.2744638760884603]},{"name":"chair","coordinates":[0.45039435492621527,0.8753008524576823,0.20197099049886066,0.23222150802612304]},{"name":"chair","coordinates":[0.8640005323621962,0.710186513264974,0.19986417558458117,0.1330258369445801]},{"name":"bowl","coordinates":[0.7069803025987413,0.7812400817871094,0.17605303658379448,0.10497810045878092]},{"name":"chair","coordinates":[0.2451075659857856,0.6439271291097005,0.10921061833699544,0.16812785466512045]},{"name":"pottedplant","coordinates":[0.18936261071099175,0.5725362777709961,0.06426677174038357,0.0868615468343099]},{"name":"apple","coordinates":[0.6906070285373264,0.7688618342081706,0.04387172593010796,0.06582874059677124]}]}
