{"src":"https://a0.muscache.com/im/pictures/55061247/1c2f2c05_original.jpg?aki_policy=xx_large","name":"Lovely house with large garden.","listingId":4323403,"photoId":"1124-5","tags":[{"name":"tvmonitor","coordinates":[0.13838474485609267,0.6333192825317383,0.2412502924601237,0.2955257097880046]},{"name":"chair","coordinates":[0.5194844563802083,0.7523054122924805,0.19225184122721353,0.3137656847635905]},{"name":"diningtable","coordinates":[0.5692274729410808,0.9323621114095052,0.39296815660264756,0.11671566168467204]},{"name":"chair","coordinates":[0.8322979397243924,0.6018336613972982,0.06080585055881076,0.17153358459472656]},{"name":"chair","coordinates":[0.7531499226888021,0.6010107676188151,0.05815417501661513,0.15990331967671711]},{"name":"clock","coordinates":[0.7737313164605035,0.24779901504516602,0.0423713313208686,0.06354951858520508]},{"name":"book","coordinates":[0.9150008307562933,0.739889653523763,0.012529869874318441,0.08813273111979167]},{"name":"book","coordinates":[0.9336901346842448,0.7379952748616536,0.012403580877516005,0.07557769616444905]}]}
