{"src":"https://a0.muscache.com/im/pictures/173bd005-6e7a-4a64-8823-15848e5976c9.jpg?aki_policy=xx_large","name":"Stylish studio flat in top location of Pozna≈Ñ","listingId":20959437,"photoId":"1124-0","tags":[{"name":"diningtable","coordinates":[0.6156279881795248,0.5973621527353923,0.3419034745958116,0.31107454299926757]},{"name":"chair","coordinates":[0.6030345333947076,0.710587453842163,0.16944379806518556,0.2904674212137858]},{"name":"refrigerator","coordinates":[0.5734419133928087,0.2542683919270833,0.1396992047627767,0.3388483683268229]},{"name":"chair","coordinates":[0.49510620964898006,0.6156857808430989,0.13372684054904513,0.3331713358561198]},{"name":"pottedplant","coordinates":[0.7103953785366481,0.3839562098185221,0.13673165639241536,0.3187932332356771]},{"name":"pottedplant","coordinates":[0.6374150858985054,0.08659095764160156,0.07379891077677408,0.17035566965738932]},{"name":"chair","coordinates":[0.6253471533457438,0.5269631067911784,0.08568357891506619,0.06609331766764323]}]}
