{"src":"https://a0.muscache.com/im/pictures/173bd005-6e7a-4a64-8823-15848e5976c9.jpg?aki_policy=xx_large","name":"Stylish studio flat in top location of Pozna≈Ñ","listingId":20959437,"photoId":"1124-0","tags":[{"name":"diningtable","coordinates":[0.7865797254774306,0.7528994242350261,0.3419034745958116,0.31107454299926757]},{"name":"chair","coordinates":[0.6877564324273003,0.855821164449056,0.16944379806518556,0.2904674212137858]},{"name":"refrigerator","coordinates":[0.6432915157741971,0.42369257609049477,0.1396992047627767,0.3388483683268229]},{"name":"chair","coordinates":[0.5619696299235026,0.7822714487711588,0.13372684054904513,0.3331713358561198]},{"name":"pottedplant","coordinates":[0.7787612067328559,0.5433528264363606,0.13673165639241536,0.3187932332356771]},{"name":"pottedplant","coordinates":[0.6743145412868924,0.17176879247029622,0.07379891077677408,0.17035566965738932]},{"name":"chair","coordinates":[0.6681889428032769,0.560009765625,0.08568357891506619,0.06609331766764323]}]}
