{"src":"https://a0.muscache.com/im/pictures/173bd005-6e7a-4a64-8823-15848e5976c9.jpg?aki_policy=xx_large","name":"Stylish studio flat in top location of Pozna≈Ñ","listingId":20959437,"photoId":"1124-0","tags":[{"name":"diningtable","coordinates":[0.8478104825505239,0.7528994242350261,0.36851871513321016,0.31107454299926757]},{"name":"chair","coordinates":[0.7412943583048747,0.855821164449056,0.18263403384271495,0.2904674212137858]},{"name":"refrigerator","coordinates":[0.6933681008344639,0.42369257609049477,0.15057399315748385,0.3388483683268229]},{"name":"chair","coordinates":[0.6057157687798231,0.7822714487711588,0.14413671436424028,0.3331713358561198]},{"name":"pottedplant","coordinates":[0.8393833365982878,0.5433528264363606,0.14737543802775308,0.3187932332356771]},{"name":"pottedplant","coordinates":[0.7268060924050337,0.17176879247029622,0.07954373616658285,0.17035566965738932]},{"name":"chair","coordinates":[0.7202036509256877,0.560009765625,0.09235355811204739,0.06609331766764323]}]}
