{"src":"https://a0.muscache.com/im/pictures/55061129/5c65b8ee_original.jpg?aki_policy=xx_large","name":"Lovely house with large garden.","listingId":4323403,"photoId":"1124-4","tags":[{"name":"chair","coordinates":[0.8178463406032986,0.8488672256469727,0.3216196060180664,0.2742116928100586]},{"name":"sofa","coordinates":[0.0790050188700358,0.8258874893188477,0.1500396728515625,0.31517213185628257]},{"name":"tvmonitor","coordinates":[0.7278889973958333,0.6119421005249024,0.13271922005547418,0.18913515408833823]},{"name":"pottedplant","coordinates":[0.46726752387152776,0.6534741719563802,0.12105948130289713,0.20042861302693685]},{"name":"pottedplant","coordinates":[0.23338029649522568,0.7378698984781901,0.10950042936537001,0.1603202184041341]},{"name":"vase","coordinates":[0.4508650461832682,0.7400569279988607,0.06340324613783095,0.07467576662699381]}]}
