{"src":"https://a0.muscache.com/im/pictures/1ba6c041-50c2-454d-8adb-2036cec52f64.jpg?aki_policy=xx_large","name":"Alex","listingId":20966098,"photoId":"1125-2","tags":[{"name":"diningtable","coordinates":[0.4525641441345215,0.7148673375447591,0.26919965744018554,0.34698432286580405]},{"name":"chair","coordinates":[0.34092676639556885,0.7348704020182292,0.15081965923309326,0.34529412587483727]},{"name":"chair","coordinates":[0.5499543190002442,0.715170415242513,0.15168700218200684,0.3128236452738444]},{"name":"refrigerator","coordinates":[0.6472039699554444,0.4760350227355957,0.13136436939239501,0.3227275530497233]},{"name":"clock","coordinates":[0.2644613265991211,0.1898330052693685,0.08468396663665771,0.10683859984079996]},{"name":"microwave","coordinates":[0.7193211555480957,0.49321231842041013,0.10362056493759156,0.07587588628133138]},{"name":"pottedplant","coordinates":[0.427979564666748,0.4665314038594564,0.021211831271648406,0.036425308386484785]}]}
