{"src":"https://a0.muscache.com/im/pictures/ebf1e148-46dd-4242-b035-fe1a61f2140d.jpg?aki_policy=xx_large","name":"Alex","listingId":20966098,"photoId":"1125-0","tags":[{"name":"bed","coordinates":[0.4246074199676514,0.7001576741536458,0.5939765930175781,0.3721898078918457]},{"name":"refrigerator","coordinates":[0.9438613891601563,0.6907887776692708,0.11452542543411255,0.41049429575602214]},{"name":"pottedplant","coordinates":[0.842519474029541,0.5944976170857748,0.09580100774765014,0.10411372979482016]},{"name":"chair","coordinates":[0.5069447517395019,0.5657667795817057,0.11527583599090577,0.07237313588460287]},{"name":"bottle","coordinates":[0.08701772093772889,0.5899706522623698,0.024615874886512755,0.08541538715362548]}]}
