{"src":"https://a0.muscache.com/im/pictures/1ba6c041-50c2-454d-8adb-2036cec52f64.jpg?aki_policy=xx_large","name":"Alex","listingId":20966098,"photoId":"1125-2","tags":[{"name":"diningtable","coordinates":[0.3179643154144287,0.541375176111857,0.26919965744018554,0.34698432286580405]},{"name":"chair","coordinates":[0.2655169367790222,0.5622233390808106,0.15081965923309326,0.34529412587483727]},{"name":"chair","coordinates":[0.47411081790924076,0.5587585926055908,0.15168700218200684,0.3128236452738444]},{"name":"refrigerator","coordinates":[0.5815217852592469,0.31467124621073406,0.13136436939239501,0.3227275530497233]},{"name":"clock","coordinates":[0.22211934328079222,0.13641370534896852,0.08468396663665771,0.10683859984079996]},{"name":"microwave","coordinates":[0.6675108730792999,0.45527437527974446,0.10362056493759156,0.07587588628133138]},{"name":"pottedplant","coordinates":[0.41737364903092383,0.448318749666214,0.021211831271648406,0.036425308386484785]}]}
