{"src":"https://a0.muscache.com/im/pictures/c846d2c9-4a47-4c9c-80bd-51fa96c3bd05.jpg?aki_policy=xx_large","name":"Beautiful apartment near the beach","listingId":4349954,"photoId":"1125-2","tags":[{"name":"diningtable","coordinates":[0.8294710159301758,0.7903511047363281,0.7905556678771972,0.29942458470662436]},{"name":"chair","coordinates":[1.1658033370971679,0.794346300760905,0.5637950897216797,0.36881707509358724]},{"name":"chair","coordinates":[0.50480055809021,0.8325962702433268,0.6204591751098633,0.30492544174194336]},{"name":"chair","coordinates":[0.6567458629608154,0.667440923055013,0.2719142913818359,0.16670271555582683]},{"name":"pottedplant","coordinates":[0.08973836302757263,0.3730765342712402,0.1729703426361084,0.24096649487813313]},{"name":"pottedplant","coordinates":[0.8022407531738281,0.6858065923055013,0.1464508891105652,0.14936119715372723]},{"name":"vase","coordinates":[0.801876163482666,0.713653564453125,0.09539223313331605,0.0659533421198527]},{"name":"vase","coordinates":[1.759619903564453,0.4359628995259603,0.05727267861366272,0.038365765412648516]},{"name":"vase","coordinates":[1.831766700744629,0.4330580393473307,0.059156382083892824,0.03543042341868083]}]}
