{"src":"https://a0.muscache.com/im/pictures/ebf1e148-46dd-4242-b035-fe1a61f2140d.jpg?aki_policy=xx_large","name":"Alex","listingId":20966098,"photoId":"1125-0","tags":[{"name":"bed","coordinates":[0.12761912345886234,0.514062770207723,0.5939765930175781,0.3721898078918457]},{"name":"refrigerator","coordinates":[0.8865986764431,0.48554162979125975,0.11452542543411255,0.41049429575602214]},{"name":"pottedplant","coordinates":[0.7946189701557159,0.5424407521883646,0.09580100774765014,0.10411372979482016]},{"name":"chair","coordinates":[0.44930683374404906,0.5295802116394043,0.11527583599090577,0.07237313588460287]},{"name":"bottle","coordinates":[0.0747097834944725,0.5472629586855571,0.024615874886512755,0.08541538715362548]}]}
