{"src":"https://a0.muscache.com/im/pictures/de5f6926-38c4-4046-8828-b8ffb61db876.jpg?aki_policy=xx_large","name":"Comfy Room 3 @Trefoil Setia Alam","listingId":20971228,"photoId":"1126-8","tags":[{"name":"diningtable","coordinates":[0.49440317153930663,0.878605842590332,0.9432071685791016,0.23570063908894856]},{"name":"pottedplant","coordinates":[0.7949318408966064,0.7042853673299153,0.33911833763122556,0.2668203035990397]},{"name":"chair","coordinates":[0.331573486328125,0.7677318572998046,0.2952916383743286,0.13465142250061035]},{"name":"vase","coordinates":[0.7904468536376953,0.8523381551106771,0.12987751960754396,0.16282881100972493]},{"name":"chair","coordinates":[0.6684235572814942,0.7259766260782877,0.16935652494430542,0.12382432619730631]}]}
