{"src":"https://a0.muscache.com/im/pictures/de5f6926-38c4-4046-8828-b8ffb61db876.jpg?aki_policy=xx_large","name":"Comfy Room 3 @Trefoil Setia Alam","listingId":20971228,"photoId":"1126-8","tags":[{"name":"diningtable","coordinates":[0.022799587249755837,0.7607555230458578,0.9432071685791016,0.23570063908894856]},{"name":"pottedplant","coordinates":[0.6253726720809936,0.5708752155303954,0.33911833763122556,0.2668203035990397]},{"name":"chair","coordinates":[0.1839276671409607,0.7004061460494995,0.2952916383743286,0.13465142250061035]},{"name":"vase","coordinates":[0.7255080938339233,0.7709237496058147,0.12987751960754396,0.16282881100972493]},{"name":"chair","coordinates":[0.5837452948093415,0.6640644629796346,0.16935652494430542,0.12382432619730631]}]}
