{"src":"https://a0.muscache.com/im/pictures/36038680-27cc-4982-93c9-d323de3d5875.jpg?aki_policy=xx_large","name":"Comfy Room 3 @Trefoil Setia Alam","listingId":20971228,"photoId":"1126-5","tags":[{"name":"sofa","coordinates":[-0.011461302813361662,0.7425097227096558,0.7230512282427619,0.24641455014546712]},{"name":"diningtable","coordinates":[0.6746889563167796,0.616870911916097,0.2798852135153378,0.36243267059326173]},{"name":"chair","coordinates":[0.7091010598575368,0.6570074558258057,0.14088188620174633,0.3092506726582845]},{"name":"chair","coordinates":[0.8445786588332233,0.6592008113861083,0.13892064936020795,0.29935464859008787]},{"name":"tvmonitor","coordinates":[0.37710230771233055,0.4303784926732381,0.18739999883315142,0.14922728538513183]},{"name":"clock","coordinates":[0.658638328664443,0.1784065882364909,0.047825953539680034,0.06747763951619466]},{"name":"pottedplant","coordinates":[0.7872716426849365,0.570154349009196,0.03752103132360122,0.06836439768473307]},{"name":"cup","coordinates":[0.3995696783065796,0.6746891578038533,0.03245073486776913,0.05025318463643392]},{"name":"vase","coordinates":[0.19177851676940919,0.6043511052926381,0.021008351269890282,0.0479724923769633]},{"name":"vase","coordinates":[0.7920508623123168,0.6102449874083201,0.02495122516856474,0.03998124202092489]}]}
