{"src":"https://a0.muscache.com/im/pictures/55149032/d21edb40_original.jpg?aki_policy=xx_large","name":"TheHagueMansion City&amp;Beach TopFloor","listingId":4390885,"photoId":"1128-0","tags":[{"name":"bed","coordinates":[0.2763608084784614,0.838054084777832,0.5617057800292968,0.2939117113749186]},{"name":"diningtable","coordinates":[0.7855444166395399,0.8181519826253255,0.2502014372083876,0.350912602742513]},{"name":"chair","coordinates":[0.673707538180881,0.81372496287028,0.11754073037041558,0.34516900380452475]},{"name":"bowl","coordinates":[0.8055918375651042,0.6817699432373047,0.07981495327419705,0.08026649951934814]},{"name":"cup","coordinates":[0.7419544643825955,0.6856742223103841,0.02827708191341824,0.05731587807337443]}]}
