{"src":"https://a0.muscache.com/im/pictures/f8cdf5eb-f8b9-4008-8ba9-83d1f310f43d.jpg?aki_policy=xx_large","name":"西海岸假日海滩贵族游艇会附近-近海恬谧小别墅园景房","listingId":20976283,"photoId":"1128-6","tags":[{"name":"diningtable","coordinates":[-0.03468941582573781,0.6875957171122233,0.9594320509168837,0.29724483489990233]},{"name":"microwave","coordinates":[0.49286176893446176,0.4658015330632528,0.18784128824869792,0.1447545846303304]},{"name":"oven","coordinates":[0.11499775250752767,0.5740343729654948,0.124238830142551,0.17166900634765625]},{"name":"chair","coordinates":[0.6346624268425836,0.7232700228691101,0.16864359113905164,0.11724245548248291]},{"name":"chair","coordinates":[0.46661099857754174,0.6914882938067118,0.13543348312377929,0.08807990550994874]},{"name":"cup","coordinates":[0.1821250769827101,0.7361044049263,0.03959480656517877,0.07835500240325928]},{"name":"cup","coordinates":[0.3454086740811666,0.6795119841893514,0.0326240513059828,0.07801267306009928]},{"name":"bottle","coordinates":[0.09627534415986802,0.21109020312627155,0.024758076667785643,0.09089930057525634]},{"name":"bottle","coordinates":[0.05893301169077555,0.21494622230529783,0.018544541464911565,0.09270648956298828]},{"name":"bottle","coordinates":[0.07818286021550497,0.21581387917200723,0.0179520845413208,0.09206125736236573]},{"name":"bottle","coordinates":[0.039855154355367024,0.21349258025487264,0.017537291844685873,0.09179704189300537]},{"name":"bottle","coordinates":[0.0200962762037913,0.21492883364359539,0.01820034318500095,0.08496421178181966]},{"name":"bottle","coordinates":[0.002091356118520101,0.21568695704142252,0.01391324069764879,0.08222888310750326]},{"name":"bottle","coordinates":[0.15656319128142465,0.25712833801905316,0.01739679045147366,0.04631009896596273]}]}
