{"src":"https://a0.muscache.com/im/pictures/f8cdf5eb-f8b9-4008-8ba9-83d1f310f43d.jpg?aki_policy=xx_large","name":"西海岸假日海滩贵族游艇会附近-近海恬谧小别墅园景房","listingId":20976283,"photoId":"1128-6","tags":[{"name":"diningtable","coordinates":[0.445026609632704,0.8362181345621745,0.9594320509168837,0.29724483489990233]},{"name":"microwave","coordinates":[0.5867824130588107,0.538178825378418,0.18784128824869792,0.1447545846303304]},{"name":"oven","coordinates":[0.17711716757880316,0.6598688761393229,0.124238830142551,0.17166900634765625]},{"name":"chair","coordinates":[0.7189842224121094,0.7818912506103516,0.16864359113905164,0.11724245548248291]},{"name":"chair","coordinates":[0.5343277401394314,0.7355282465616862,0.13543348312377929,0.08807990550994874]},{"name":"cup","coordinates":[0.2019224802652995,0.7752819061279297,0.03959480656517877,0.07835500240325928]},{"name":"cup","coordinates":[0.361720699734158,0.718518320719401,0.0326240513059828,0.07801267306009928]},{"name":"bottle","coordinates":[0.10865438249376085,0.25653985341389973,0.024758076667785643,0.09089930057525634]},{"name":"bottle","coordinates":[0.06820528242323133,0.26129946708679197,0.018544541464911565,0.09270648956298828]},{"name":"bottle","coordinates":[0.08715890248616537,0.2618445078531901,0.0179520845413208,0.09206125736236573]},{"name":"bottle","coordinates":[0.04862380027770996,0.2593911012013753,0.017537291844685873,0.09179704189300537]},{"name":"bottle","coordinates":[0.029196447796291776,0.2574109395345052,0.01820034318500095,0.08496421178181966]},{"name":"bottle","coordinates":[0.009047976467344496,0.25680139859517415,0.01391324069764879,0.08222888310750326]},{"name":"bottle","coordinates":[0.16526158650716147,0.2802833875020345,0.01739679045147366,0.04631009896596273]}]}
