{"src":"https://a0.muscache.com/im/pictures/82f5ad94-a673-4e54-8791-6259a3540d1d.jpg?aki_policy=xx_large","name":"FANTASTIC FLATS WITH SWIMMING POOL","listingId":21001950,"photoId":"1132-2","tags":[{"name":"chair","coordinates":[0.13283036549886068,0.860917599995931,0.2552243338690864,0.2585352102915446]},{"name":"sink","coordinates":[0.3791012658013238,0.6412253061930339,0.08503432273864746,0.0483000636100769]},{"name":"cup","coordinates":[0.20678041246202256,0.6524882634480794,0.04859470261467828,0.07972836494445801]},{"name":"cup","coordinates":[0.08895643022325304,0.6629632949829102,0.058895206451416014,0.0501351277033488]},{"name":"knife","coordinates":[0.4391948699951172,0.5135561307271321,0.012165578206380208,0.04732123613357544]},{"name":"knife","coordinates":[0.4389715830485026,0.5348650614420573,0.009601973162757026,0.03568321466445923]}]}
