{"src":"https://a0.muscache.com/im/pictures/56695287/8e6c5485_original.jpg?aki_policy=xx_large","name":"Beach appartment with rooftop","listingId":4515375,"photoId":"1134-1","tags":[{"name":"diningtable","coordinates":[0.49468135833740234,0.6195723851521809,0.16921567916870117,0.22969675064086914]},{"name":"chair","coordinates":[0.5552342414855957,0.6116032918294271,0.07646093368530274,0.21014904975891113]},{"name":"pottedplant","coordinates":[0.6835374355316162,0.5886452356974284,0.08052253723144531,0.18633147875467937]},{"name":"book","coordinates":[0.6191758155822754,0.4685312906901042,0.005892874673008919,0.049299355347951254]},{"name":"book","coordinates":[0.5902729511260987,0.4660505294799805,0.006346919387578964,0.04183783531188965]},{"name":"book","coordinates":[0.6056794166564942,0.46735429763793945,0.005832700431346894,0.04384732246398926]}]}
