{"src":"https://a0.muscache.com/im/pictures/a6ae7c3f-7dd7-408e-9471-e83b71df30aa.jpg?aki_policy=xx_large","name":"VICTOR &amp; VICTORY VINEYARD REST HOUSE (VVV*****)","listingId":21018779,"photoId":"1135-3","tags":[{"name":"chair","coordinates":[0.8166314019097223,0.6407105127970377,0.34891158209906686,0.6228199005126953]},{"name":"sofa","coordinates":[0.8166314019097223,0.6407105127970377,0.34891158209906686,0.6228199005126953]},{"name":"sofa","coordinates":[0.22137843237982857,0.598307991027832,0.4186737060546875,0.49357166290283205]},{"name":"chair","coordinates":[0.18427554236518012,0.8526779810587565,0.37803721957736547,0.30018272399902346]},{"name":"diningtable","coordinates":[0.48619486490885416,0.7300448735555013,0.24438535902235242,0.31711165110270184]},{"name":"tvmonitor","coordinates":[0.6375265757242838,0.25932064056396487,0.14694635603162978,0.1582004388173421]},{"name":"person","coordinates":[0.6473108079698351,0.2629390716552734,0.08709663285149469,0.118361496925354]},{"name":"vase","coordinates":[0.567262225680881,0.42955443064371746,0.020656267801920574,0.0742985725402832]}]}
