{"src":"https://a0.muscache.com/im/pictures/a6ae7c3f-7dd7-408e-9471-e83b71df30aa.jpg?aki_policy=xx_large","name":"VICTOR &amp; VICTORY VINEYARD REST HOUSE (VVV*****)","listingId":21018779,"photoId":"1135-3","tags":[{"name":"chair","coordinates":[0.6421756108601888,0.32930056254069007,0.34891158209906686,0.6228199005126953]},{"name":"sofa","coordinates":[0.6421756108601888,0.32930056254069007,0.34891158209906686,0.6228199005126953]},{"name":"sofa","coordinates":[0.012041579352484816,0.351522159576416,0.4186737060546875,0.49357166290283205]},{"name":"chair","coordinates":[-0.004743067423502612,0.7025866190592447,0.37803721957736547,0.30018272399902346]},{"name":"diningtable","coordinates":[0.3640021853976779,0.5714890480041503,0.24438535902235242,0.31711165110270184]},{"name":"tvmonitor","coordinates":[0.564053397708469,0.1802204211552938,0.14694635603162978,0.1582004388173421]},{"name":"person","coordinates":[0.6037624915440878,0.2037583231925964,0.08709663285149469,0.118361496925354]},{"name":"vase","coordinates":[0.5569340917799207,0.3924051443735759,0.020656267801920574,0.0742985725402832]}]}
