{"src":"https://a0.muscache.com/im/pictures/f594755d-cac1-44ed-a8e2-b8528eff2eab.jpg?aki_policy=xx_large","name":"Room # 2 \nSpacious Private Room W TV by LAX","listingId":21030513,"photoId":"1136-4","tags":[{"name":"refrigerator","coordinates":[0.0368420124053955,-0.01134103139241538,0.433426570892334,1.0418512980143229]},{"name":"diningtable","coordinates":[0.4735811710357666,0.609245236714681,0.5434775352478027,0.37754249572753906]},{"name":"chair","coordinates":[0.7606930732727051,0.7388855934143067,0.2312023162841797,0.2641059239705404]},{"name":"chair","coordinates":[0.5482242345809937,0.6619130611419678,0.15304083824157716,0.33807026545206703]},{"name":"chair","coordinates":[0.7145277202129364,0.5806912938753763,0.14098345041275023,0.11340569655100505]},{"name":"wine-glass","coordinates":[0.753196656703949,0.5852848291397095,0.07047417163848876,0.17896444002787273]},{"name":"chair","coordinates":[0.9491802006959915,0.6169331868489584,0.051333087682724,0.10853385925292969]},{"name":"clock","coordinates":[0.6163631916046143,0.015007984638214115,0.04752779006958008,0.10867577393849691]},{"name":"wine-glass","coordinates":[0.839063124358654,0.5868398427963256,0.03585423529148102,0.14340303738911947]},{"name":"wine-glass","coordinates":[0.7809829592704773,0.6215572913487752,0.036885762214660646,0.1303280035654704]},{"name":"vase","coordinates":[0.6372646942734719,0.5818044424057006,0.04207980334758758,0.10690121650695801]}]}
