{"src":"https://a0.muscache.com/im/pictures/f6b97618-4f81-4cc6-82fc-c0738db590bd.jpg?aki_policy=xx_large","name":"Room # 2 \nSpacious Private Room W TV by LAX","listingId":21030513,"photoId":"1136-7","tags":[{"name":"sofa","coordinates":[0.15413324832916264,0.449127991994222,0.693472146987915,0.5402711868286133]},{"name":"diningtable","coordinates":[0.3782614827156067,0.28359341621398926,0.23244616985321045,0.26811997095743817]},{"name":"chair","coordinates":[0.3593974083662033,0.2904914220174154,0.08625155091285705,0.27325369517008463]},{"name":"chair","coordinates":[0.561897623538971,0.27581421534220374,0.0754652738571167,0.20958983103434245]},{"name":"pottedplant","coordinates":[0.7251685053110123,0.29623014926910396,0.08288690447807312,0.17528777122497557]},{"name":"chair","coordinates":[0.5987704575061799,0.27140421072642007,0.04911550283432007,0.20731371243794758]},{"name":"chair","coordinates":[0.41594327092170713,0.26971618135770165,0.04637521505355835,0.058232406775156655]},{"name":"vase","coordinates":[0.519335775077343,0.25558836062749224,0.020495548844337463,0.052269514401753744]}]}
