{"src":"https://a0.muscache.com/im/pictures/1b4b4ea6-a76a-4669-b2d5-5f7167d0657a.jpg?aki_policy=xx_large","name":"Room # 2 \nSpacious Private Room W TV by LAX","listingId":21030513,"photoId":"1136-6","tags":[{"name":"diningtable","coordinates":[0.4626631842719184,0.5918766657511393,0.9816581726074218,0.8565800348917644]},{"name":"chair","coordinates":[0.8724546644422743,0.29854402542114256,0.15007126066419813,0.30477558771769203]},{"name":"chair","coordinates":[0.10337243609958224,0.3275025685628255,0.17015784581502277,0.26857086817423503]},{"name":"chair","coordinates":[0.928356679280599,0.6262789408365885,0.1414628028869629,0.24788115819295248]},{"name":"chair","coordinates":[0.05464015536838108,0.6011898676554362,0.11877352396647135,0.2656063715616862]},{"name":"wine-glass","coordinates":[0.35114309522840714,0.4187513033548991,0.12794987360636392,0.1537426789601644]},{"name":"wine-glass","coordinates":[0.6209195454915365,0.4287735939025879,0.11745619244045681,0.16575563748677571]},{"name":"bottle","coordinates":[0.48335859510633683,0.4100802739461263,0.07383353975084093,0.17564595540364583]},{"name":"vase","coordinates":[0.5144689771864149,0.2191109339396159,0.10195948282877604,0.11520568529764812]},{"name":"cell-phone","coordinates":[0.48644082811143663,0.5425048828125,0.12040412690904405,0.06277414560317993]}]}
