{"src":"https://a0.muscache.com/im/pictures/f6b97618-4f81-4cc6-82fc-c0738db590bd.jpg?aki_policy=xx_large","name":"Room # 2 \nSpacious Private Room W TV by LAX","listingId":21030513,"photoId":"1136-7","tags":[{"name":"sofa","coordinates":[0.5008693218231202,0.7192635854085286,0.693472146987915,0.5402711868286133]},{"name":"diningtable","coordinates":[0.49448456764221194,0.4176534016927083,0.23244616985321045,0.26811997095743817]},{"name":"chair","coordinates":[0.40252318382263186,0.4271182696024577,0.08625155091285705,0.27325369517008463]},{"name":"chair","coordinates":[0.5996302604675293,0.380609130859375,0.0754652738571167,0.20958983103434245]},{"name":"pottedplant","coordinates":[0.7666119575500489,0.3838740348815918,0.08288690447807312,0.17528777122497557]},{"name":"chair","coordinates":[0.6233282089233398,0.3750610669453939,0.04911550283432007,0.20731371243794758]},{"name":"chair","coordinates":[0.4391308784484863,0.29883238474527996,0.04637521505355835,0.058232406775156655]},{"name":"vase","coordinates":[0.5295835494995117,0.2817231178283691,0.020495548844337463,0.052269514401753744]}]}
