{"src":"https://a0.muscache.com/im/pictures/f594755d-cac1-44ed-a8e2-b8528eff2eab.jpg?aki_policy=xx_large","name":"Room # 2 \nSpacious Private Room W TV by LAX","listingId":21030513,"photoId":"1136-4","tags":[{"name":"refrigerator","coordinates":[0.2535552978515625,0.509584617614746,0.433426570892334,1.0418512980143229]},{"name":"diningtable","coordinates":[0.745319938659668,0.7980164845784505,0.5434775352478027,0.37754249572753906]},{"name":"chair","coordinates":[0.8762942314147949,0.8709385553995769,0.2312023162841797,0.2641059239705404]},{"name":"chair","coordinates":[0.6247446537017822,0.8309481938680013,0.15304083824157716,0.33807026545206703]},{"name":"chair","coordinates":[0.7850194454193116,0.6373941421508789,0.14098345041275023,0.11340569655100505]},{"name":"wine-glass","coordinates":[0.7884337425231933,0.6747670491536458,0.07047417163848876,0.17896444002787273]},{"name":"chair","coordinates":[0.9748467445373535,0.6712001164754232,0.051333087682724,0.10853385925292969]},{"name":"clock","coordinates":[0.6401270866394043,0.06934587160746257,0.04752779006958008,0.10867577393849691]},{"name":"wine-glass","coordinates":[0.8569902420043946,0.6585413614908854,0.03585423529148102,0.14340303738911947]},{"name":"wine-glass","coordinates":[0.7994258403778076,0.6867212931315104,0.036885762214660646,0.1303280035654704]},{"name":"vase","coordinates":[0.6583045959472656,0.6352550506591796,0.04207980334758758,0.10690121650695801]}]}
