{"src":"https://a0.muscache.com/im/pictures/1b4b4ea6-a76a-4669-b2d5-5f7167d0657a.jpg?aki_policy=xx_large","name":"Room # 2 \nSpacious Private Room W TV by LAX","listingId":21030513,"photoId":"1136-6","tags":[{"name":"diningtable","coordinates":[-0.028165902031792533,0.1635866483052571,0.9816581726074218,0.8565800348917644]},{"name":"chair","coordinates":[0.7974190341101752,0.14615623156229654,0.15007126066419813,0.30477558771769203]},{"name":"chair","coordinates":[0.018293513192070857,0.19321713447570799,0.17015784581502277,0.26857086817423503]},{"name":"chair","coordinates":[0.8576252778371175,0.5023383617401123,0.1414628028869629,0.24788115819295248]},{"name":"chair","coordinates":[-0.004746606614854598,0.46838668187459315,0.11877352396647135,0.2656063715616862]},{"name":"wine-glass","coordinates":[0.2871681584252252,0.3418799638748169,0.12794987360636392,0.1537426789601644]},{"name":"wine-glass","coordinates":[0.562191449271308,0.34589577515920006,0.11745619244045681,0.16575563748677571]},{"name":"bottle","coordinates":[0.44644182523091636,0.3222572962443034,0.07383353975084093,0.17564595540364583]},{"name":"vase","coordinates":[0.46348923577202694,0.16150809129079183,0.10195948282877604,0.11520568529764812]},{"name":"cell-phone","coordinates":[0.4262387646569146,0.5111178100109101,0.12040412690904405,0.06277414560317993]}]}
