{"src":"https://a0.muscache.com/im/pictures/3290fd17-bdb4-4bc9-bc77-623eccd29c99.jpg?aki_policy=xx_large","name":"**tropical roof**","listingId":21034785,"photoId":"1138-3","tags":[{"name":"bench","coordinates":[1.557432386610243,0.5807043711344401,0.843979729546441,0.5679560343424479]},{"name":"pottedplant","coordinates":[0.4337930467393663,0.47291720708211266,0.8052704705132379,0.32535651524861653]},{"name":"bench","coordinates":[1.320337422688802,0.2715206782023112,0.5140755971272787,0.34112024307250977]},{"name":"bench","coordinates":[0.9852239820692275,0.4082525889078776,0.4472277323404948,0.3302529017130534]},{"name":"diningtable","coordinates":[0.9852239820692275,0.4082525889078776,0.4472277323404948,0.3302529017130534]},{"name":"chair","coordinates":[0.7608656141493055,0.23789739608764648,0.2724755605061849,0.2082964261372884]}]}
