{"src":"https://a0.muscache.com/im/pictures/3290fd17-bdb4-4bc9-bc77-623eccd29c99.jpg?aki_policy=xx_large","name":"**tropical roof**","listingId":21034785,"photoId":"1138-3","tags":[{"name":"bench","coordinates":[0.7787161933051215,0.5807043711344401,0.4219898647732205,0.5679560343424479]},{"name":"pottedplant","coordinates":[0.21689652336968315,0.47291720708211266,0.40263523525661893,0.32535651524861653]},{"name":"bench","coordinates":[0.660168711344401,0.2715206782023112,0.25703779856363934,0.34112024307250977]},{"name":"bench","coordinates":[0.4926119910346137,0.4082525889078776,0.2236138661702474,0.3302529017130534]},{"name":"diningtable","coordinates":[0.4926119910346137,0.4082525889078776,0.2236138661702474,0.3302529017130534]},{"name":"chair","coordinates":[0.38043280707465277,0.23789739608764648,0.13623778025309244,0.2082964261372884]}]}
