{"src":"https://a0.muscache.com/im/pictures/0ab0b144-afe3-498a-8eae-4c23949362a4.jpg?aki_policy=xx_large","name":"Studio Room-Kitchenette/TV/Bath/Wifi/opp Park","listingId":21038301,"photoId":"1139-1","tags":[{"name":"sofa","coordinates":[0.12029205958048503,0.629890505472819,0.21902094946967232,0.2726424217224121]},{"name":"chair","coordinates":[0.0671197944217258,0.8306762059529622,0.1301002926296658,0.32826048533121743]},{"name":"chair","coordinates":[0.48316082424587675,0.5669026692708333,0.1165461434258355,0.22965044975280763]},{"name":"chair","coordinates":[0.7763812594943577,0.6296272913614909,0.11630788379245334,0.21001272201538085]},{"name":"microwave","coordinates":[0.4037483215332031,0.33025185267130536,0.10524470011393229,0.13404088020324706]},{"name":"tvmonitor","coordinates":[0.4037483215332031,0.33025185267130536,0.10524470011393229,0.13404088020324706]},{"name":"bottle","coordinates":[0.14626175562540691,0.6375800450642903,0.014930600590176053,0.066023317972819]},{"name":"vase","coordinates":[0.6426488240559896,0.48263572057088217,0.022846955723232695,0.043132348855336504]}]}
