{"src":"https://a0.muscache.com/im/pictures/0ab0b144-afe3-498a-8eae-4c23949362a4.jpg?aki_policy=xx_large","name":"Studio Room-Kitchenette/TV/Bath/Wifi/opp Park","listingId":21038301,"photoId":"1139-1","tags":[{"name":"sofa","coordinates":[0.010781584845648867,0.4935692946116129,0.21902094946967232,0.2726424217224121]},{"name":"chair","coordinates":[0.0020696481068929046,0.6665459632873535,0.1301002926296658,0.32826048533121743]},{"name":"chair","coordinates":[0.424887752532959,0.45207744439442954,0.1165461434258355,0.22965044975280763]},{"name":"chair","coordinates":[0.718227317598131,0.5246209303538004,0.11630788379245334,0.21001272201538085]},{"name":"microwave","coordinates":[0.351125971476237,0.26323141256968186,0.10524470011393229,0.13404088020324706]},{"name":"tvmonitor","coordinates":[0.351125971476237,0.26323141256968186,0.10524470011393229,0.13404088020324706]},{"name":"bottle","coordinates":[0.1387964553303189,0.6045683860778809,0.014930600590176053,0.066023317972819]},{"name":"vase","coordinates":[0.6312253461943732,0.46106954614321394,0.022846955723232695,0.043132348855336504]}]}
