{"src":"https://a0.muscache.com/im/pictures/9f51dee2-4c66-442a-8526-0bb24503b7a6.jpg?aki_policy=xx_large","name":"Luxe Brand New Apt. Near The Hague","listingId":12531184,"photoId":"114-4","tags":[{"name":"chair","coordinates":[0.32559454176161023,0.7644737243652344,0.3898138258192274,0.4616971015930176]},{"name":"chair","coordinates":[0.5067429436577691,0.7101483662923177,0.1874856736924913,0.4304859479268392]},{"name":"refrigerator","coordinates":[0.7104806688096789,0.5850497563680013,0.1470052719116211,0.4229762077331543]},{"name":"pottedplant","coordinates":[0.718621571858724,0.22265884081522624,0.16565299563937716,0.23886281649271648]},{"name":"vase","coordinates":[0.7204357571072049,0.3181593577067057,0.05833301014370389,0.06548937559127807]}]}
