{"src":"https://a0.muscache.com/im/pictures/07e7f5d1-81c8-4f0d-9a3c-4a8a8a138c60.jpg?aki_policy=xx_large","name":"PORT ELIZABETH -  COUNTRY GETAWAY DEER PARK A","listingId":21047174,"photoId":"1141-2","tags":[{"name":"bed","coordinates":[0.5084669748942058,0.7431687037150065,0.9681215074327257,0.40869674682617185]},{"name":"tvmonitor","coordinates":[0.18167472415500216,0.17894325256347657,0.10358987384372287,0.15978922843933105]},{"name":"pottedplant","coordinates":[0.36271430121527776,0.47403440475463865,0.04604297743903266,0.07684886455535889]},{"name":"vase","coordinates":[0.36080250210232206,0.48415180842081706,0.02281207243601481,0.04247971773147583]},{"name":"vase","coordinates":[0.4374276902940538,0.4464480717976888,0.020354596773783366,0.04660085042317708]},{"name":"cup","coordinates":[0.16623004277547201,0.5638384501139323,0.01891917520099216,0.04805672963460286]}]}
