{"src":"https://a0.muscache.com/im/pictures/eae89582-21f0-46eb-98d3-84c687cd8b51.jpg?aki_policy=xx_large","name":"Luxury Spacious  Apartment  in Delft Old Centre.","listingId":4608772,"photoId":"1141-4","tags":[{"name":"pottedplant","coordinates":[0.5292512896329538,0.3555200258890788,0.3130156367146753,0.5680575688680013]},{"name":"sofa","coordinates":[0.8889200902946801,0.4173844337463379,0.22663378549716404,0.6605836868286132]},{"name":"chair","coordinates":[0.8889200902946801,0.4173844337463379,0.22663378549716404,0.6605836868286132]},{"name":"pottedplant","coordinates":[0.13846123367755236,0.4898442586263021,0.16820812623258757,0.38497479756673175]},{"name":"pottedplant","coordinates":[0.29607494285275776,0.5388522466023763,0.15161046862436436,0.29459670384724934]},{"name":"tvmonitor","coordinates":[0.027396951497678797,0.13593745231628418,0.0488234561076582,0.2718217213948568]},{"name":"vase","coordinates":[0.5423302153055459,0.3948187510172526,0.07352614104333276,0.1385564645131429]}]}
