{"src":"https://a0.muscache.com/im/pictures/07e7f5d1-81c8-4f0d-9a3c-4a8a8a138c60.jpg?aki_policy=xx_large","name":"PORT ELIZABETH -  COUNTRY GETAWAY DEER PARK A","listingId":21047174,"photoId":"1141-4","tags":[{"name":"bed","coordinates":[0.024406221177842913,0.5388203303019206,0.9681215074327257,0.40869674682617185]},{"name":"tvmonitor","coordinates":[0.12987978723314073,0.09904863834381104,0.10358987384372287,0.15978922843933105]},{"name":"pottedplant","coordinates":[0.33969281249576144,0.4356099724769592,0.04604297743903266,0.07684886455535889]},{"name":"vase","coordinates":[0.34939646588431467,0.46291194955507914,0.02281207243601481,0.04247971773147583]},{"name":"vase","coordinates":[0.42725039190716213,0.42314764658610027,0.020354596773783366,0.04660085042317708]},{"name":"cup","coordinates":[0.15677045517497593,0.5398100852966309,0.01891917520099216,0.04805672963460286]}]}
