{"src":"https://a0.muscache.com/im/pictures/41ae6717-a395-4b55-b0dd-aa7bb8a430ed.jpg?aki_policy=xx_large","name":"Кожевенная 26","listingId":21052099,"photoId":"1144-4","tags":[{"name":"tvmonitor","coordinates":[0.19880298513696323,0.19256709416707357,0.16504104677924528,0.2982548077901204]},{"name":"diningtable","coordinates":[0.6696373696784814,0.6569974263509114,0.15429994161337904,0.28691911697387695]},{"name":"chair","coordinates":[0.7831039747044506,0.6607461293538411,0.11408312164858418,0.2916952768961589]},{"name":"oven","coordinates":[0.3411931447757302,0.6592140197753906,0.09100781097199886,0.30208024978637693]},{"name":"microwave","coordinates":[0.4299422092994828,0.30499080022176106,0.12309698070372262,0.1811402479807536]},{"name":"chair","coordinates":[0.6037944427617568,0.5978959401448568,0.08014923541370121,0.2357271671295166]},{"name":"microwave","coordinates":[0.44546466344586666,0.48363348642985027,0.0721991516452837,0.051166168848673504]}]}
