{"src":"https://a0.muscache.com/im/pictures/41ae6717-a395-4b55-b0dd-aa7bb8a430ed.jpg?aki_policy=xx_large","name":"Кожевенная 26","listingId":21052099,"photoId":"1144-4","tags":[{"name":"tvmonitor","coordinates":[0.1162824617473406,0.04343969027201336,0.16504104677924528,0.2982548077901204]},{"name":"diningtable","coordinates":[0.5924873988717919,0.5135378678639729,0.15429994161337904,0.28691911697387695]},{"name":"chair","coordinates":[0.7260624138801585,0.5148984909057617,0.11408312164858418,0.2916952768961589]},{"name":"oven","coordinates":[0.2956892392897308,0.5081738948822021,0.09100781097199886,0.30208024978637693]},{"name":"microwave","coordinates":[0.36839371894762146,0.21442067623138428,0.12309698070372262,0.1811402479807536]},{"name":"chair","coordinates":[0.5637198250549061,0.4800323565800985,0.08014923541370121,0.2357271671295166]},{"name":"microwave","coordinates":[0.4093650876232248,0.4580504020055135,0.0721991516452837,0.051166168848673504]}]}
