{"src":"https://a0.muscache.com/im/pictures/f33e0c3b-7561-49ad-8731-1bd3c6008c7b.jpg?aki_policy=xx_large","name":"大落地玻璃窗看海50平方大带厨房","listingId":21061202,"photoId":"1147-5","tags":[{"name":"sofa","coordinates":[0.1641388416290283,0.5075267473856607,0.6486916542053223,0.456028683980306]},{"name":"refrigerator","coordinates":[-0.004242086410522469,0.3231603940327963,0.24370346069335938,0.5879985173543294]},{"name":"sofa","coordinates":[0.8796001851558685,0.4443582693735758,0.11532393693923951,0.4903662045796712]},{"name":"pottedplant","coordinates":[0.6669474184513092,0.41126964092254636,0.13490771055221557,0.21205525398254393]},{"name":"vase","coordinates":[0.6999582588672638,0.5087262709935506,0.056120526790618894,0.11658256848653158]}]}
