{"src":"https://a0.muscache.com/im/pictures/f33e0c3b-7561-49ad-8731-1bd3c6008c7b.jpg?aki_policy=xx_large","name":"大落地玻璃窗看海50平方大带厨房","listingId":21061202,"photoId":"1147-5","tags":[{"name":"sofa","coordinates":[0.48848466873168944,0.7355410893758138,0.6486916542053223,0.456028683980306]},{"name":"refrigerator","coordinates":[0.11760964393615722,0.617159652709961,0.24370346069335938,0.5879985173543294]},{"name":"sofa","coordinates":[0.9372621536254883,0.6895413716634115,0.11532393693923951,0.4903662045796712]},{"name":"pottedplant","coordinates":[0.734401273727417,0.5172972679138184,0.13490771055221557,0.21205525398254393]},{"name":"vase","coordinates":[0.7280185222625732,0.5670175552368164,0.056120526790618894,0.11658256848653158]}]}
