{"src":"https://a0.muscache.com/im/pictures/f4e9c634-ec0d-4970-b887-c37744843088.jpg?aki_policy=xx_large","name":"大落地玻璃窗看海50平方大带厨房","listingId":21061202,"photoId":"1147-5","tags":[{"name":"diningtable","coordinates":[0.3694026947021484,0.8177217483520508,0.6844853719075521,0.4044226328531901]},{"name":"pottedplant","coordinates":[0.398844846089681,0.5171756108601888,0.35242929458618166,0.34196459452311195]},{"name":"vase","coordinates":[0.39269564946492513,0.6014198939005534,0.14978442192077637,0.2535708904266357]},{"name":"bowl","coordinates":[0.3828253746032715,0.8193766911824544,0.14826645851135253,0.10508778095245361]},{"name":"knife","coordinates":[0.43879098892211915,0.9169089635213216,0.08196796576182047,0.16393574078877768]},{"name":"cup","coordinates":[0.3901877721150716,0.6852499643961588,0.07926846345265706,0.11965519587198893]}]}
