{"src":"https://a0.muscache.com/im/pictures/8e7e23f8-74b4-42da-ab5a-0ee940aaa8a8.jpg?aki_policy=xx_large","name":"大落地玻璃窗看海50平方大带厨房","listingId":21061202,"photoId":"1147-3","tags":[{"name":"diningtable","coordinates":[0.19282989501953124,0.6588631312052409,0.6589768091837566,0.3327988942464193]},{"name":"pottedplant","coordinates":[0.6304944515228272,0.5138243198394775,0.19921401341756184,0.2452845573425293]},{"name":"vase","coordinates":[0.6854127009709676,0.6149791399637858,0.08471887906392415,0.13787593841552734]},{"name":"bowl","coordinates":[0.4034803668657939,0.747916022936503,0.08156548341115316,0.05803046226501465]},{"name":"bowl","coordinates":[0.4998994588851929,0.7285208980242411,0.08289697964986166,0.05572485129038493]},{"name":"bowl","coordinates":[0.6374689221382142,0.7183509985605876,0.0801214615503947,0.056485716501871744]}]}
