{"src":"https://a0.muscache.com/im/pictures/61715591/91a24450_original.jpg?aki_policy=xx_large","name":"This Studio","listingId":4921792,"photoId":"1148-3","tags":[{"name":"diningtable","coordinates":[0.4234330919053819,0.6320777257283529,0.2933361265394423,0.2895420710245768]},{"name":"chair","coordinates":[0.19703214433458116,0.7121388753255208,0.15312105814615887,0.3097685813903809]},{"name":"pottedplant","coordinates":[0.062060038248697914,0.16788439750671386,0.11681326760186089,0.11949983437856039]},{"name":"microwave","coordinates":[0.23762041727701824,0.45980602900187173,0.05985143979390462,0.0719302495320638]},{"name":"book","coordinates":[0.10424657397800022,0.4006821950276693,0.03359399636586507,0.016825373967488608]}]}
