{"src":"https://a0.muscache.com/im/pictures/61715624/5f1876f9_original.jpg?aki_policy=xx_large","name":"This Studio","listingId":4921792,"photoId":"1148-2","tags":[{"name":"chair","coordinates":[0.17365524503919813,0.8118788401285807,0.26512345208062066,0.359597905476888]},{"name":"chair","coordinates":[0.24836347368028427,0.7071275075276693,0.2314390606350369,0.2836798985799154]},{"name":"tvmonitor","coordinates":[0.5470716264512804,0.4073225975036621,0.22625066969129776,0.1810961405436198]},{"name":"pottedplant","coordinates":[0.8318516201443142,0.07743404706319174,0.14417084587944878,0.14271691640218098]},{"name":"pottedplant","coordinates":[0.333052847120497,0.35995667775472007,0.08165770106845432,0.20952014923095702]},{"name":"clock","coordinates":[0.3359670850965712,0.20605680147806804,0.04534628656175402,0.06246917247772217]},{"name":"book","coordinates":[0.9741850111219618,0.45459124247233074,0.0520935853322347,0.02211857239405314]},{"name":"book","coordinates":[0.9744260152180989,0.4858830134073893,0.05492564837137858,0.015963935852050783]},{"name":"book","coordinates":[0.8890679253472222,0.3446994145711263,0.056077898873223196,0.015236101547876994]},{"name":"book","coordinates":[0.8919808281792535,0.3663063049316406,0.0566162109375,0.013276442885398865]}]}
