{"src":"https://a0.muscache.com/im/pictures/7e7883a1-d3f0-4a5b-ae19-d93cbc244274.jpg?aki_policy=xx_large","name":"Penthouse in Songdoâ˜† Subway 3min / Cozy House","listingId":21098117,"photoId":"1154-4","tags":[{"name":"bed","coordinates":[0.810508304172092,0.83827330271403,0.37059482998318144,0.29924306869506834]},{"name":"tvmonitor","coordinates":[0.2705660502115885,0.5077602386474609,0.26154041290283203,0.24094794591267904]},{"name":"pottedplant","coordinates":[0.4830730438232422,0.5397328694661458,0.06715572145250108,0.1726414998372396]},{"name":"pottedplant","coordinates":[0.5929577297634548,0.30125258763631185,0.04214615027109782,0.09898801644643147]},{"name":"vase","coordinates":[0.5932210710313585,0.3309389432271322,0.017498003111945257,0.03796759049097697]}]}
