{"src":"https://a0.muscache.com/im/pictures/3baaa49f-ce8d-4715-95b0-6e233b8a174d.jpg?aki_policy=xx_large","name":"Family home in central Delft &amp; garage and bikes","listingId":4990314,"photoId":"1154-0","tags":[{"name":"diningtable","coordinates":[0.39973201751708987,0.8037829717000325,0.3540980815887451,0.3875223477681478]},{"name":"chair","coordinates":[0.9354927062988281,0.8312754948933919,0.37755694389343264,0.309876283009847]},{"name":"chair","coordinates":[0.5285032272338868,0.8007240295410156,0.22195162773132324,0.425412654876709]},{"name":"chair","coordinates":[0.3288456678390503,0.765948486328125,0.15600186586380005,0.4154794375101725]},{"name":"chair","coordinates":[0.13991470336914064,0.6799539566040039,0.1431096911430359,0.27227837244669595]},{"name":"tvmonitor","coordinates":[0.2543860197067261,0.3528055508931478,0.12823958396911622,0.1419873078664144]},{"name":"pottedplant","coordinates":[0.568715763092041,0.5454455057779948,0.07129501700401306,0.1689070224761963]},{"name":"chair","coordinates":[0.42524032592773436,0.5941883087158203,0.07320370078086853,0.10020008087158203]},{"name":"clock","coordinates":[0.09059893488883972,0.2956499417622884,0.05401145219802857,0.05944332679112752]},{"name":"vase","coordinates":[0.5698304653167725,0.5947731018066407,0.025631254911422728,0.060954749584198]}]}
