{"src":"https://a0.muscache.com/im/pictures/34bebed4-36cf-484c-a834-d1c64c77bb3f.jpg?aki_policy=xx_large","name":"Penthouse in Songdoâ˜† Subway 3min / Cozy House","listingId":21098117,"photoId":"1154-9","tags":[{"name":"bed","coordinates":[0.5978179083930122,0.5214672406514486,0.4002007378472222,0.47461732228597003]},{"name":"tvmonitor","coordinates":[0.27534905539618604,0.3374478340148926,0.20739693111843532,0.1795672098795573]},{"name":"chair","coordinates":[0.3885296689139472,0.6092187722524007,0.08095152642991808,0.16632261276245117]},{"name":"pottedplant","coordinates":[0.49248974058363176,0.37339638868967695,0.057510058085123696,0.15697461764017742]},{"name":"pottedplant","coordinates":[0.6122455173068577,0.1707740863164266,0.048740980360243054,0.09978712399800618]},{"name":"vase","coordinates":[0.5167609718110826,0.48619267145792644,0.02295736206902398,0.043343607584635416]}]}
