{"src":"https://a0.muscache.com/im/pictures/7e7883a1-d3f0-4a5b-ae19-d93cbc244274.jpg?aki_policy=xx_large","name":"Penthouse in Songdoâ˜† Subway 3min / Cozy House","listingId":21098117,"photoId":"1154-4","tags":[{"name":"bed","coordinates":[0.6252108891805013,0.6886517683664959,0.37059482998318144,0.29924306869506834]},{"name":"tvmonitor","coordinates":[0.1397958437601725,0.38728626569112135,0.26154041290283203,0.24094794591267904]},{"name":"pottedplant","coordinates":[0.44949518309699166,0.453412119547526,0.06715572145250108,0.1726414998372396]},{"name":"pottedplant","coordinates":[0.5718846546279059,0.2517585794130961,0.04214615027109782,0.09898801644643147]},{"name":"vase","coordinates":[0.5844720694753859,0.3119551479816437,0.017498003111945257,0.03796759049097697]}]}
