{"src":"https://a0.muscache.com/im/pictures/684171b3-8922-4a60-80d1-6f4ec54a4a91.jpg?aki_policy=xx_large","name":"Penthouse in Songdoâ˜† Subway 3min / Cozy House","listingId":21098117,"photoId":"1154-9","tags":[{"name":"tvmonitor","coordinates":[0.3871433734893799,0.4842726071675619,0.4329714775085449,0.17437307039896646]},{"name":"chair","coordinates":[0.5105890750885009,0.7579919179280599,0.18356547355651856,0.1725603421529134]},{"name":"pottedplant","coordinates":[0.7151878356933594,0.5125770568847656,0.11241364479064941,0.141306734085083]},{"name":"pottedplant","coordinates":[0.8561876296997071,0.2816878954569499,0.09693095088005066,0.05680738687515259]},{"name":"pottedplant","coordinates":[0.9756814956665039,0.26394683519999185,0.058980917930603026,0.07737994194030762]},{"name":"book","coordinates":[0.7449388980865479,0.20640969276428223,0.035080480575561526,0.040722938378651936]},{"name":"book","coordinates":[0.7169289588928223,0.20569380124409994,0.03348168134689331,0.04112210273742676]}]}
