{"src":"https://a0.muscache.com/im/pictures/34bebed4-36cf-484c-a834-d1c64c77bb3f.jpg?aki_policy=xx_large","name":"Penthouse in Songdoâ˜† Subway 3min / Cozy House","listingId":21098117,"photoId":"1154-9","tags":[{"name":"bed","coordinates":[0.7979182773166232,0.7587759017944335,0.4002007378472222,0.47461732228597003]},{"name":"tvmonitor","coordinates":[0.37904752095540367,0.42723143895467125,0.20739693111843532,0.1795672098795573]},{"name":"chair","coordinates":[0.42900543212890624,0.6923800786336263,0.08095152642991808,0.16632261276245117]},{"name":"pottedplant","coordinates":[0.5212447696261936,0.45188369750976565,0.057510058085123696,0.15697461764017742]},{"name":"pottedplant","coordinates":[0.6366160074869792,0.22066764831542968,0.048740980360243054,0.09978712399800618]},{"name":"vase","coordinates":[0.5282396528455946,0.5078644752502441,0.02295736206902398,0.043343607584635416]}]}
