{"src":"https://a0.muscache.com/im/pictures/63605994/0d784695_original.jpg?aki_policy=xx_large","name":"2-person double room","listingId":5008777,"photoId":"1156-3","tags":[{"name":"pottedplant","coordinates":[0.8248933254575975,0.4943749745686849,0.22663694133295392,0.3863599141438802]},{"name":"pottedplant","coordinates":[0.09420175671665172,0.4900493303934733,0.17332231691429245,0.3193766276041667]},{"name":"diningtable","coordinates":[0.25390225284848694,0.6946804682413737,0.14652287565319744,0.16343018213907878]},{"name":"chair","coordinates":[0.08642326057439696,0.7094711303710938,0.14856352255219832,0.14055244127909342]},{"name":"chair","coordinates":[0.32493176997102646,0.693157704671224,0.07732775914835702,0.1754206657409668]},{"name":"stop-sign","coordinates":[0.7334538137675911,0.30457290013631183,0.0899467103353224,0.12996935844421387]},{"name":"pottedplant","coordinates":[0.298343301959736,0.5631490071614583,0.046454970673483205,0.10144327481587728]},{"name":"chair","coordinates":[0.4250155933820824,0.6042519887288411,0.03768398237193306,0.06914542516072592]}]}
