{"src":"https://a0.muscache.com/im/pictures/b14dc7c3-77f4-4c0b-9f3b-7c6c6e9a4522.jpg?aki_policy=xx_large","name":"Scheveningen Beach Apartment","listingId":12564208,"photoId":"116-2","tags":[{"name":"chair","coordinates":[0.8327864646911621,0.7147605260213216,0.25603761672973635,0.2926877657572428]},{"name":"sofa","coordinates":[0.15859787464141845,0.7120122909545898,0.10063984394073486,0.3642375946044922]},{"name":"chair","coordinates":[0.6421651363372802,0.616168467203776,0.16870843172073363,0.2003066380818685]},{"name":"tvmonitor","coordinates":[0.3652677059173584,0.4385982513427734,0.18100297451019287,0.14577088356018067]},{"name":"vase","coordinates":[0.3623326778411865,0.6450455347696941,0.02032236158847809,0.04346808592478434]}]}
