{"src":"https://a0.muscache.com/im/pictures/64997648/1b66680d_original.jpg?aki_policy=xx_large","name":"Spacious Room in beautiful house","listingId":5049200,"photoId":"1160-3","tags":[{"name":"diningtable","coordinates":[1.149015638563368,0.8436883290608724,1.4559107462565104,0.287039311726888]},{"name":"pottedplant","coordinates":[1.90579104953342,0.6447930018107096,0.17942996554904514,0.5531903584798177]},{"name":"oven","coordinates":[1.5223970201280381,0.5312932014465332,0.22587979634602864,0.37991517384847007]},{"name":"chair","coordinates":[0.5860273573133681,0.9077192942301432,0.314258172776964,0.17181749343872071]},{"name":"chair","coordinates":[0.9649227566189236,0.9413763046264648,0.42186334398057723,0.11224490801493327]},{"name":"clock","coordinates":[0.28169674343532985,0.1658095359802246,0.2000621371799045,0.1538582960764567]},{"name":"bowl","coordinates":[1.7389802720811631,0.7424110412597656,0.22622542911105686,0.12104994455973307]},{"name":"bowl","coordinates":[1.299880896674262,0.860751215616862,0.23778095245361328,0.07949984868367513]},{"name":"cup","coordinates":[1.5049596150716147,0.8130622227986654,0.1414988941616482,0.11389826933542888]},{"name":"knife","coordinates":[1.409033203125,0.9145578384399414,0.17627858055962456,0.0639159083366394]},{"name":"bowl","coordinates":[0.9007578531901042,0.7947347640991211,0.17298618952433267,0.06008177200953166]},{"name":"cup","coordinates":[1.023438941107856,0.7560302734375,0.09621290630764431,0.09907003243764241]},{"name":"apple","coordinates":[1.8160391913519964,0.6946193695068359,0.09069275326199001,0.056920063495635984]}]}
