{"src":"https://a0.muscache.com/im/pictures/c65c035c-d278-48d9-8c98-5c99f7ace47a.jpg?aki_policy=xx_large","name":"Art, Beach and the City","listingId":5094117,"photoId":"1162-0","tags":[{"name":"diningtable","coordinates":[0.5683139777331618,0.798672612508138,0.27544919600397905,0.3367295265197754]},{"name":"chair","coordinates":[0.0882771000358629,0.8508297602335612,0.17744679184433837,0.3048832575480143]},{"name":"chair","coordinates":[0.563234886027271,0.8202679951985677,0.1327475316776252,0.34024810791015625]},{"name":"chair","coordinates":[0.44696414544715646,0.7872761408487956,0.1407170147629258,0.31629467010498047]},{"name":"chair","coordinates":[0.6692881139909258,0.7261646906534831,0.06955689969270126,0.2639615535736084]},{"name":"chair","coordinates":[0.6694842510341857,0.6188117345174153,0.06469852731835028,0.06854682763417562]},{"name":"clock","coordinates":[0.38750471979934975,0.3411019643147786,0.0406962892283564,0.09067359765370687]},{"name":"bowl","coordinates":[0.4976429435777368,0.6438050587972005,0.07425785064697266,0.045254369576772056]},{"name":"vase","coordinates":[0.20755222865513392,0.7653535207112631,0.031177070570288238,0.08224076430002848]},{"name":"bottle","coordinates":[0.5490771465419982,0.6177918116251627,0.026824654999727048,0.08844384352366129]}]}
