{"src":"https://a0.muscache.com/im/pictures/7f8a3541-56e7-4701-b650-f5d0f292ea78.jpg?aki_policy=xx_large","name":"Close Melbourne CBD, Williamstown Beach&amp; Footscray","listingId":21132385,"photoId":"1165-1","tags":[{"name":"sofa","coordinates":[0.007692623138427723,0.5682506402333577,0.6861729621887207,0.4152083396911621]},{"name":"chair","coordinates":[0.8172643780708313,0.5007140000661214,0.18324658870697022,0.3534245491027832]},{"name":"refrigerator","coordinates":[0.79650838971138,0.14641788800557454,0.13983596563339235,0.27930173873901365]},{"name":"chair","coordinates":[0.7697411596775054,0.38303844134012854,0.09274691343307495,0.27838830947875975]},{"name":"oven","coordinates":[0.597479784488678,0.27934567133585614,0.0852548360824585,0.17911014556884766]},{"name":"microwave","coordinates":[0.7659291580319405,0.2619145770867666,0.03610490262508392,0.05801854530970255]}]}
