{"src":"https://a0.muscache.com/im/pictures/7f8a3541-56e7-4701-b650-f5d0f292ea78.jpg?aki_policy=xx_large","name":"Close Melbourne CBD, Williamstown Beach&amp; Footscray","listingId":21132385,"photoId":"1165-1","tags":[{"name":"sofa","coordinates":[0.3507791042327881,0.7758548100789388,0.6861729621887207,0.4152083396911621]},{"name":"chair","coordinates":[0.9088876724243165,0.677426274617513,0.18324658870697022,0.3534245491027832]},{"name":"refrigerator","coordinates":[0.8664263725280762,0.28606875737508136,0.13983596563339235,0.27930173873901365]},{"name":"chair","coordinates":[0.8161146163940429,0.5222325960795084,0.09274691343307495,0.27838830947875975]},{"name":"oven","coordinates":[0.6401072025299073,0.36890074412027996,0.0852548360824585,0.17911014556884766]},{"name":"microwave","coordinates":[0.7839816093444825,0.29092384974161783,0.03610490262508392,0.05801854530970255]}]}
