{"src":"https://a0.muscache.com/im/pictures/7f8a3541-56e7-4701-b650-f5d0f292ea78.jpg?aki_policy=xx_large","name":"Close Melbourne CBD, Williamstown Beach&amp; Footscray","listingId":21132385,"photoId":"1165-1","tags":[{"name":"sofa","coordinates":[0.31180364820692275,0.7758548100789388,0.6099315219455295,0.4152083396911621]},{"name":"chair","coordinates":[0.807900153266059,0.677426274617513,0.16288585662841798,0.3534245491027832]},{"name":"refrigerator","coordinates":[0.7701567755805121,0.28606875737508136,0.12429863611857096,0.27930173873901365]},{"name":"chair","coordinates":[0.7254352145724826,0.5222325960795084,0.08244170082939996,0.27838830947875975]},{"name":"oven","coordinates":[0.5689841800265842,0.36890074412027996,0.07578207651774088,0.17911014556884766]},{"name":"microwave","coordinates":[0.6968725416395399,0.29092384974161783,0.03209324677785238,0.05801854530970255]}]}
