{"src":"https://z0.muscache.cn/im/pictures/ba8d0e1a-5887-4425-8282-f99f3dfa2bc5.jpg?aki_policy=xx_large","name":"迎春大街 北欧风 复古舒适LOFT公寓民宿 宝龙商圈内","listingId":21147186,"photoId":"1167-7","tags":[{"name":"diningtable","coordinates":[0.5667172749837239,0.8614144643147786,0.8221363491482205,0.2675564448038737]},{"name":"vase","coordinates":[0.5196743011474609,0.5877541859944662,0.09171116087171767,0.3903581937154134]},{"name":"bowl","coordinates":[0.5426020728217231,0.8565001169840495,0.12248347600301107,0.1375085194905599]},{"name":"cup","coordinates":[0.5426020728217231,0.8565001169840495,0.12248347600301107,0.1375085194905599]},{"name":"bowl","coordinates":[0.6458899180094401,0.8234202067057291,0.119771851433648,0.12600169976552328]},{"name":"cup","coordinates":[0.6458899180094401,0.8234202067057291,0.119771851433648,0.12600169976552328]},{"name":"vase","coordinates":[0.37866541544596355,0.7578660329182942,0.06897733476426866,0.17595197359720866]}]}
