{"src":"https://z0.muscache.cn/im/pictures/15840dfb-9bec-42ae-84b3-3e2025d92f63.jpg?aki_policy=xx_large","name":"迎春大街 北欧风 复古舒适LOFT公寓民宿 宝龙商圈内","listingId":21147186,"photoId":"1167-19","tags":[{"name":"pottedplant","coordinates":[0.8554306877983942,0.5447669347127279,0.18467051188151043,0.544495964050293]},{"name":"diningtable","coordinates":[0.36224585639105905,0.7582618077596028,0.28438169691297743,0.25937822659810383]},{"name":"sofa","coordinates":[0.09239539040459527,0.7735525767008463,0.2003094779120551,0.3345836321512858]},{"name":"sofa","coordinates":[0.25522577497694227,0.6437735239664714,0.19432474772135416,0.18052035967508953]},{"name":"vase","coordinates":[0.8558213975694444,0.7091727574666341,0.06880270640055339,0.1798925240834554]}]}
