{"src":"https://z0.muscache.cn/im/pictures/15840dfb-9bec-42ae-84b3-3e2025d92f63.jpg?aki_policy=xx_large","name":"迎春大街 北欧风 复古舒适LOFT公寓民宿 宝龙商圈内","listingId":21147186,"photoId":"1167-19","tags":[{"name":"pottedplant","coordinates":[0.763095431857639,0.27251895268758136,0.18467051188151043,0.544495964050293]},{"name":"diningtable","coordinates":[0.22005500793457033,0.628572694460551,0.28438169691297743,0.25937822659810383]},{"name":"sofa","coordinates":[-0.007759348551432288,0.6062607606252034,0.2003094779120551,0.3345836321512858]},{"name":"sofa","coordinates":[0.15806340111626518,0.5535133441289266,0.19432474772135416,0.18052035967508953]},{"name":"vase","coordinates":[0.8214200443691677,0.6192264954249064,0.06880270640055339,0.1798925240834554]}]}
