{"src":"https://a0.muscache.com/im/pictures/65553410/40fe1738_original.jpg?aki_policy=xx_large","name":"Spacious studio in prime location","listingId":5217344,"photoId":"1167-19","tags":[{"name":"diningtable","coordinates":[0.3151231050491333,0.7363229115804036,0.45021567344665525,0.2806914647420247]},{"name":"chair","coordinates":[0.33502955436706544,0.8141644795735677,0.15840078592300416,0.2914965311686198]},{"name":"chair","coordinates":[0.5052740097045898,0.7767637252807618,0.15192781686782836,0.25110217730204265]},{"name":"chair","coordinates":[0.19518986940383912,0.7710764567057292,0.1512829303741455,0.2283179759979248]},{"name":"chair","coordinates":[0.08175564408302308,0.7467567443847656,0.13275934457778932,0.22571762402852377]},{"name":"chair","coordinates":[0.925363826751709,0.6354925155639648,0.12310494184494018,0.1615618387858073]},{"name":"bench","coordinates":[1.050748348236084,0.5924662907918294,0.11871329545974732,0.14400316874186198]},{"name":"chair","coordinates":[0.267389178276062,0.594530995686849,0.09836229681968689,0.059764981269836426]},{"name":"pottedplant","coordinates":[0.710626745223999,0.695303471883138,0.044478419423103335,0.08254706064860026]},{"name":"cup","coordinates":[0.2923917055130005,0.6317829132080078,0.031954091787338254,0.044633738199869794]}]}
