{"src":"https://z0.muscache.cn/im/pictures/ba8d0e1a-5887-4425-8282-f99f3dfa2bc5.jpg?aki_policy=xx_large","name":"迎春大街 北欧风 复古舒适LOFT公寓民宿 宝龙商圈内","listingId":21147186,"photoId":"1167-7","tags":[{"name":"diningtable","coordinates":[0.15564910040961366,0.7276362419128418,0.8221363491482205,0.2675564448038737]},{"name":"vase","coordinates":[0.4738187207116021,0.3925750891367594,0.09171116087171767,0.3903581937154134]},{"name":"bowl","coordinates":[0.48136033482021756,0.7877458572387696,0.12248347600301107,0.1375085194905599]},{"name":"cup","coordinates":[0.48136033482021756,0.7877458572387696,0.12248347600301107,0.1375085194905599]},{"name":"bowl","coordinates":[0.586003992292616,0.7604193568229675,0.119771851433648,0.12600169976552328]},{"name":"cup","coordinates":[0.586003992292616,0.7604193568229675,0.119771851433648,0.12600169976552328]},{"name":"vase","coordinates":[0.3441767480638292,0.6698900461196899,0.06897733476426866,0.17595197359720866]}]}
