{"src":"https://a0.muscache.com/im/pictures/f253cfac-c905-4c6e-b4bf-5e736d1de187.jpg?aki_policy=xx_large","name":"Characteristic studio/apartment near sea &amp; city","listingId":5243265,"photoId":"1169-2","tags":[{"name":"sofa","coordinates":[0.5161862850189209,0.6661486307779948,0.7977921962738037,0.5233554204305013]},{"name":"bicycle","coordinates":[0.5174025535583496,0.1377172311147054,0.20577514171600342,0.20976382891337078]},{"name":"chair","coordinates":[0.7073769092559814,0.8263845443725586,0.1461837887763977,0.2810937563578288]},{"name":"chair","coordinates":[0.830894660949707,0.4674565633138021,0.1294083595275879,0.13957821528116862]},{"name":"pottedplant","coordinates":[0.7870559692382812,0.5897998174031576,0.0839974820613861,0.15477313995361328]},{"name":"chair","coordinates":[0.9721280097961426,0.4737226168314616,0.05439932346343994,0.22680586179097492]},{"name":"vase","coordinates":[0.7824244022369384,0.6327597300211588,0.03865886926651001,0.06746188799540202]}]}
