{"src":"https://a0.muscache.com/im/pictures/6be002e6-f86d-4d26-ae49-23a642b3b501.jpg?aki_policy=xx_large","name":"FIRST HOMESTAY HILLS 68 C-02-60","listingId":21153471,"photoId":"1169-2","tags":[{"name":"sofa","coordinates":[0.5065199534098308,0.44736313819885254,0.4125492519802517,0.3354917208353678]},{"name":"diningtable","coordinates":[0.07593200471666124,0.44155458609263104,0.17819644080268013,0.16880396207173665]},{"name":"chair","coordinates":[0.029992771148681645,0.45883062680562336,0.10274251302083333,0.23877553939819335]},{"name":"chair","coordinates":[0.175920475853814,0.4812920888264973,0.09998548295762803,0.20861600240071615]},{"name":"tvmonitor","coordinates":[0.7561845514509413,0.2305860678354899,0.11642864015367296,0.1556102434794108]},{"name":"chair","coordinates":[0.19954588413238525,0.3774008830388387,0.06748368475172255,0.09615330696105957]}]}
