{"src":"https://a0.muscache.com/im/pictures/6be002e6-f86d-4d26-ae49-23a642b3b501.jpg?aki_policy=xx_large","name":"FIRST HOMESTAY HILLS 68 C-02-60","listingId":21153471,"photoId":"1169-2","tags":[{"name":"sofa","coordinates":[0.7127945793999566,0.6151089986165365,0.4125492519802517,0.3354917208353678]},{"name":"diningtable","coordinates":[0.1650302251180013,0.5259565671284994,0.17819644080268013,0.16880396207173665]},{"name":"chair","coordinates":[0.08136402765909831,0.5782183965047201,0.10274251302083333,0.23877553939819335]},{"name":"chair","coordinates":[0.22591321733262804,0.5856000900268554,0.09998548295762803,0.20861600240071615]},{"name":"tvmonitor","coordinates":[0.8143988715277778,0.3083911895751953,0.11642864015367296,0.1556102434794108]},{"name":"chair","coordinates":[0.23328772650824653,0.4254775365193685,0.06748368475172255,0.09615330696105957]}]}
