{"src":"https://a0.muscache.com/im/pictures/6be002e6-f86d-4d26-ae49-23a642b3b501.jpg?aki_policy=xx_large","name":"FIRST HOMESTAY HILLS 68 C-02-60","listingId":21153471,"photoId":"1169-2","tags":[{"name":"sofa","coordinates":[0.8006428972979232,0.6151089986165365,0.46339385557844187,0.3354917208353678]},{"name":"diningtable","coordinates":[0.18536936362708414,0.5259565671284994,0.2001582486395159,0.16880396207173665]},{"name":"chair","coordinates":[0.09139173153596065,0.5782183965047201,0.11540500682527301,0.23877553939819335]},{"name":"chair","coordinates":[0.25375587594304555,0.5856000900268554,0.11230818678547923,0.20861600240071615]},{"name":"tvmonitor","coordinates":[0.9147694032761311,0.3083911895751953,0.1307778797357949,0.1556102434794108]},{"name":"chair","coordinates":[0.2620392559843019,0.4254775365193685,0.07580070674140442,0.09615330696105957]}]}
