{"src":"https://a0.muscache.com/im/pictures/73ed9018-b18d-4554-bc06-bf470bc5e867.jpg?aki_policy=xx_large","name":"Квартира-студия в центре Астрахани","listingId":12575750,"photoId":"117-8","tags":[{"name":"diningtable","coordinates":[0.4248585595024957,0.8684895833333334,0.44153124491373696,0.23694709142049153]},{"name":"chair","coordinates":[0.1868194792005751,0.8713779449462891,0.13635571797688803,0.2635093371073405]},{"name":"tvmonitor","coordinates":[0.2926509645250108,0.48814798990885416,0.17457251018948025,0.1830690066019694]},{"name":"chair","coordinates":[0.5924212985568577,0.7410248438517253,0.12082611719767253,0.22903029123942056]},{"name":"pottedplant","coordinates":[0.8028277079264323,0.650609842936198,0.10657206641303169,0.24158719380696614]},{"name":"apple","coordinates":[0.28378704918755426,0.6357626597086589,0.024221634864807128,0.025336603323618572]}]}
