{"src":"https://a0.muscache.com/im/pictures/a06b52f6-8b96-4734-999c-bbfb485b0aad.jpg?aki_policy=xx_large","name":"Квартира-студия в центре Астрахани","listingId":12575750,"photoId":"117-4","tags":[{"name":"diningtable","coordinates":[0.3716462665134006,0.6437895456949869,0.23812073601616754,0.34557584126790364]},{"name":"refrigerator","coordinates":[0.7173648357391357,0.35100250244140624,0.1376253022087945,0.5540506998697917]},{"name":"chair","coordinates":[0.5067077742682563,0.6258912722269694,0.11709109412299262,0.3677995681762695]},{"name":"chair","coordinates":[0.3453980127970378,0.6566771348317464,0.11621470981174045,0.33291813532511394]},{"name":"microwave","coordinates":[0.5350182480282254,0.5369748115539551,0.052677059173583986,0.06893355051676432]}]}
