{"src":"https://a0.muscache.com/im/pictures/73ed9018-b18d-4554-bc06-bf470bc5e867.jpg?aki_policy=xx_large","name":"Квартира-студия в центре Астрахани","listingId":12575750,"photoId":"117-9","tags":[{"name":"diningtable","coordinates":[0.2040929370456272,0.7500160376230876,0.44153124491373696,0.23694709142049153]},{"name":"chair","coordinates":[0.11864162021213108,0.7396232763926188,0.13635571797688803,0.2635093371073405]},{"name":"tvmonitor","coordinates":[0.2053647094302707,0.39661348660786944,0.17457251018948025,0.1830690066019694]},{"name":"chair","coordinates":[0.5320082399580214,0.626509698232015,0.12082611719767253,0.22903029123942056]},{"name":"pottedplant","coordinates":[0.7495416747199165,0.5298162460327149,0.10657206641303169,0.24158719380696614]},{"name":"apple","coordinates":[0.2716762317551507,0.6230943580468495,0.024221634864807128,0.025336603323618572]}]}
