{"src":"https://a0.muscache.com/im/pictures/a06b52f6-8b96-4734-999c-bbfb485b0aad.jpg?aki_policy=xx_large","name":"Квартира-студия в центре Астрахани","listingId":12575750,"photoId":"117-4","tags":[{"name":"diningtable","coordinates":[0.4907066345214844,0.8165774663289388,0.23812073601616754,0.34557584126790364]},{"name":"refrigerator","coordinates":[0.786177486843533,0.6280278523763021,0.1376253022087945,0.5540506998697917]},{"name":"chair","coordinates":[0.5652533213297526,0.8097910563151042,0.11709109412299262,0.3677995681762695]},{"name":"chair","coordinates":[0.403505367702908,0.8231362024943034,0.11621470981174045,0.33291813532511394]},{"name":"microwave","coordinates":[0.5613567776150173,0.5714415868123373,0.052677059173583986,0.06893355051676432]}]}
