{"src":"https://a0.muscache.com/im/pictures/371a0158-143a-4799-8c1a-3d9196b049f0.jpg?aki_policy=xx_large","name":"2-6PAX★Cosy Suite★5 mins to Sunway Pyramid Lagoon","listingId":21154269,"photoId":"1170-2","tags":[{"name":"diningtable","coordinates":[-0.0003476884629991517,0.7411228497823079,1.0226554870605469,0.2430875778198242]},{"name":"chair","coordinates":[0.0983080546061198,0.5528848330179851,0.4484290652804904,0.2798463821411133]},{"name":"laptop","coordinates":[0.20729204813639324,0.30271134376525877,0.2977943420410156,0.20891809463500977]},{"name":"chair","coordinates":[0.7381352530585394,0.5128275235493978,0.22963566250271267,0.23919442494710286]},{"name":"vase","coordinates":[0.6219554689195421,0.749200177192688,0.13527234395345053,0.1755837917327881]},{"name":"cup","coordinates":[0.2987829632229275,0.7383277495702107,0.1306221432156033,0.17737841606140137]},{"name":"cup","coordinates":[0.9378495560752022,0.6808000564575195,0.06384488741556803,0.12425727844238281]},{"name":"clock","coordinates":[0.7998682684368558,0.02526492675145467,0.05067273775736491,0.11068917115529378]}]}
