{"src":"https://a0.muscache.com/im/pictures/371a0158-143a-4799-8c1a-3d9196b049f0.jpg?aki_policy=xx_large","name":"2-6PAX★Cosy Suite★5 mins to Sunway Pyramid Lagoon","listingId":21154269,"photoId":"1170-2","tags":[{"name":"diningtable","coordinates":[0.5109800550672743,0.86266663869222,1.0226554870605469,0.2430875778198242]},{"name":"chair","coordinates":[0.322522587246365,0.6928080240885417,0.4484290652804904,0.2798463821411133]},{"name":"laptop","coordinates":[0.35618921915690105,0.40717039108276365,0.2977943420410156,0.20891809463500977]},{"name":"chair","coordinates":[0.8529530843098958,0.6324247360229492,0.22963566250271267,0.23919442494710286]},{"name":"vase","coordinates":[0.6895916408962673,0.8369920730590821,0.13527234395345053,0.1755837917327881]},{"name":"cup","coordinates":[0.36409403483072916,0.8270169576009114,0.1306221432156033,0.17737841606140137]},{"name":"cup","coordinates":[0.9697719997829861,0.7429286956787109,0.06384488741556803,0.12425727844238281]},{"name":"clock","coordinates":[0.8252046373155382,0.08060951232910156,0.05067273775736491,0.11068917115529378]}]}
