{"src":"https://a0.muscache.com/im/pictures/65735012/b059dd62_original.jpg?aki_policy=xx_large","name":"Apartment,two rooms,kitchen,balcony","listingId":5260518,"photoId":"1171-3","tags":[{"name":"pottedplant","coordinates":[0.7505098130967882,0.510479227701823,0.14566679000854493,0.5767370859781901]},{"name":"sofa","coordinates":[0.16268690956963433,0.8489567438761393,0.2800561269124349,0.29161049524943033]},{"name":"diningtable","coordinates":[0.4898329840766059,0.7272905985514323,0.26145142449273,0.2660020351409912]},{"name":"chair","coordinates":[0.5410213046603732,0.7451143264770508,0.10520118077596029,0.23170552253723145]},{"name":"chair","coordinates":[0.3971915351019965,0.7228769938151042,0.06767642762925889,0.20059076944986978]},{"name":"chair","coordinates":[0.5948960198296441,0.6885667165120443,0.053375652101304794,0.19320125579833985]}]}
