{"src":"https://a0.muscache.com/im/pictures/01374976-6f80-4413-924a-4c77a057684f.jpg?aki_policy=xx_large","name":"affordable private room close to airport and CBD","listingId":21157986,"photoId":"1173-2","tags":[{"name":"sofa","coordinates":[0.3026970969306098,0.56532408396403,0.5506286197238498,0.6514749526977539]},{"name":"diningtable","coordinates":[0.8097632514105902,0.5738398234049479,0.3543942557440864,0.28147894541422525]},{"name":"chair","coordinates":[0.7828943040635851,0.3036850611368815,0.20532425774468316,0.24511871337890626]},{"name":"bowl","coordinates":[0.8116426255967882,0.4739048639933268,0.16936269336276585,0.08401194413503012]},{"name":"chair","coordinates":[0.5838000827365452,0.169553009668986,0.1375555356343587,0.06341295639673869]},{"name":"chair","coordinates":[0.30609747568766277,0.18792627652486166,0.10804613961113824,0.052636114756266277]},{"name":"laptop","coordinates":[0.30609747568766277,0.18792627652486166,0.10804613961113824,0.052636114756266277]}]}
