{"src":"https://a0.muscache.com/im/pictures/01374976-6f80-4413-924a-4c77a057684f.jpg?aki_policy=xx_large","name":"affordable private room close to airport and CBD","listingId":21157986,"photoId":"1173-2","tags":[{"name":"sofa","coordinates":[0.40359612924081306,0.56532408396403,0.7341714929651331,0.6514749526977539]},{"name":"diningtable","coordinates":[1.0796843352141203,0.5738398234049479,0.4725256743254485,0.28147894541422525]},{"name":"chair","coordinates":[1.04385907208478,0.3036850611368815,0.2737656769929109,0.24511871337890626]},{"name":"bowl","coordinates":[1.0821901674623842,0.4739048639933268,0.2258169244836878,0.08401194413503012]},{"name":"chair","coordinates":[0.7784001103153935,0.169553009668986,0.18340738084581162,0.06341295639673869]},{"name":"chair","coordinates":[0.40812996758355036,0.18792627652486166,0.14406151948151766,0.052636114756266277]},{"name":"laptop","coordinates":[0.40812996758355036,0.18792627652486166,0.14406151948151766,0.052636114756266277]}]}
