{"src":"https://a0.muscache.com/im/pictures/8146195/f66877e7_original.jpg?aki_policy=xx_large","name":"Modern chique house near beach","listingId":527881,"photoId":"1174-0","tags":[{"name":"oven","coordinates":[0.2701900270250108,0.7610692977905273,0.4570951673719618,0.22214727401733397]},{"name":"sink","coordinates":[0.629669910007053,0.6010250091552735,0.23656094868977864,0.07552816867828369]},{"name":"bottle","coordinates":[0.8123050265842013,0.5465627034505208,0.02493832376268175,0.13124266465504963]},{"name":"knife","coordinates":[0.1456989182366265,0.5163469950358073,0.04086361461215549,0.06461489995320638]},{"name":"vase","coordinates":[0.5933597564697266,0.08758743604024251,0.021637993388705784,0.10261046091715495]},{"name":"knife","coordinates":[0.1597747696770562,0.5170387585957845,0.027176917923821344,0.057380855083465576]},{"name":"bottle","coordinates":[0.7258344014485677,0.5718472162882487,0.017958192030588786,0.06237319310506185]}]}
