{"src":"https://a0.muscache.com/im/pictures/66298674/b0a39036_original.jpg?aki_policy=xx_large","name":"Enjoy Downtown The Hague ","listingId":5306959,"photoId":"1177-0","tags":[{"name":"bus","coordinates":[0.9461709025178447,0.622120475769043,0.11193432183650875,0.15107301076253254]},{"name":"car","coordinates":[0.26525132968233156,0.7041477203369141,0.14049722358044808,0.08229366143544516]},{"name":"car","coordinates":[0.059960500775605524,0.720257314046224,0.10994794840268106,0.09647742112477621]},{"name":"bicycle","coordinates":[0.41110280496496343,0.6938923517862956,0.0399272913388223,0.04852275451024373]},{"name":"person","coordinates":[0.7600227717237552,0.6515316009521485,0.01250656733605855,0.04132441282272339]}]}
