{"src":"https://a0.muscache.com/im/pictures/92de1ec1-5345-412a-a4ec-4dd905eaeec2.jpg?aki_policy=xx_large","name":"襄湾一号","listingId":21164669,"photoId":"1177-0","tags":[{"name":"diningtable","coordinates":[0.5412945270538331,0.7276847839355469,0.46894378662109376,0.28801854451497394]},{"name":"tvmonitor","coordinates":[0.31183162927627567,0.44265449047088623,0.26652572154998777,0.25768965085347495]},{"name":"truck","coordinates":[0.37442972660064694,0.5474055051803589,0.10543017387390137,0.07383955319722493]},{"name":"clock","coordinates":[0.1697744369506836,0.5602937976519267,0.07381539344787598,0.0931840976079305]},{"name":"vase","coordinates":[0.8957045301795006,0.3281951944033305,0.022290661931037903,0.06730326811472574]}]}
