{"src":"https://a0.muscache.com/im/pictures/92de1ec1-5345-412a-a4ec-4dd905eaeec2.jpg?aki_policy=xx_large","name":"襄湾一号","listingId":21164669,"photoId":"1177-0","tags":[{"name":"diningtable","coordinates":[0.7757664203643799,0.8716940561930339,0.46894378662109376,0.28801854451497394]},{"name":"tvmonitor","coordinates":[0.44509449005126955,0.5714993158976237,0.26652572154998777,0.25768965085347495]},{"name":"truck","coordinates":[0.42714481353759765,0.5843252817789714,0.10543017387390137,0.07383955319722493]},{"name":"clock","coordinates":[0.20668213367462157,0.6068858464558919,0.07381539344787598,0.0931840976079305]},{"name":"vase","coordinates":[0.9068498611450195,0.3618468284606934,0.022290661931037903,0.06730326811472574]}]}
