{"src":"https://a0.muscache.com/im/pictures/67348635/7ba4d3f7_original.jpg?aki_policy=xx_large","name":"Centraal gelegen appartement + tuin","listingId":5307470,"photoId":"1178-0","tags":[{"name":"diningtable","coordinates":[0.4450803968641493,0.756907590230306,0.5706393771701389,0.4917859395345052]},{"name":"chair","coordinates":[0.17795929378933376,0.6316558837890625,0.09115709728664823,0.28615214029947916]},{"name":"chair","coordinates":[0.6856694963243273,0.5904136657714844,0.112989256117079,0.20729344685872395]},{"name":"chair","coordinates":[0.25916177961561415,0.5462138493855794,0.07860739496019152,0.21166542371114094]},{"name":"chair","coordinates":[0.5911536322699653,0.51407896677653,0.07124915122985839,0.16523601214090983]},{"name":"chair","coordinates":[0.44813584221733943,0.47722209294637047,0.11934810214572483,0.066960875193278]},{"name":"bowl","coordinates":[0.9669241163465712,0.5359148025512696,0.0688357777065701,0.059535853068033856]},{"name":"orange","coordinates":[0.9536699083116319,0.506621774037679,0.024219356642829048,0.028876590728759765]}]}
