{"src":"https://a0.muscache.com/im/pictures/67562382/fa261a57_original.jpg?aki_policy=xx_large","name":"Spacious Three Level Familyhouse ","listingId":5378825,"photoId":"1179-13","tags":[{"name":"bed","coordinates":[0.3682089375488621,0.8154253641764323,0.7710337582522585,0.368123722076416]},{"name":"pottedplant","coordinates":[0.9354986067527363,0.5984048207600912,0.12805710209998264,0.4062776565551758]},{"name":"chair","coordinates":[0.2379443266062044,0.6407670338948568,0.15742993172545497,0.11716842651367188]},{"name":"pottedplant","coordinates":[0.5124372173465731,0.5983824412027995,0.07728570828096497,0.12576009432474772]},{"name":"chair","coordinates":[0.31953556360346813,0.6095668156941731,0.10413719532471552,0.07587711016337077]},{"name":"pottedplant","coordinates":[0.2560939510470053,0.5211947441101075,0.051140716955676686,0.12659192085266113]},{"name":"pottedplant","coordinates":[0.16481827132150148,0.5191033999125163,0.05318793428698043,0.11489555835723878]},{"name":"pottedplant","coordinates":[0.21484281687043955,0.5394782384236654,0.04738060246746601,0.08737003008524577]},{"name":"vase","coordinates":[0.5098079551500608,0.6515815734863282,0.03626106744677429,0.04908215602238973]}]}
