{"src":"https://a0.muscache.com/im/pictures/67562430/47dc14f2_original.jpg?aki_policy=xx_large","name":"Spacious Three Level Familyhouse ","listingId":5378825,"photoId":"1179-0","tags":[{"name":"sofa","coordinates":[0.13509397506713866,0.6503428777058919,0.19807050493028427,0.16304556528727213]},{"name":"pottedplant","coordinates":[0.04342913892534044,0.6877493540445964,0.09151187472873264,0.23946762084960938]},{"name":"pottedplant","coordinates":[0.0694020218319363,0.48976736068725585,0.11318965488009983,0.13996318181355794]},{"name":"pottedplant","coordinates":[0.567717022365994,0.5131924629211426,0.07199160257975261,0.08819215297698975]},{"name":"clock","coordinates":[0.7738705952962239,0.2917366027832031,0.04937175114949544,0.08285628954569499]},{"name":"vase","coordinates":[0.06735571225484212,0.5437723159790039,0.018415023220909967,0.06654180685679117]},{"name":"vase","coordinates":[0.5659440782335069,0.5466559092203777,0.0197998841603597,0.0419554869333903]},{"name":"knife","coordinates":[0.9882816738552518,0.5189146359761556,0.012648138735029433,0.038467220465342206]},{"name":"knife","coordinates":[0.9721850925021701,0.5165125211079915,0.01238378021452162,0.03909108241399129]},{"name":"knife","coordinates":[0.987967766655816,0.5413503646850586,0.010765454504224989,0.036328450838724775]}]}
