{"src":"https://a0.muscache.com/im/pictures/73586773/e6a51538_original.jpg?aki_policy=xx_large","name":"4p Room close to the beach in Belgisch Park","listingId":5403040,"photoId":"1181-11","tags":[{"name":"diningtable","coordinates":[0.4409458637237549,0.5084137280782064,0.4673652172088623,0.1910052458445231]},{"name":"chair","coordinates":[0.38324580192565916,0.6800394694010417,0.2569366693496704,0.3072659174601237]},{"name":"chair","coordinates":[0.22777414321899414,0.639581298828125,0.160591197013855,0.29135748545328777]},{"name":"chair","coordinates":[0.5936522960662842,0.5354237238566081,0.11826505661010742,0.2432149092356364]},{"name":"pottedplant","coordinates":[0.42603654861450196,0.42543487548828124,0.055028903484344485,0.09768136342366536]},{"name":"vase","coordinates":[0.4236436367034912,0.45084228515625,0.03346803188323975,0.04998844861984253]}]}
