{"src":"https://a0.muscache.com/im/pictures/e387f53c-8e33-4552-a9c5-7aceb785ff60.jpg?aki_policy=xx_large","name":"4p Room close to the beach in Belgisch Park","listingId":5403040,"photoId":"1181-2","tags":[{"name":"diningtable","coordinates":[0.6364587995741102,0.7426474889119467,0.5437001546223958,0.443136723836263]},{"name":"person","coordinates":[0.29449147118462454,0.6520980834960938,0.28649058871799044,0.6475385030110677]},{"name":"chair","coordinates":[0.8745730082194011,0.769193967183431,0.24319566090901693,0.4401002566019694]},{"name":"chair","coordinates":[0.21119458940294053,0.8419513702392578,0.29813238779703777,0.32780930201212566]},{"name":"person","coordinates":[0.8374137030707465,0.5859257380167643,0.19076080322265626,0.4528677304585775]},{"name":"chair","coordinates":[0.12949280209011502,0.6528155008951823,0.11355450948079428,0.13710648218790691]},{"name":"cup","coordinates":[0.5464816623263888,0.63090394337972,0.036934998300340444,0.15791293780008953]},{"name":"bowl","coordinates":[0.44895028008355037,0.628643290201823,0.07178229226006402,0.072871200243632]},{"name":"cup","coordinates":[0.5022279527452257,0.6818248748779296,0.05063642925686306,0.0729838212331136]},{"name":"cup","coordinates":[0.6011063893636067,0.6686707814534505,0.03686907821231418,0.07406511306762695]}]}
