{"src":"https://a0.muscache.com/im/pictures/69614009/a6acad3f_original.jpg?aki_policy=xx_large","name":"Large \"beach-vibe\" city house ","listingId":5427617,"photoId":"1182-9","tags":[{"name":"refrigerator","coordinates":[0.7509765625,0.5836044311523437,0.20290359920925563,0.7584867477416992]},{"name":"oven","coordinates":[0.574051751030816,0.8146186828613281,0.2962408701578776,0.352534548441569]},{"name":"sink","coordinates":[0.12335923512776693,0.8725379943847656,0.2508376227484809,0.25001638730367026]},{"name":"spoon","coordinates":[0.6066313849555122,0.4819323539733887,0.023700115415785046,0.07227222124735515]},{"name":"spoon","coordinates":[0.6437106662326388,0.48439340591430663,0.022265423668755426,0.0543304443359375]}]}
