{"src":"https://a0.muscache.com/im/pictures/69613809/33f2feb0_original.jpg?aki_policy=xx_large","name":"Large \"beach-vibe\" city house ","listingId":5427617,"photoId":"1182-3","tags":[{"name":"sofa","coordinates":[0.7388509680116401,0.7160037994384766,0.4406568197180116,0.31889816919962566]},{"name":"sofa","coordinates":[0.8644433356226112,0.7712137222290039,0.2615716972642677,0.47372268040974935]},{"name":"chair","coordinates":[0.10317279532023649,0.7509849548339844,0.18333686367350374,0.3088508605957031]},{"name":"chair","coordinates":[0.37608501760391333,0.6485219955444336,0.11220880843766287,0.21301194826761882]},{"name":"pottedplant","coordinates":[0.4492873774376737,0.6449057896931966,0.09009069001368138,0.21879138946533203]},{"name":"vase","coordinates":[0.44691150233180593,0.718393071492513,0.05073522974667738,0.08591779073079427]},{"name":"vase","coordinates":[0.17759101236752953,0.6000471115112305,0.03710706868546137,0.11015152136484782]},{"name":"pottedplant","coordinates":[0.5330092885413047,0.2651432196299235,0.06326816179754007,0.05783232847849528]},{"name":"book","coordinates":[0.23777931112643327,0.6841016133626302,0.06266928348713571,0.015592231353123983]},{"name":"book","coordinates":[0.2361542235819145,0.6325126647949219,0.045332531534689344,0.018756228685379028]}]}
