{"src":"https://a0.muscache.com/im/pictures/96592392/f408c316_original.jpg?aki_policy=xx_large","name":"Scheveningen Beach apartment!","listingId":5463706,"photoId":"1184-3","tags":[{"name":"sofa","coordinates":[0.16768859649871612,0.7974193572998047,0.338703011466073,0.41698811848958334]},{"name":"tvmonitor","coordinates":[0.952931309413243,0.7570590972900391,0.090911555790401,0.39656782150268555]},{"name":"chair","coordinates":[0.4714138217739292,0.6061749776204427,0.03923355049186653,0.09434309005737304]},{"name":"pottedplant","coordinates":[0.6969237854430725,0.5348163604736328,0.04445831725647399,0.0819611390431722]},{"name":"chair","coordinates":[0.5131639173814467,0.6010003407796224,0.03247190622182993,0.09381867249806722]}]}
