{"src":"https://a0.muscache.com/im/pictures/96592526/f02cba7d_original.jpg?aki_policy=xx_large","name":"Scheveningen Beach apartment!","listingId":5463706,"photoId":"1184-8","tags":[{"name":"sink","coordinates":[0.9288993744813504,0.8044263203938802,0.13878547887049048,0.12774513562520345]},{"name":"oven","coordinates":[0.7039552231421428,0.7473726908365885,0.052066544400154506,0.21350682576497396]},{"name":"pottedplant","coordinates":[0.8943758257446716,0.6219332377115886,0.07814824539493798,0.12192681630452475]},{"name":"chair","coordinates":[0.625439188681975,0.6305702209472657,0.039379343796576094,0.11427929401397705]},{"name":"cup","coordinates":[0.8964862516924353,0.6781694412231445,0.03283153723204244,0.04642039140065511]},{"name":"vase","coordinates":[0.8964862516924353,0.6781694412231445,0.03283153723204244,0.04642039140065511]},{"name":"bowl","coordinates":[0.9484396667267209,0.40277255376180016,0.06422100693591402,0.023520038525263468]},{"name":"bowl","coordinates":[0.8580355534263627,0.429925537109375,0.03966778129401697,0.02674222787221273]},{"name":"bowl","coordinates":[0.9890752615085604,0.3906184196472168,0.02190504067432289,0.043038388093312584]},{"name":"bottle","coordinates":[0.8001511931669287,0.6060012817382813,0.015133970355254467,0.058362376689910886]},{"name":"bowl","coordinates":[0.8981428592876485,0.40679861704508463,0.03608970722062533,0.023996831973393758]},{"name":"bowl","coordinates":[0.8986348086183176,0.4218589464823405,0.03684142650548267,0.023197648922602336]},{"name":"apple","coordinates":[0.161203295096578,0.7407472610473633,0.029371948028926995,0.028821611404418947]},{"name":"orange","coordinates":[0.2202796749432215,0.7346400578816732,0.025832012930922705,0.02590691645940145]},{"name":"orange","coordinates":[0.19805863418419156,0.74116636912028,0.02378537853142334,0.028045143683751425]},{"name":"bottle","coordinates":[0.7608977823637316,0.5992846171061198,0.012219279067321393,0.054233205318450925]},{"name":"apple","coordinates":[0.18499572455341545,0.742280387878418,0.02477474732468963,0.026661211252212526]},{"name":"bottle","coordinates":[0.7451210261890723,0.5969621022542317,0.012534024913689209,0.05061670939127604]},{"name":"book","coordinates":[0.3933377589153127,0.6827524185180665,0.011597232831932296,0.03428229093551636]}]}
