{"src":"https://a0.muscache.com/im/pictures/96592469/e67962d4_original.jpg?aki_policy=xx_large","name":"Scheveningen Beach apartment!","listingId":5463706,"photoId":"1184-6","tags":[{"name":"pottedplant","coordinates":[0.06154417444448002,0.42466770807902016,0.11920948966604765,0.1535514036814372]},{"name":"oven","coordinates":[0.38566694415983604,0.6290808359781901,0.09946142102851242,0.17926729520161946]},{"name":"bottle","coordinates":[0.26261734258933145,0.4680891672770182,0.02193842559564309,0.06537977059682211]},{"name":"bottle","coordinates":[0.2220519769387167,0.48087905248006185,0.019684027062087762,0.04721771876017253]},{"name":"vase","coordinates":[0.4152339997838755,0.48699226379394533,0.020852185859054816,0.042033588886260985]},{"name":"bottle","coordinates":[0.3117156982421875,0.48100719451904295,0.018069609657662813,0.0476681113243103]},{"name":"bottle","coordinates":[0.3230561803598873,0.48135029474894203,0.017637246554015114,0.044393118222554526]}]}
