{"src":"https://a0.muscache.com/im/pictures/96592446/0276666f_original.jpg?aki_policy=xx_large","name":"Scheveningen Beach apartment!","listingId":5463706,"photoId":"1184-5","tags":[{"name":"chair","coordinates":[0.16712392526906686,0.7507152557373047,0.17034055269681492,0.37215789159138996]},{"name":"chair","coordinates":[0.3672992839679851,0.7179400126139323,0.14308020318304743,0.35293649037679037]},{"name":"diningtable","coordinates":[0.6782423326185533,0.5861396789550781,0.2150355625819493,0.12272031307220459]},{"name":"bench","coordinates":[0.6782423326185533,0.5861396789550781,0.2150355625819493,0.12272031307220459]},{"name":"pottedplant","coordinates":[0.14784794520664882,0.31838531494140626,0.12393009212467221,0.1808910846710205]},{"name":"bottle","coordinates":[0.9453560355659965,0.8834114710489909,0.03544571616432884,0.13653051058451335]},{"name":"bottle","coordinates":[0.973011875819493,0.9149295806884765,0.030755537873381502,0.11707425912221273]},{"name":"vase","coordinates":[0.14399446073945585,0.3701818784077962,0.029915658910791357,0.05018333991368611]}]}
