{"src":"https://a0.muscache.com/im/pictures/721c69f6-7954-4797-9d2a-3b40badf0147.jpg?aki_policy=xx_large","name":"CONDO 1BR near World Trade/STAR CITY/MOA, WIFI","listingId":21208764,"photoId":"1184-5","tags":[{"name":"tvmonitor","coordinates":[0.007310914993286122,0.3672400951385498,0.31915485858917236,0.2572159767150879]},{"name":"refrigerator","coordinates":[0.7752058148384094,0.6438579400380452,0.2327953100204468,0.3419603029886881]},{"name":"diningtable","coordinates":[0.4414094924926758,0.74332168896993,0.23679475784301757,0.24854211807250975]},{"name":"chair","coordinates":[0.3111549437046051,0.7474679708480836,0.1666519045829773,0.26022407213846843]},{"name":"chair","coordinates":[0.6286226749420166,0.756796105702718,0.16634683609008788,0.24824415842692057]},{"name":"bottle","coordinates":[0.8752883970737457,0.6006423413753509,0.02455481290817261,0.04589180548985799]}]}
