{"src":"https://a0.muscache.com/im/pictures/96594035/f0ba36ab_original.jpg?aki_policy=xx_large","name":"Scheveningen Beach apartment!","listingId":5463706,"photoId":"1184-10","tags":[{"name":"diningtable","coordinates":[0.729303362652972,0.8436187108357748,0.460281180001639,0.327993106842041]},{"name":"bench","coordinates":[0.729303362652972,0.8436187108357748,0.460281180001639,0.327993106842041]},{"name":"chair","coordinates":[0.5241688975087413,0.8237664540608723,0.12240835336538461,0.3347681999206543]},{"name":"chair","coordinates":[0.48448281454873254,0.5919746398925781,0.11950986635434878,0.19112633069356283]},{"name":"pottedplant","coordinates":[0.5687200799688593,0.5203375180562337,0.061142314564098015,0.25523564020792644]},{"name":"pottedplant","coordinates":[0.7290456491750437,0.24262685775756837,0.06852040857701869,0.14947619438171386]}]}
