{"src":"https://a0.muscache.com/im/pictures/96592289/74bf41a5_original.jpg?aki_policy=xx_large","name":"Scheveningen Beach apartment!","listingId":5463706,"photoId":"1184-1","tags":[{"name":"sofa","coordinates":[0.8826323375262054,0.6446603775024414,0.22308059575089537,0.2879324913024902]},{"name":"pottedplant","coordinates":[0.3924827549026031,0.46062097549438474,0.06390945466559388,0.07428119977315267]},{"name":"tvmonitor","coordinates":[0.5262383781555731,0.5235866864522298,0.0559692329497374,0.07679654757181803]},{"name":"book","coordinates":[0.201277545579741,0.28551082611083983,0.06421565942877577,0.04687751928965251]},{"name":"book","coordinates":[0.20384413574559967,0.26338392893473306,0.06246288200927564,0.042931588490804036]},{"name":"book","coordinates":[0.20056143813329838,0.30944522221883136,0.0710672715758211,0.021840757131576537]},{"name":"book","coordinates":[0.20388277854892775,0.28435929616292316,0.06782679421180282,0.02194503347078959]},{"name":"book","coordinates":[0.13879012794947806,0.5432605743408203,0.0606149850734708,0.016516289114952086]},{"name":"book","coordinates":[0.13041079219282298,0.5216302235921224,0.05237665183055992,0.014069894949595133]},{"name":"vase","coordinates":[0.39303032257272014,0.48235273361206055,0.017967042849665334,0.027735177675882974]}]}
