{"src":"https://a0.muscache.com/im/pictures/13824d3e-6277-4449-b59a-d382fe57105c.jpg?aki_policy=xx_large","name":"Modern City Centre Apt.","listingId":5484709,"photoId":"1186-6","tags":[{"name":"diningtable","coordinates":[0.5016804218292237,0.6888767878214518,0.2434391975402832,0.3312840461730957]},{"name":"tvmonitor","coordinates":[0.06596786379814149,0.6269364674886068,0.13500690460205078,0.5011915524800619]},{"name":"sofa","coordinates":[0.9072221755981446,0.8497285842895508,0.1849206805229187,0.2910462379455566]},{"name":"chair","coordinates":[0.40038909912109377,0.6857773462931315,0.11114108562469482,0.3184029261271159]},{"name":"chair","coordinates":[0.5946908473968506,0.6695805231730143,0.05751602053642273,0.3197300910949707]},{"name":"remote","coordinates":[0.6008931159973144,0.9318335851033529,0.08216129541397095,0.03165187239646912]},{"name":"bottle","coordinates":[0.48883566856384275,0.5073003768920898,0.016630172729492188,0.06797075271606445]}]}
