{"src":"https://a0.muscache.com/im/pictures/4ca3d8a1-dcae-425c-9537-29dc063a2923.jpg?aki_policy=xx_large","name":"市中心圆融吃喝玩乐综合体上Luci-home","listingId":21237568,"photoId":"1191-2","tags":[{"name":"bed","coordinates":[0.01721954345703125,0.6118585427602132,0.9394403457641601,0.3810133934020996]},{"name":"sofa","coordinates":[0.6601580739021301,0.45820021629333496,0.27292191982269287,0.26800483067830405]},{"name":"pottedplant","coordinates":[0.6902968049049377,0.2558619896570841,0.12808568477630616,0.2641713301340739]},{"name":"chair","coordinates":[0.3089280426502228,0.49661956628163656,0.119041907787323,0.15521464347839356]},{"name":"chair","coordinates":[0.4396260499954224,0.495216417312622,0.1089667797088623,0.15219335556030272]}]}
