{"src":"https://a0.muscache.com/im/pictures/94746418/6f92cd9c_original.jpg?aki_policy=xx_large","name":"Double bedroom 2nd floor","listingId":5625302,"photoId":"1196-4","tags":[{"name":"chair","coordinates":[0.4042247466255059,0.8497260411580404,0.2015408704700147,0.2920260429382324]},{"name":"laptop","coordinates":[0.8378687978580298,0.7629220962524415,0.22288902793586737,0.2373751163482666]},{"name":"vase","coordinates":[0.5721645734168046,0.647076161702474,0.06857641134479626,0.19543727238972983]},{"name":"chair","coordinates":[0.320462168622666,0.6307017644246419,0.06928403067009865,0.15061543782552084]},{"name":"chair","coordinates":[0.4103734435361479,0.6512247085571289,0.11027489803221578,0.06841391722361247]},{"name":"keyboard","coordinates":[0.832416413723326,0.8335267384847005,0.17583560452380542,0.04121514956156413]},{"name":"cup","coordinates":[0.8518443665493929,0.6198945999145508,0.03962477907878323,0.06950601736704508]}]}
