{"src":"https://a0.muscache.com/im/pictures/70805846/151ec81e_original.jpg?aki_policy=xx_large","name":"Stadsappartement in het centrum","listingId":5648329,"photoId":"1197-1","tags":[{"name":"chair","coordinates":[0.7750767707824707,0.7921469370524089,0.34096736907958985,0.43357903162638345]},{"name":"chair","coordinates":[0.4698192119598389,0.8307125091552734,0.21198666095733643,0.3384096145629883]},{"name":"microwave","coordinates":[0.0879198968410492,0.3708896319071452,0.156434166431427,0.11321627298990886]},{"name":"chair","coordinates":[0.6746206283569336,0.583105723063151,0.12407180070877075,0.13844984372456867]},{"name":"pottedplant","coordinates":[0.7782020092010498,0.5696711222330729,0.08771228790283203,0.09801935354868571]},{"name":"bowl","coordinates":[0.2541357040405273,0.5304457982381184,0.04313018321990967,0.03582752545674642]}]}
