{"src":"https://a0.muscache.com/im/pictures/c8ad2bed-f8ae-4b7c-96ae-89d065c878d7.jpg?aki_policy=xx_large","name":"독채형 '아임하우스' 장태산 휴양림 도보5분. 낭만적인 전원생활 체험","listingId":21281600,"photoId":"1199-25","tags":[{"name":"car","coordinates":[0.6609056115150451,0.6978079160054524,0.3421852827072144,0.29993762969970705]},{"name":"car","coordinates":[0.549858546257019,0.7588518142700196,0.2194469928741455,0.1678638458251953]},{"name":"diningtable","coordinates":[0.019946104288101188,0.8604284524917603,0.13870642185211182,0.13819677035013836]},{"name":"bench","coordinates":[0.019946104288101188,0.8604284524917603,0.13870642185211182,0.13819677035013836]},{"name":"person","coordinates":[0.4056949004530907,0.7563575585683187,0.04426195919513702,0.1701375643412272]},{"name":"person","coordinates":[0.3100305125117302,0.7892067233721415,0.04504570066928863,0.12982261180877686]},{"name":"person","coordinates":[0.5702915400266647,0.7581211924552917,0.039766746759414676,0.07285622755686443]}]}
