{"src":"https://a0.muscache.com/im/pictures/3c3879da-d06f-454c-a303-ffc2a509faf9.jpg?aki_policy=xx_large","name":"독채형 '아임하우스' 장태산 휴양림 도보5분. 낭만적인 전원생활 체험","listingId":21281600,"photoId":"1199-12","tags":[{"name":"sofa","coordinates":[0.6698798656463623,0.5762483596801757,0.377016544342041,0.2949769337972005]},{"name":"tvmonitor","coordinates":[0.24402718544006347,0.38268540700276693,0.22136735916137695,0.23321377436319987]},{"name":"pottedplant","coordinates":[0.08186102509498597,0.6985587437947591,0.11629278659820556,0.15459933280944824]},{"name":"pottedplant","coordinates":[0.4116198062896729,0.2777613639831543,0.11047627925872802,0.08474752108256021]},{"name":"vase","coordinates":[0.08055906295776367,0.7417572021484375,0.07237890362739563,0.07547191778818767]},{"name":"vase","coordinates":[0.22335665225982665,0.537087885538737,0.019044362008571625,0.03577860991160075]}]}
