{"src":"https://a0.muscache.com/im/pictures/c8ad2bed-f8ae-4b7c-96ae-89d065c878d7.jpg?aki_policy=xx_large","name":"독채형 '아임하우스' 장태산 휴양림 도보5분. 낭만적인 전원생활 체험","listingId":21281600,"photoId":"1199-25","tags":[{"name":"car","coordinates":[0.8319982528686524,0.847776730855306,0.3421852827072144,0.29993762969970705]},{"name":"car","coordinates":[0.6595820426940918,0.8427837371826172,0.2194469928741455,0.1678638458251953]},{"name":"diningtable","coordinates":[0.0892993152141571,0.9295268376668294,0.13870642185211182,0.13819677035013836]},{"name":"bench","coordinates":[0.0892993152141571,0.9295268376668294,0.13870642185211182,0.13819677035013836]},{"name":"person","coordinates":[0.4278258800506592,0.8414263407389323,0.04426195919513702,0.1701375643412272]},{"name":"person","coordinates":[0.3325533628463745,0.8541180292765299,0.04504570066928863,0.12982261180877686]},{"name":"person","coordinates":[0.5901749134063721,0.794549306233724,0.039766746759414676,0.07285622755686443]}]}
