{"src":"https://a0.muscache.com/im/pictures/3c3879da-d06f-454c-a303-ffc2a509faf9.jpg?aki_policy=xx_large","name":"독채형 '아임하우스' 장태산 휴양림 도보5분. 낭만적인 전원생활 체험","listingId":21281600,"photoId":"1199-12","tags":[{"name":"sofa","coordinates":[0.48137159347534175,0.42875989278157545,0.377016544342041,0.2949769337972005]},{"name":"tvmonitor","coordinates":[0.133343505859375,0.266078519821167,0.22136735916137695,0.23321377436319987]},{"name":"pottedplant","coordinates":[0.023714631795883186,0.621259077390035,0.11629278659820556,0.15459933280944824]},{"name":"pottedplant","coordinates":[0.35638166666030885,0.2353876034418742,0.11047627925872802,0.08474752108256021]},{"name":"vase","coordinates":[0.04436961114406586,0.7040212432543437,0.07237890362739563,0.07547191778818767]},{"name":"vase","coordinates":[0.21383447125554084,0.5191985805829367,0.019044362008571625,0.03577860991160075]}]}
