{"src":"https://a0.muscache.com/im/pictures/354e84f7-9220-4101-b812-f1ac34ec88a6.jpg?aki_policy=xx_large","name":"Spacious house near beach &amp; centre","listingId":10383296,"photoId":"12-1","tags":[{"name":"sofa","coordinates":[0.8673244052463107,0.7354935963948568,0.24668733808729384,0.5143854141235351]},{"name":"pottedplant","coordinates":[0.5839821285671658,0.6513881047566732,0.1386938836839464,0.20891413688659669]},{"name":"tvmonitor","coordinates":[0.1482172860039605,0.4922823270161947,0.1169640753004286,0.2115869681040446]},{"name":"pottedplant","coordinates":[0.06585372818840875,0.5742969512939453,0.0878397994571262,0.19883701006571453]},{"name":"chair","coordinates":[0.41414854261610246,0.40254332224527994,0.05118909411960178,0.11894954045613607]},{"name":"chair","coordinates":[0.47048462761773,0.40227104822794596,0.04554075664944119,0.1264086405436198]},{"name":"vase","coordinates":[0.5847763909233941,0.7204391479492187,0.035818592707316084,0.10091520150502523]}]}
