{"src":"https://a0.muscache.com/im/pictures/c5c392e1-6ff6-4e08-a149-ef11f315d361.jpg?aki_policy=xx_large","name":"Spacious house near beach &amp; centre","listingId":10383296,"photoId":"12-2","tags":[{"name":"diningtable","coordinates":[0.25190707312689886,0.8137250264485677,0.38134587605794273,0.31970739364624023]},{"name":"chair","coordinates":[0.36274163987901475,0.893847910563151,0.20252134535047744,0.19101104736328126]},{"name":"chair","coordinates":[0.14212590323554145,0.8889146169026693,0.14987565146552193,0.23777523040771484]},{"name":"person","coordinates":[0.07121842172410753,0.2589440663655599,0.1426746792263455,0.24661701520284016]},{"name":"tvmonitor","coordinates":[0.5554609934488932,0.5170858383178711,0.16262459225124784,0.13252631028493245]},{"name":"pottedplant","coordinates":[0.22737547556559246,0.6279937744140625,0.0821211020151774,0.22989153861999512]},{"name":"vase","coordinates":[0.22783018747965494,0.6833242416381836,0.050467729568481445,0.08218547503153482]},{"name":"chair","coordinates":[0.3131799062093099,0.6703076680501302,0.060182115766737196,0.06293717622756959]}]}
