{"src":"https://a0.muscache.com/im/pictures/1f6b750e-5dfd-4775-8b44-e555892dd580.jpg?aki_policy=xx_large","name":"Newly furnished cozy studio @ PH Johor Malaysia","listingId":21282998,"photoId":"1200-8","tags":[{"name":"diningtable","coordinates":[0.39190756537336036,0.5211818854014079,0.4948331343788004,0.48125505447387695]},{"name":"chair","coordinates":[0.41561252363362683,0.8374074220657348,0.19523002407134946,0.15513256390889485]},{"name":"vase","coordinates":[0.49428748024098157,0.4929973920186361,0.032995092777679,0.14227975209554036]},{"name":"bottle","coordinates":[0.44111872017590675,0.5045829057693482,0.032642226653268054,0.12920190493265787]},{"name":"vase","coordinates":[0.44111872017590675,0.5045829057693482,0.032642226653268054,0.12920190493265787]},{"name":"bowl","coordinates":[0.5562903939062229,0.6469122489293416,0.0602624613514702,0.06293107668558756]},{"name":"bowl","coordinates":[0.6118557514458419,0.6096752981344858,0.05238660397506406,0.05539000431696574]},{"name":"cup","coordinates":[0.7156322723134182,0.6357958078384399,0.0384068783991365,0.067207670211792]}]}
