{"src":"https://a0.muscache.com/im/pictures/32747077-fed8-4437-a439-f5156dd2c9a1.jpg?aki_policy=xx_large","name":"Newly furnished cozy studio @ PH Johor Malaysia","listingId":21282998,"photoId":"1200-3","tags":[{"name":"chair","coordinates":[0.0937896622551812,0.8180918375651042,0.17625452677408854,0.3417276700337728]},{"name":"refrigerator","coordinates":[0.7038854810926649,0.5640089670817058,0.11169589360555013,0.28469025293986]},{"name":"chair","coordinates":[0.09437842898898655,0.6976568857828777,0.13947089513142905,0.1875737190246582]},{"name":"pottedplant","coordinates":[0.5849773830837673,0.8414667129516602,0.05157546997070313,0.1380314032236735]},{"name":"bottle","coordinates":[0.023643591668870714,0.46432412465413414,0.025306736098395455,0.13769041697184245]},{"name":"vase","coordinates":[0.023643591668870714,0.46432412465413414,0.025306736098395455,0.13769041697184245]},{"name":"bottle","coordinates":[0.04573667844136556,0.4784294446309408,0.023439036475287542,0.10562229951222737]}]}
