{"src":"https://a0.muscache.com/im/pictures/70884665/da896e1f_original.jpg?aki_policy=xx_large","name":"Lovely place in The Hague center","listingId":5671322,"photoId":"1200-8","tags":[{"name":"car","coordinates":[0.7106258521550534,0.7582525889078776,0.21889953163832382,0.2520123481750488]},{"name":"motorbike","coordinates":[0.06259747984131939,0.857565434773763,0.12085213752488148,0.2169603665669759]},{"name":"person","coordinates":[0.1618916956770929,0.798641586303711,0.07981100068352184,0.30225744247436526]},{"name":"person","coordinates":[0.42978390678214745,0.7407957712809244,0.056927199216233085,0.16581152280171713]},{"name":"person","coordinates":[0.5174245932667526,0.7002298355102539,0.04247377196186948,0.13996376991271972]},{"name":"motorbike","coordinates":[0.42829960189617083,0.78632017771403,0.04090004922364,0.13608250617980958]},{"name":"bicycle","coordinates":[0.42829960189617083,0.78632017771403,0.04090004922364,0.13608250617980958]},{"name":"bicycle","coordinates":[0.8974229141257825,0.7033126831054688,0.04701335721584764,0.10345369974772135]},{"name":"person","coordinates":[0.47391097640429397,0.7284923553466797,0.031646360529364474,0.1354089101155599]},{"name":"bicycle","coordinates":[0.5184627752065307,0.7551641464233398,0.03165815013497848,0.10921944777170817]},{"name":"bicycle","coordinates":[0.5298961701203516,0.7479902903238932,0.02728038894585903,0.10026276111602783]}]}
