{"src":"https://a0.muscache.com/im/pictures/74390992/f027fef6_original.jpg?aki_policy=xx_large","name":"Lovely place in The Hague center","listingId":5671322,"photoId":"1200-3","tags":[{"name":"oven","coordinates":[0.779894112312592,0.7482589721679688,0.2946863125316179,0.30265747706095375]},{"name":"microwave","coordinates":[0.5930640618532699,0.275146484375,0.1545909351070985,0.20424184799194336]},{"name":"chair","coordinates":[0.0416872531197543,0.7418227513631185,0.07930572599589254,0.10582948525746663]},{"name":"spoon","coordinates":[0.624039291370608,0.4893452008565267,0.02569937969148817,0.15874161720275878]},{"name":"spoon","coordinates":[0.6457579713081769,0.4880475362141927,0.024952779717968176,0.154522705078125]},{"name":"spoon","coordinates":[0.6053131754736939,0.49112078348795574,0.02431702491024823,0.15401067733764648]},{"name":"spoon","coordinates":[0.5847085331010854,0.49126081466674804,0.02326235936089769,0.14920164744059244]}]}
