{"src":"https://a0.muscache.com/im/pictures/1f6b750e-5dfd-4775-8b44-e555892dd580.jpg?aki_policy=xx_large","name":"Newly furnished cozy studio @ PH Johor Malaysia","listingId":21282998,"photoId":"1200-8","tags":[{"name":"diningtable","coordinates":[0.6393241325627605,0.7618094126383463,0.4948331343788004,0.48125505447387695]},{"name":"chair","coordinates":[0.5132275356693016,0.9149737040201823,0.19523002407134946,0.15513256390889485]},{"name":"vase","coordinates":[0.5107850266298211,0.5641372680664063,0.032995092777679,0.14227975209554036]},{"name":"bottle","coordinates":[0.4574398335025408,0.5691838582356771,0.032642226653268054,0.12920190493265787]},{"name":"vase","coordinates":[0.4574398335025408,0.5691838582356771,0.032642226653268054,0.12920190493265787]},{"name":"bowl","coordinates":[0.586421624581958,0.6783777872721354,0.0602624613514702,0.06293107668558756]},{"name":"bowl","coordinates":[0.6380490534333739,0.6373703002929687,0.05238660397506406,0.05539000431696574]},{"name":"cup","coordinates":[0.7348357115129864,0.669399642944336,0.0384068783991365,0.067207670211792]}]}
