{"src":"https://a0.muscache.com/im/pictures/92661fd6-531e-44c1-b178-bb797d3d901e.jpg?aki_policy=xx_large","name":"Newly furnished cozy studio @ PH Johor Malaysia","listingId":21282998,"photoId":"1200-5","tags":[{"name":"bed","coordinates":[0.1481514745822294,0.6599254608154297,0.30764967737469595,0.3964426358540853]},{"name":"sofa","coordinates":[0.5055590345264723,0.5403688430786133,0.2559767584572077,0.20070570309956867]},{"name":"chair","coordinates":[0.7520520367334086,0.5875267664591471,0.07413337394709053,0.18695367177327474]},{"name":"pottedplant","coordinates":[0.45284018340916,0.6324782053629557,0.02366361690942739,0.0559652845064799]},{"name":"vase","coordinates":[0.45284018340916,0.6324782053629557,0.02366361690942739,0.0559652845064799]},{"name":"vase","coordinates":[0.8127980924795866,0.3980756441752116,0.01567074853235686,0.0473830779393514]}]}
