{"src":"https://a0.muscache.com/im/pictures/92661fd6-531e-44c1-b178-bb797d3d901e.jpg?aki_policy=xx_large","name":"Newly furnished cozy studio @ PH Johor Malaysia","listingId":21282998,"photoId":"1200-5","tags":[{"name":"bed","coordinates":[-0.005673364105118567,0.461704142888387,0.30764967737469595,0.3964426358540853]},{"name":"sofa","coordinates":[0.3775706552978685,0.440015991528829,0.2559767584572077,0.20070570309956867]},{"name":"chair","coordinates":[0.7149853497598633,0.4940499305725098,0.07413337394709053,0.18695367177327474]},{"name":"pottedplant","coordinates":[0.4410083749544463,0.6044955631097158,0.02366361690942739,0.0559652845064799]},{"name":"vase","coordinates":[0.4410083749544463,0.6044955631097158,0.02366361690942739,0.0559652845064799]},{"name":"vase","coordinates":[0.8049627182134081,0.3743841052055359,0.01567074853235686,0.0473830779393514]}]}
