{"src":"https://a0.muscache.com/im/pictures/32747077-fed8-4437-a439-f5156dd2c9a1.jpg?aki_policy=xx_large","name":"Newly furnished cozy studio @ PH Johor Malaysia","listingId":21282998,"photoId":"1200-3","tags":[{"name":"chair","coordinates":[0.005662398868136936,0.6472280025482178,0.17625452677408854,0.3417276700337728]},{"name":"refrigerator","coordinates":[0.6480375342898899,0.42166384061177575,0.11169589360555013,0.28469025293986]},{"name":"chair","coordinates":[0.024642981423272023,0.6038700262705485,0.13947089513142905,0.1875737190246582]},{"name":"pottedplant","coordinates":[0.5591896480984158,0.7724510113398234,0.05157546997070313,0.1380314032236735]},{"name":"bottle","coordinates":[0.010990223619672987,0.3954789161682129,0.025306736098395455,0.13769041697184245]},{"name":"vase","coordinates":[0.010990223619672987,0.3954789161682129,0.025306736098395455,0.13769041697184245]},{"name":"bottle","coordinates":[0.03401716020372179,0.4256182948748271,0.023439036475287542,0.10562229951222737]}]}
