{"src":"https://a0.muscache.com/im/pictures/372f23d2-e9a7-4f06-b9f8-8a1b7dbbaa0a.jpg?aki_policy=xx_large","name":"Belgareti  Guesthouse Jayagiri  Owner's Pavilion","listingId":21288799,"photoId":"1201-8","tags":[{"name":"chair","coordinates":[0.18386728763580323,0.60534029006958,0.1970911979675293,0.38522612253824867]},{"name":"chair","coordinates":[0.6160321831703186,0.6143815358479818,0.17135722637176515,0.36775118509928384]},{"name":"chair","coordinates":[0.3863999307155609,0.6731843948364258,0.19886904954910278,0.31331672668457033]},{"name":"chair","coordinates":[0.005091834068298343,0.5446897745132446,0.21105270385742186,0.23818697929382324]},{"name":"chair","coordinates":[0.2532356023788452,0.542571481068929,0.16445579528808593,0.2587352116902669]},{"name":"refrigerator","coordinates":[0.8910089731216431,0.45042511622111003,0.10141596794128419,0.24360472361246746]},{"name":"chair","coordinates":[0.7872071444988251,0.5873334725697835,0.07595134973526001,0.28068405787150064]},{"name":"pottedplant","coordinates":[0.21379878520965576,0.5415686925252279,0.05058374404907227,0.09582544962565104]},{"name":"chair","coordinates":[0.07211210131645203,0.5049361268679301,0.07380934953689575,0.052739898363749184]},{"name":"bowl","coordinates":[0.6603273808956147,0.5966631670792897,0.03649636507034302,0.03810893297195435]},{"name":"pottedplant","coordinates":[0.6603273808956147,0.5966631670792897,0.03649636507034302,0.03810893297195435]}]}
