{"src":"https://a0.muscache.com/im/pictures/71752744/daf87729_original.jpg?aki_policy=xx_large","name":"Well locatad apartment Beach/Centre","listingId":5764446,"photoId":"1202-0","tags":[{"name":"chair","coordinates":[0.24837558887622974,0.712769889831543,0.23092813845034,0.30080788930257163]},{"name":"chair","coordinates":[0.4596986276132089,0.7066439310709636,0.1988289444534867,0.2732534408569336]},{"name":"oven","coordinates":[0.8832810013382523,0.6327221552530925,0.22383305584942853,0.2114742437998454]},{"name":"diningtable","coordinates":[0.3542725739655671,0.5899460474650066,0.2908374645091869,0.08135107358296713]},{"name":"pottedplant","coordinates":[0.37441931830512154,0.5055185635884603,0.15362538938169126,0.09615239302317301]},{"name":"tvmonitor","coordinates":[0.5834473221390336,0.44738168716430665,0.1359353948522497,0.049932424227396646]},{"name":"chair","coordinates":[0.510478040907118,0.5705169677734375,0.04931966640331127,0.047906049092610675]},{"name":"cup","coordinates":[0.3779809174714265,0.5407522201538086,0.05458219669483326,0.032141868273417154]},{"name":"bottle","coordinates":[0.7555175216109664,0.47058312098185223,0.023013182039614076,0.05170275370279948]}]}
