{"src":"https://z0.muscache.cn/im/pictures/8ec56876-b096-493e-9f94-c861c90af7b0.jpg?aki_policy=xx_large","name":"LOFT PRIVADO ALEGRÍA \"C\" ¡¡A Estrenar!!","listingId":21298278,"photoId":"1205-2","tags":[{"name":"refrigerator","coordinates":[0.8437161027804867,0.2768193244934082,0.1490514699540649,0.7483919143676758]},{"name":"oven","coordinates":[0.012358664139918735,0.6732291698455811,0.30283066029343053,0.30591554641723634]},{"name":"microwave","coordinates":[0.609318315402523,0.14404697418212892,0.22951846063054154,0.16864233016967772]},{"name":"sink","coordinates":[0.589631410898519,0.730630882581075,0.29154607483674155,0.09446841875712077]},{"name":"spoon","coordinates":[0.47971016972718217,0.4787729024887085,0.02021072637056608,0.187131929397583]},{"name":"spoon","coordinates":[0.4991341844221813,0.4848118861516317,0.018796093109088415,0.17047556241353354]}]}
