{"src":"https://z0.muscache.cn/im/pictures/68be06e1-9665-4447-a4bc-2f1fde57dcd4.jpg?aki_policy=xx_large","name":"LOFT PRIVADO ALEGRÍA \"C\" ¡¡A Estrenar!!","listingId":21298278,"photoId":"1205-2","tags":[{"name":"microwave","coordinates":[0.7531084636322148,0.7343844731648763,0.3487113347802938,0.32473414738972983]},{"name":"clock","coordinates":[0.337140503778577,0.26361447970072427,0.23888525611336275,0.391419506072998]},{"name":"pottedplant","coordinates":[0.9577645207645167,0.7225431442260742,0.07735384754080103,0.2703471501668294]},{"name":"cup","coordinates":[0.3423013488175309,0.8578831354777018,0.13439288822434045,0.1464649518330892]},{"name":"bowl","coordinates":[0.3423013488175309,0.8578831354777018,0.13439288822434045,0.1464649518330892]},{"name":"cup","coordinates":[0.08873947207221401,0.8617159525553385,0.0815437645839219,0.2284563700358073]},{"name":"cup","coordinates":[0.2488708283871371,0.873985481262207,0.10874351108853442,0.1513664722442627]},{"name":"cup","coordinates":[0.1577086362454092,0.8572612762451172,0.05820663515815151,0.19905087153116863]},{"name":"bowl","coordinates":[0.5093289562326148,0.8316956202189127,0.19616431818552243,0.04504329760869344]},{"name":"bowl","coordinates":[0.3399639527555633,0.7759922663370769,0.13872149259225053,0.0628247857093811]},{"name":"bowl","coordinates":[0.5085537927704494,0.8059050877888997,0.20078312604583187,0.03449800411860148]}]}
