{"src":"https://z0.muscache.cn/im/pictures/68be06e1-9665-4447-a4bc-2f1fde57dcd4.jpg?aki_policy=xx_large","name":"LOFT PRIVADO ALEGRÍA \"C\" ¡¡A Estrenar!!","listingId":21298278,"photoId":"1205-2","tags":[{"name":"microwave","coordinates":[0.7520624796549479,0.7343844731648763,0.34822701348198787,0.32473414738972983]},{"name":"clock","coordinates":[0.33667225307888454,0.26361447970072427,0.2385534710354275,0.391419506072998]},{"name":"pottedplant","coordinates":[0.9564342922634549,0.7225431442260742,0.0772464116414388,0.2703471501668294]},{"name":"cup","coordinates":[0.3418259302775065,0.8578831354777018,0.13420623143513996,0.1464649518330892]},{"name":"bowl","coordinates":[0.3418259302775065,0.8578831354777018,0.13420623143513996,0.1464649518330892]},{"name":"cup","coordinates":[0.08861622280544705,0.8617159525553385,0.08143050935533312,0.2284563700358073]},{"name":"cup","coordinates":[0.2485251744588216,0.873985481262207,0.10859247843424479,0.1513664722442627]},{"name":"cup","coordinates":[0.15748959647284613,0.8572612762451172,0.05812579260932075,0.19905087153116863]},{"name":"bowl","coordinates":[0.5086215549045139,0.8316956202189127,0.1958918677435981,0.04504329760869344]},{"name":"bowl","coordinates":[0.33949178059895835,0.7759922663370769,0.13852882385253906,0.0628247857093811]},{"name":"bowl","coordinates":[0.5078474680582682,0.8059050877888997,0.20050426059299045,0.03449800411860148]}]}
