{"src":"https://a0.muscache.com/im/pictures/78206040/118d514b_original.jpg?aki_policy=xx_large","name":"Charming house beach, city centre9","listingId":5844362,"photoId":"1209-9","tags":[{"name":"diningtable","coordinates":[1.2814981016085913,0.9124493916829427,1.1370890119434458,0.15084031422932942]},{"name":"chair","coordinates":[0.25514763576091215,0.4330973307291667,0.4364239627984421,0.2155878225962321]},{"name":"chair","coordinates":[0.9128444075232762,0.9173546473185221,0.3483050861189851,0.16400159200032552]},{"name":"chair","coordinates":[1.5015537858360988,0.8344225565592448,0.2331482203660813,0.14400959014892578]},{"name":"bottle","coordinates":[1.034329934809412,0.5833288828531901,0.05706479908090777,0.1068122386932373]},{"name":"cup","coordinates":[0.7575035432798672,0.6110558191935221,0.07781102453361219,0.07737550735473633]}]}
