{"src":"https://a0.muscache.com/im/pictures/78206108/c4b03334_original.jpg?aki_policy=xx_large","name":"Charming house beach, city centre9","listingId":5844362,"photoId":"1209-8","tags":[{"name":"diningtable","coordinates":[0.2588671641458563,0.862252680460612,0.527128577495516,0.24886306126912436]},{"name":"chair","coordinates":[0.4701852917758922,0.8917097727457682,0.11030034057527364,0.15609723726908367]},{"name":"chair","coordinates":[0.2134095136517545,0.8009147644042969,0.12046455793121091,0.12705048720041912]},{"name":"bowl","coordinates":[0.4060473578918322,0.45167900721232096,0.043612212797927014,0.052849618593851726]},{"name":"bowl","coordinates":[0.32538632244814664,0.4687439282735189,0.05832120265216841,0.032336511214574176]},{"name":"cup","coordinates":[0.2577477820749402,0.26335736910502117,0.02095894325823359,0.036252530415852864]},{"name":"cup","coordinates":[0.38403046350430003,0.35045557022094725,0.02073495259962159,0.036242135365804035]},{"name":"cup","coordinates":[0.3635755122102649,0.35387900670369465,0.018265821724976573,0.02869659662246704]}]}
