{"src":"https://a0.muscache.com/im/pictures/08a377e1-917c-4d38-83b0-c6c9503cd955.jpg?aki_policy=xx_large","name":"Kamp Kamouflage Kanha Jungle Homestay","listingId":12638067,"photoId":"121-9","tags":[{"name":"diningtable","coordinates":[0.5066465926933024,0.7042951583862305,0.8293151431023992,0.5411429087320964]},{"name":"person","coordinates":[0.5493096151338664,0.2629884719848633,0.13884321273782488,0.42580394744873046]},{"name":"bowl","coordinates":[0.8117654559012083,0.5994085311889649,0.21025622371838057,0.20224289894104003]},{"name":"bowl","coordinates":[0.5678876470955755,0.5765391667683919,0.18618808369643167,0.2167135715484619]},{"name":"spoon","coordinates":[0.6310565295902513,0.8291993459065755,0.08349045394027349,0.24906959533691406]},{"name":"spoon","coordinates":[0.48389342497718185,0.8280396779378255,0.08680269350096977,0.21731863021850586]},{"name":"fork","coordinates":[0.8717143731256519,0.8242323557535808,0.06623217989904327,0.25892486572265627]},{"name":"fork","coordinates":[0.9367709736830667,0.8381550470987956,0.056100763100742135,0.282595157623291]},{"name":"spoon","coordinates":[0.520528313181828,0.8333518346150716,0.05872753498783032,0.25888309478759763]},{"name":"fork","coordinates":[0.9091588048178895,0.8329800287882487,0.0534652847905484,0.27867282231648766]},{"name":"spoon","coordinates":[0.5589978638544202,0.859696896870931,0.05286058895445334,0.22937904993693034]},{"name":"spoon","coordinates":[0.6021590995523296,0.8648855209350585,0.05888313113068009,0.20172049204508463]}]}
