{"src":"https://a0.muscache.com/im/pictures/08a377e1-917c-4d38-83b0-c6c9503cd955.jpg?aki_policy=xx_large","name":"Kamp Kamouflage Kanha Jungle Homestay","listingId":12638067,"photoId":"121-9","tags":[{"name":"diningtable","coordinates":[0.09198902114210278,0.4337237040201823,0.8293151431023992,0.5411429087320964]},{"name":"person","coordinates":[0.479888008764954,0.050086498260498075,0.13884321273782488,0.42580394744873046]},{"name":"bowl","coordinates":[0.7066373440420181,0.4982870817184448,0.21025622371838057,0.20224289894104003]},{"name":"bowl","coordinates":[0.47479360524735964,0.46818238099416093,0.18618808369643167,0.2167135715484619]},{"name":"spoon","coordinates":[0.5893113026201146,0.7046645482381185,0.08349045394027349,0.24906959533691406]},{"name":"spoon","coordinates":[0.44049207822669695,0.7193803628285725,0.08680269350096977,0.21731863021850586]},{"name":"fork","coordinates":[0.8385982831761303,0.6947699228922526,0.06623217989904327,0.25892486572265627]},{"name":"fork","coordinates":[0.9087205921326956,0.6968574682871501,0.056100763100742135,0.282595157623291]},{"name":"spoon","coordinates":[0.49116454568791285,0.7039102872212728,0.05872753498783032,0.25888309478759763]},{"name":"fork","coordinates":[0.8824261624226153,0.6936436176300049,0.0534652847905484,0.27867282231648766]},{"name":"spoon","coordinates":[0.5325675693771935,0.7450073719024658,0.05286058895445334,0.22937904993693034]},{"name":"spoon","coordinates":[0.5727175339869895,0.7640252749125163,0.05888313113068009,0.20172049204508463]}]}
