{"src":"https://a0.muscache.com/im/pictures/53ee1ce9-6ffa-427d-8892-f479b8bcdc84.jpg?aki_policy=xx_large","name":"Great City Appartment with Garden","listingId":5887183,"photoId":"1212-6","tags":[{"name":"sofa","coordinates":[0.8938610500759548,0.6443582534790039,0.20234688652886285,0.1934226671854655]},{"name":"pottedplant","coordinates":[0.46591665479871963,0.5299466768900554,0.07201544443766277,0.18787194887797037]},{"name":"chair","coordinates":[0.7999785529242621,0.6585690180460612,0.07836365169949001,0.15817826588948566]},{"name":"sink","coordinates":[0.37149997287326386,0.6697348276774089,0.15110526614718967,0.06569910049438477]},{"name":"vase","coordinates":[0.46839349534776475,0.5760388056437175,0.03585527737935384,0.08871070543924968]},{"name":"bottle","coordinates":[0.28347771962483725,0.6384994506835937,0.01863835917578803,0.08165900707244873]}]}
