{"src":"https://a0.muscache.com/im/pictures/e429f908-87b2-4b1c-b342-e7fc493759a5.jpg?aki_policy=xx_large","name":"Great City Appartment with Garden","listingId":5887183,"photoId":"1212-1","tags":[{"name":"sofa","coordinates":[0.16738968955145941,0.6227977752685547,0.3328210194905599,0.24556085268656414]},{"name":"chair","coordinates":[0.5124432881673177,0.7245642979939778,0.14986165364583334,0.30492238998413085]},{"name":"chair","coordinates":[0.43372476365831164,0.684487787882487,0.08385926352606879,0.26786734263102213]},{"name":"pottedplant","coordinates":[0.5310462103949652,0.5056836446126302,0.08325257301330566,0.12031354109446207]},{"name":"vase","coordinates":[0.5275811089409722,0.536450449625651,0.022065158685048422,0.05082241296768188]},{"name":"book","coordinates":[0.7785391065809462,0.33108816146850584,0.007859459850523207,0.04711430867513021]}]}
