{"src":"https://a0.muscache.com/im/pictures/3bca09e0-9fd1-4e7a-90db-b83b0274acb0.jpg?aki_policy=xx_large","name":"Royal pyramids Inn","listingId":21331240,"photoId":"1213-47","tags":[{"name":"person","coordinates":[0.013015794754028323,0.4206437746683757,0.17081259621514214,0.5787665685017903]},{"name":"diningtable","coordinates":[0.5819372177124024,0.7917547464370728,0.33431756761338977,0.18594228426615397]},{"name":"chair","coordinates":[0.5097140100267198,0.7959428151448568,0.16759785546196831,0.19907201131184896]},{"name":"chair","coordinates":[0.675496514638265,0.8864727218945821,0.2209053675333659,0.11132134596506754]},{"name":"cup","coordinates":[0.7250816596878898,0.8237614264090856,0.022584313816494412,0.03125318884849548]}]}
