{"src":"https://a0.muscache.com/im/pictures/6f5817c5-5429-4bf1-945a-5c1a6cb30e67.jpg?aki_policy=xx_large","name":"Royal pyramids Inn","listingId":21331240,"photoId":"1213-44","tags":[{"name":"person","coordinates":[0.1658441967434353,0.396175479888916,0.310385258992513,0.5887545903523763]},{"name":"person","coordinates":[0.5807204352484809,0.44847974777221683,0.2650806003146701,0.6013827641805013]},{"name":"diningtable","coordinates":[0.38363043467203783,0.7142091115315756,0.38926048278808595,0.2918487548828125]},{"name":"chair","coordinates":[0.07030787997775609,0.6726107120513916,0.2615845998128255,0.32596311569213865]},{"name":"chair","coordinates":[0.69429472817315,0.6885995388031005,0.2114980273776584,0.3205388069152832]},{"name":"person","coordinates":[0.3511575910780165,0.5046733220418294,0.08252733018663194,0.17519823710123697]},{"name":"cup","coordinates":[0.5103395740191141,0.6813824415206909,0.03540893925560845,0.08832383155822754]}]}
