{"src":"https://a0.muscache.com/im/pictures/22cf82b7-92b0-4b49-9708-74797f4b455a.jpg?aki_policy=xx_large","name":"Royal pyramids Inn","listingId":21331240,"photoId":"1213-12","tags":[{"name":"diningtable","coordinates":[-0.0076482137044270315,0.30732782681783033,1.0239591245298032,0.5050318717956543]},{"name":"chair","coordinates":[0.5280447076868129,0.22735302448272704,0.4538367094816985,0.20670390129089355]},{"name":"bottle","coordinates":[0.3163475954974139,0.3039108117421468,0.12402590998896847,0.18376391728719074]},{"name":"bottle","coordinates":[0.8449263961226852,0.3924855589866638,0.14007319697627316,0.10058739185333251]},{"name":"cup","coordinates":[0.39943659747088395,0.5385297338167826,0.12424517031069156,0.09545551141103109]},{"name":"hot-dog","coordinates":[0.34351162380642364,0.49934285283088686,0.2004100658275463,0.04982649882634481]},{"name":"bottle","coordinates":[0.7115294774373372,0.36811634302139284,0.0945392891212746,0.0924211581548055]},{"name":"carrot","coordinates":[0.6855773431283456,0.49448978106180824,0.21225663644296153,0.032563432057698564]},{"name":"hot-dog","coordinates":[0.6855773431283456,0.49448978106180824,0.21225663644296153,0.032563432057698564]}]}
