{"src":"https://a0.muscache.com/im/pictures/3bca09e0-9fd1-4e7a-90db-b83b0274acb0.jpg?aki_policy=xx_large","name":"Royal pyramids Inn","listingId":21331240,"photoId":"1213-47","tags":[{"name":"person","coordinates":[0.09842209286159939,0.7100270589192709,0.17081259621514214,0.5787665685017903]},{"name":"diningtable","coordinates":[0.7490960015190973,0.8847258885701498,0.33431756761338977,0.18594228426615397]},{"name":"chair","coordinates":[0.593512937757704,0.8954788208007812,0.16759785546196831,0.19907201131184896]},{"name":"chair","coordinates":[0.7859491984049479,0.9421333948771159,0.2209053675333659,0.11132134596506754]},{"name":"cup","coordinates":[0.7363738165961371,0.8393880208333333,0.022584313816494412,0.03125318884849548]}]}
