{"src":"https://a0.muscache.com/im/pictures/5d68ad18-acc2-47ac-bb69-b281b8e7acb7.jpg?aki_policy=xx_large","name":"Royal pyramids Inn","listingId":21331240,"photoId":"1213-23","tags":[{"name":"diningtable","coordinates":[0.5475528717041016,0.8678126017252604,0.9082404136657715,0.2354321320851644]},{"name":"person","coordinates":[0.5987738132476806,0.6460503260294597,0.08439497947692871,0.3340620040893555]},{"name":"person","coordinates":[0.4201981544494629,0.6599146525065104,0.08140380382537842,0.2915866216023763]},{"name":"person","coordinates":[0.3639041900634766,0.6321276346842448,0.07173495888710021,0.27678689956665037]},{"name":"person","coordinates":[0.5443140983581543,0.6305637359619141,0.06512645483016968,0.24289747873942058]},{"name":"person","coordinates":[0.48825750350952146,0.6277575174967448,0.06596810221672059,0.20314970016479492]},{"name":"vase","coordinates":[0.23142237663269044,0.8352176666259765,0.043910163640975955,0.08187816937764486]},{"name":"wine-glass","coordinates":[0.785000228881836,0.8280055363972981,0.03582785129547119,0.09519131183624267]},{"name":"cup","coordinates":[0.16076490879058838,0.838099988301595,0.04326803684234619,0.07421159744262695]},{"name":"cup","coordinates":[0.49334120750427246,0.8589796702067057,0.04646193981170654,0.06632585922876993]}]}
