{"src":"https://a0.muscache.com/im/pictures/6f5817c5-5429-4bf1-945a-5c1a6cb30e67.jpg?aki_policy=xx_large","name":"Royal pyramids Inn","listingId":21331240,"photoId":"1213-44","tags":[{"name":"person","coordinates":[0.3210368262396918,0.6905527750651042,0.310385258992513,0.5887545903523763]},{"name":"person","coordinates":[0.713260735405816,0.7491711298624675,0.2650806003146701,0.6013827641805013]},{"name":"diningtable","coordinates":[0.5782606760660808,0.8601334889729818,0.38926048278808595,0.2918487548828125]},{"name":"chair","coordinates":[0.20110017988416884,0.8355922698974609,0.2615845998128255,0.32596311569213865]},{"name":"chair","coordinates":[0.8000437418619791,0.8488689422607422,0.2114980273776584,0.3205388069152832]},{"name":"person","coordinates":[0.39242125617133244,0.5922724405924479,0.08252733018663194,0.17519823710123697]},{"name":"cup","coordinates":[0.5280440436469184,0.7255443572998047,0.03540893925560845,0.08832383155822754]}]}
