{"src":"https://a0.muscache.com/im/pictures/e9d21bde-7920-4225-a645-0bf93cb65248.jpg?aki_policy=xx_large","name":"Royal pyramids Inn","listingId":21331240,"photoId":"1213-11","tags":[{"name":"diningtable","coordinates":[0.047141986423068605,0.48071017265319826,0.8498983595106336,0.5098855018615722]},{"name":"bottle","coordinates":[0.6240231302049425,0.23855183919270834,0.09478821224636502,0.3989786783854167]},{"name":"knife","coordinates":[0.10229935116238063,0.6578617016474405,0.14375760820176867,0.18533174196879068]},{"name":"fork","coordinates":[0.21020571390787762,0.6583293040593465,0.14783528645833333,0.17695495287577312]},{"name":"cup","coordinates":[0.2547760327657064,0.520063026746114,0.13281082577175565,0.15801517168680826]}]}
