{"src":"https://a0.muscache.com/im/pictures/1f72c652-395e-41e0-b31d-2f898a4c49f1.jpg?aki_policy=xx_large","name":"Royal pyramids Inn","listingId":21331240,"photoId":"1213-37","tags":[{"name":"diningtable","coordinates":[1.030545383029514,0.7637381871541341,1.8662945217556424,0.4024960517883301]},{"name":"person","coordinates":[0.7499009026421442,0.3085682233174642,0.60447752210829,0.6151447931925456]},{"name":"person","coordinates":[1.2550906711154515,0.37731523513793946,0.6084585401746961,0.4601897875467936]},{"name":"chair","coordinates":[0.1929922315809462,0.4751595497131348,0.3790856255425347,0.385524050394694]},{"name":"chair","coordinates":[1.641452874077691,0.41859970092773435,0.30599659813774954,0.3307740847269694]},{"name":"chair","coordinates":[0.4076097700330946,0.4338571866353353,0.236537594265408,0.31732123692830405]},{"name":"bottle","coordinates":[0.2488592783610026,0.6248825709025065,0.1752325905693902,0.3368290583292643]},{"name":"cup","coordinates":[0.8844114515516494,0.8952775955200195,0.30597222646077477,0.16948774655659993]},{"name":"chair","coordinates":[1.8741711086697048,0.4856535275777181,0.26493375566270616,0.16655777295430502]},{"name":"bottle","coordinates":[1.8531431410047743,0.5860559463500976,0.14225421481662326,0.27100470860799153]},{"name":"bowl","coordinates":[0.5757473839653863,0.6998963673909505,0.2567693074544271,0.14957351684570314]},{"name":"bowl","coordinates":[1.552877468532986,0.5524152755737305,0.17459931903415257,0.07937772274017334]},{"name":"chair","coordinates":[1.2989733378092447,0.231238587697347,0.12599017884996203,0.053478888670603436]}]}
