{"src":"https://a0.muscache.com/im/pictures/9d33c5e9-927d-445c-90c2-a06095c8e36a.jpg?aki_policy=xx_large","name":"Waanzinnig uitzicht over zee!!!","listingId":5934954,"photoId":"1214-5","tags":[{"name":"sofa","coordinates":[0.7436553107367622,0.7049812952677409,0.5369491577148438,0.43109922409057616]},{"name":"diningtable","coordinates":[0.34825611114501953,0.7587594985961914,0.33210203382703996,0.3741117795308431]},{"name":"chair","coordinates":[0.17343825234307184,0.8048571268717448,0.2789754867553711,0.3863012631734212]},{"name":"chair","coordinates":[0.5331300523546006,0.775352414449056,0.24655636681450738,0.40039564768473307]},{"name":"chair","coordinates":[0.21108133527967665,0.6292183558146159,0.13005389107598198,0.1591209888458252]},{"name":"tvmonitor","coordinates":[0.6018558078342013,0.4442307790120443,0.10068428251478408,0.1000893751780192]}]}
