{"src":"https://a0.muscache.com/im/pictures/98150e04-c7d9-4607-8c24-d5ee3cd77239.jpg?aki_policy=xx_large","name":"Espaço Souza Zen Aparecida de Goiânia-Go","listingId":21344764,"photoId":"1215-1","tags":[{"name":"diningtable","coordinates":[0.011891259087456585,0.42658348083496095,0.4272118038601346,0.5550855000813802]},{"name":"chair","coordinates":[0.011891259087456585,0.42658348083496095,0.4272118038601346,0.5550855000813802]},{"name":"book","coordinates":[0.797471374935574,0.4325954894224803,0.07700786590576172,0.05223366816838582]},{"name":"vase","coordinates":[0.2366312265396118,0.4067581335703532,0.03591062227884929,0.09521716435750326]},{"name":"wine-glass","coordinates":[0.8991685681872897,0.230544908841451,0.03172912067837185,0.10025083223978679]},{"name":"wine-glass","coordinates":[0.9583649277687073,0.23199472824732464,0.029388647609286837,0.09881654580434164]},{"name":"wine-glass","coordinates":[0.9368050522274441,0.2338642358779907,0.027147579193115234,0.10167371431986491]}]}
