{"src":"https://a0.muscache.com/im/pictures/98150e04-c7d9-4607-8c24-d5ee3cd77239.jpg?aki_policy=xx_large","name":"Espaço Souza Zen Aparecida de Goiânia-Go","listingId":21344764,"photoId":"1215-1","tags":[{"name":"diningtable","coordinates":[0.22549716101752387,0.7041262308756511,0.4272118038601346,0.5550855000813802]},{"name":"chair","coordinates":[0.22549716101752387,0.7041262308756511,0.4272118038601346,0.5550855000813802]},{"name":"book","coordinates":[0.8359753078884549,0.4587123235066732,0.07700786590576172,0.05223366816838582]},{"name":"vase","coordinates":[0.25458653767903644,0.4543667157491048,0.03591062227884929,0.09521716435750326]},{"name":"wine-glass","coordinates":[0.9150331285264757,0.2806703249613444,0.03172912067837185,0.10025083223978679]},{"name":"wine-glass","coordinates":[0.9730592515733507,0.28140300114949546,0.029388647609286837,0.09881654580434164]},{"name":"wine-glass","coordinates":[0.9503788418240018,0.2847010930379232,0.027147579193115234,0.10167371431986491]}]}
