{"src":"https://a0.muscache.com/im/pictures/76130538/07320488_original.jpg?aki_policy=xx_large","name":"Amazing SkyStudio on 29th floor 729","listingId":6109720,"photoId":"1217-5","tags":[{"name":"sofa","coordinates":[0.6223849826388889,0.6874465306599935,0.40338880750868056,0.3891028722127279]},{"name":"diningtable","coordinates":[0.40669695536295575,0.5370951970418294,0.16548281775580512,0.2176023006439209]},{"name":"chair","coordinates":[0.3679495069715712,0.5742177963256836,0.08647517098320855,0.20762613614400227]},{"name":"chair","coordinates":[0.32541692521837023,0.5308203061421712,0.0605600463019477,0.18044788042704266]},{"name":"chair","coordinates":[0.43571484883626305,0.44467102686564125,0.0432033724255032,0.03665386438369751]},{"name":"bowl","coordinates":[0.3672197129991319,0.4325141906738281,0.04795702298482259,0.02679476737976074]}]}
