{"src":"https://a0.muscache.com/im/pictures/76131457/7a5bc30b_original.jpg?aki_policy=xx_large","name":"Amazing SkyStudio on 29th floor 729","listingId":6109720,"photoId":"1217-18","tags":[{"name":"diningtable","coordinates":[0.941071180605977,0.8153617858886719,1.6097755857559828,0.34835666020711265]},{"name":"chair","coordinates":[1.7223389352564475,0.8066566467285157,0.44312896161274395,0.3344182014465332]},{"name":"pottedplant","coordinates":[2.2103709394603857,0.46021289825439454,0.27641750179702024,0.3127964973449707]},{"name":"chair","coordinates":[1.5826838043099443,0.6552301406860351,0.2927531416088232,0.05693437655766805]},{"name":"wine-glass","coordinates":[0.684052704878456,0.6898334503173829,0.10360836894095608,0.1583039442698161]},{"name":"wine-glass","coordinates":[1.1193451721872096,0.7144243876139323,0.10692658123030538,0.14980600674947103]},{"name":"cup","coordinates":[1.2622187164193193,0.8012650171915691,0.10729864184298037,0.11134076118469238]},{"name":"wine-glass","coordinates":[1.516972878608562,0.5158872604370117,0.05656231025780887,0.07385011514027913]},{"name":"wine-glass","coordinates":[1.5710971080680762,0.5154843330383301,0.058682643791113646,0.06398032506306967]},{"name":"wine-glass","coordinates":[1.7827555716702486,0.5423263549804688,0.054625794790048136,0.05974785089492798]}]}
