{"src":"https://a0.muscache.com/im/pictures/76130275/7fda56a0_original.jpg?aki_policy=xx_large","name":"Amazing SkyStudio on 29th floor 729","listingId":6109720,"photoId":"1217-1","tags":[{"name":"sofa","coordinates":[0.33602364857991535,0.5747094472249349,0.1512753486633301,0.2624713261922201]},{"name":"pottedplant","coordinates":[0.8695796542697483,0.4860496520996094,0.07357223828633626,0.27282832463582357]},{"name":"tvmonitor","coordinates":[0.8048494127061632,0.5149899800618489,0.03899449507395426,0.11573352018992106]},{"name":"cup","coordinates":[0.9248286777072483,0.6641687393188477,0.03982073465983073,0.08221622308095296]},{"name":"vase","coordinates":[0.8700902303059895,0.5660308202107748,0.024003256691826715,0.11752200921376546]}]}
