{"src":"https://a0.muscache.com/im/pictures/99076181/0e2692a5_original.jpg?aki_policy=xx_large","name":"The Hague Centre","listingId":6122980,"photoId":"1218-2","tags":[{"name":"diningtable","coordinates":[0.19707535139962648,0.874121348063151,0.3173656980555616,0.24364314079284669]},{"name":"sofa","coordinates":[0.07327904611763812,0.7554082234700521,0.14914805695279926,0.30408649444580077]},{"name":"diningtable","coordinates":[0.5980777700714471,0.6845475514729817,0.16596400596931463,0.2307582378387451]},{"name":"tvmonitor","coordinates":[0.3824275416413308,0.6095986048380534,0.09900061399925078,0.10524271329243978]},{"name":"chair","coordinates":[0.6671819097056333,0.6224615732828777,0.04782648994493518,0.07889378070831299]},{"name":"pottedplant","coordinates":[0.574481256311349,0.5634348551432292,0.048240428338703636,0.0743576447168986]},{"name":"chair","coordinates":[0.6416598406825487,0.5923775990804037,0.02626247021620103,0.048930100599924725]}]}
