{"src":"https://a0.muscache.com/im/pictures/e280aa48-d24d-48eb-a360-c837d02364f1.jpg?aki_policy=xx_large","name":"Stunning 1920s House Near Centre","listingId":6136705,"photoId":"1219-5","tags":[{"name":"chair","coordinates":[0.5905454845189717,0.630517578125,0.07533772963310316,0.17481964429219563]},{"name":"chair","coordinates":[0.5300207230908814,0.6197394053141276,0.0584124908659488,0.16109835306803386]},{"name":"chair","coordinates":[0.6274123742285292,0.6046702702840169,0.03420461832399328,0.1535602887471517]},{"name":"clock","coordinates":[0.17624145422923548,0.345729128519694,0.06093842528957319,0.08168377081553141]},{"name":"bottle","coordinates":[0.23613703996979313,0.8922905604044596,0.02612035430356425,0.11988672415415445]},{"name":"bottle","coordinates":[0.1277355252452951,0.8976432164510091,0.026761268541444824,0.10172554651896158]},{"name":"bottle","coordinates":[0.1818366548116416,0.8942189534505208,0.02298736837543599,0.10175306002298991]},{"name":"bottle","coordinates":[0.20171119573219098,0.8958088556925455,0.02125763528370227,0.10772244930267334]},{"name":"bottle","coordinates":[0.21816133756465142,0.8933174133300781,0.01801999984762433,0.1123139222462972]},{"name":"book","coordinates":[0.16168407074101943,0.7182798385620117,0.05287748716139495,0.01954949100812276]},{"name":"vase","coordinates":[0.5634148906766124,0.5390890757242839,0.019340127830876762,0.03693499565124512]}]}
