{"src":"https://a0.muscache.com/im/pictures/c26dbe99-0ce9-4a7d-ace6-26f1c3a5325f.jpg?aki_policy=xx_large","name":"★Winter Garden★","listingId":21363658,"photoId":"1220-16","tags":[{"name":"refrigerator","coordinates":[0.2522545759376673,0.5220873514811198,0.46596384967420035,0.5280259132385254]},{"name":"pottedplant","coordinates":[0.09423510369703142,0.7097946802775065,0.17718685566740833,0.2763098080952962]},{"name":"bowl","coordinates":[0.6666394382779042,0.6692051569620768,0.13359445575983672,0.04024949868520101]},{"name":"cup","coordinates":[0.6435836367229323,0.4109184265136719,0.049967355340144876,0.03308637142181396]},{"name":"cup","coordinates":[0.6892031683911604,0.2849908192952474,0.05770309578938453,0.017708367109298705]},{"name":"cup","coordinates":[0.624988956165518,0.28519500096639,0.053528955202286455,0.01764426628748576]},{"name":"cup","coordinates":[0.7608507307489628,0.28669745127360025,0.05620810204450783,0.014101622502009074]}]}
