{"src":"https://a0.muscache.com/im/pictures/c26dbe99-0ce9-4a7d-ace6-26f1c3a5325f.jpg?aki_policy=xx_large","name":"★Winter Garden★","listingId":21363658,"photoId":"1220-16","tags":[{"name":"refrigerator","coordinates":[0.1840670108795166,0.5220873514811198,0.34000799655914304,0.5280259132385254]},{"name":"pottedplant","coordinates":[0.0687621772289276,0.7097946802775065,0.12929103374481202,0.2763098080952962]},{"name":"bowl","coordinates":[0.4864384651184082,0.6692051569620768,0.09748220443725586,0.04024949868520101]},{"name":"cup","coordinates":[0.46961493492126466,0.4109184265136719,0.03646055459976196,0.03308637142181396]},{"name":"cup","coordinates":[0.5029029369354248,0.2849908192952474,0.04210522770881653,0.017708367109298705]},{"name":"cup","coordinates":[0.45604662895202636,0.28519500096639,0.0390594094991684,0.01764426628748576]},{"name":"cup","coordinates":[0.5551832675933838,0.28669745127360025,0.041014349460601805,0.014101622502009074]}]}
