{"src":"https://a0.muscache.com/im/pictures/681260e3-ade3-484d-8028-864d5fb21306.jpg?aki_policy=xx_large","name":"★Winter Garden★","listingId":21363658,"photoId":"1220-5","tags":[{"name":"pottedplant","coordinates":[0.8322021484375,0.4999443372090658,0.3825268507003784,0.5847681045532227]},{"name":"sofa","coordinates":[0.15568119287490845,0.7294609705607097,0.32029409408569337,0.243632443745931]},{"name":"bed","coordinates":[0.15568119287490845,0.7294609705607097,0.32029409408569337,0.243632443745931]},{"name":"pottedplant","coordinates":[0.8715936660766601,0.8183045069376628,0.1733332633972168,0.22490997314453126]},{"name":"chair","coordinates":[0.6087323188781738,0.7088759740193685,0.18798835277557374,0.16344167391459147]},{"name":"pottedplant","coordinates":[0.3574526786804199,0.6761016209920248,0.10988696813583373,0.10443524519602458]},{"name":"chair","coordinates":[0.46140365600585936,0.6669617335001627,0.09590983390808105,0.11601104736328124]},{"name":"pottedplant","coordinates":[0.1634957194328308,0.6093948364257813,0.10892300605773926,0.09961531162261963]},{"name":"pottedplant","coordinates":[0.6572699546813965,0.6095455805460612,0.04484671354293823,0.033350618680318196]}]}
