{"src":"https://a0.muscache.com/im/pictures/681260e3-ade3-484d-8028-864d5fb21306.jpg?aki_policy=xx_large","name":"★Winter Garden★","listingId":21363658,"photoId":"1220-5","tags":[{"name":"pottedplant","coordinates":[0.6409387230873107,0.20756028493245443,0.3825268507003784,0.5847681045532227]},{"name":"sofa","coordinates":[-0.004465854167938238,0.6076447486877442,0.32029409408569337,0.243632443745931]},{"name":"bed","coordinates":[-0.004465854167938238,0.6076447486877442,0.32029409408569337,0.243632443745931]},{"name":"pottedplant","coordinates":[0.7849270343780517,0.7058495203653972,0.1733332633972168,0.22490997314453126]},{"name":"chair","coordinates":[0.514738142490387,0.6271551370620728,0.18798835277557374,0.16344167391459147]},{"name":"pottedplant","coordinates":[0.30250919461250303,0.6238839983940124,0.10988696813583373,0.10443524519602458]},{"name":"chair","coordinates":[0.41344873905181884,0.6089562098185222,0.09590983390808105,0.11601104736328124]},{"name":"pottedplant","coordinates":[0.10903421640396119,0.5595871806144714,0.10892300605773926,0.09961531162261963]},{"name":"pottedplant","coordinates":[0.6348465979099274,0.5928702712059021,0.04484671354293823,0.033350618680318196]}]}
