{"src":"https://a0.muscache.com/im/pictures/b9dfa26f-c90a-4b11-8d23-4afba5232556.jpg?aki_policy=xx_large","name":"Spacious well located \"BEACH-house\"","listingId":6190503,"photoId":"1223-20","tags":[{"name":"sofa","coordinates":[0.13698008855183919,0.6254305521647135,0.2564719518025716,0.31338459650675454]},{"name":"chair","coordinates":[0.6309324476453994,0.6813902537027995,0.14422266218397353,0.3471646308898926]},{"name":"chair","coordinates":[0.44408098856608075,0.6550324757893881,0.13918737835354275,0.28976395924886067]},{"name":"pottedplant","coordinates":[0.20858111911349828,0.46685765584309896,0.051223203870985244,0.10818979740142823]},{"name":"pottedplant","coordinates":[0.4199530283610026,0.4670596440633138,0.04453806347317166,0.08754191398620606]},{"name":"wine-glass","coordinates":[0.5535602569580078,0.4875885645548503,0.034306473202175565,0.10235772132873536]},{"name":"wine-glass","coordinates":[0.508739725748698,0.487827205657959,0.032635855674743655,0.08943487008412679]}]}
