{"src":"https://a0.muscache.com/im/pictures/c402efdf-4884-4d1e-aa70-7cb64bee5199.jpg?aki_policy=xx_large","name":"Spacious well located \"BEACH-house\"","listingId":6190503,"photoId":"1223-12","tags":[{"name":"tvmonitor","coordinates":[0.21361539628770615,0.48911908467610676,0.22687235938178169,0.24915744463602701]},{"name":"sofa","coordinates":[0.5888509962293836,0.5700138092041016,0.09866931703355578,0.09552934169769287]},{"name":"chair","coordinates":[0.7022019704182942,0.5946177800496419,0.04989959928724501,0.11252593199412028]},{"name":"pottedplant","coordinates":[0.5251876831054687,0.4860632260640462,0.029359385702345107,0.13249189853668214]},{"name":"pottedplant","coordinates":[0.7192981296115452,0.516802978515625,0.023586620224846734,0.04139620463053385]}]}
