{"src":"https://a0.muscache.com/im/pictures/273fa8cb-f961-4332-8a4a-df8359b11ffc.jpg?aki_policy=xx_large","name":"Spacious well located \"BEACH-house\"","listingId":6190503,"photoId":"1223-4","tags":[{"name":"diningtable","coordinates":[1.5448009562942218,0.5665711085001628,0.43916709468049825,0.19347314834594725]},{"name":"pottedplant","coordinates":[0.6446724177906348,0.4035499572753906,0.16063187557196468,0.3244078318277995]},{"name":"chair","coordinates":[1.3728465913976513,0.568049430847168,0.21334538969603725,0.20353034337361653]},{"name":"sofa","coordinates":[0.9501882109252162,0.5433787027994792,0.31208546956380206,0.12440852324167888]},{"name":"vase","coordinates":[0.22856799911403056,0.3774340311686198,0.19431506462816922,0.16779553095499675]},{"name":"wine-glass","coordinates":[1.5046326259397111,0.45154091517130535,0.05540442916582215,0.06783069769541422]},{"name":"pottedplant","coordinates":[1.341372699857508,0.46228167215983074,0.05773103462075287,0.048356246948242185]},{"name":"wine-glass","coordinates":[1.4478506412146226,0.4556828498840332,0.044514011287089414,0.056004150708516436]}]}
