{"src":"https://a0.muscache.com/im/pictures/490212f5-5407-4f07-b4b1-21326228598f.jpg?aki_policy=xx_large","name":"Spacious well located \"BEACH-house\"","listingId":6190503,"photoId":"1223-9","tags":[{"name":"diningtable","coordinates":[0.5721044752332899,0.8397365570068359,0.73998048570421,0.30904308954874676]},{"name":"pottedplant","coordinates":[0.7858373006184896,0.5169167518615723,0.11243361367119684,0.41319058736165365]},{"name":"chair","coordinates":[0.7399216545952692,0.7975451151529948,0.21208633846706815,0.18910608291625977]},{"name":"vase","coordinates":[0.5558017306857639,0.803488286336263,0.11786659028795031,0.3186913808186849]},{"name":"chair","coordinates":[0.6265305836995443,0.6501256306966146,0.08635229004753961,0.20662264823913573]},{"name":"sofa","coordinates":[0.272136476304796,0.5352615356445313,0.04569593535529243,0.07416382630666098]}]}
