{"src":"https://a0.muscache.com/im/pictures/b93247fe-1c9c-4b31-87b9-f72aeea22831.jpg?aki_policy=xx_large","name":"Spacious well located \"BEACH-house\"","listingId":6190503,"photoId":"1223-19","tags":[{"name":"sofa","coordinates":[0.31014359672114533,0.6254305521647135,0.580691211628464,0.31338459650675454]},{"name":"chair","coordinates":[1.4285262965556211,0.6813902537027995,0.3265418766429589,0.3471646308898926]},{"name":"chair","coordinates":[1.0054663892062206,0.6550324757893881,0.3151412340080213,0.28976395924886067]},{"name":"pottedplant","coordinates":[0.4722591376154678,0.46685765584309896,0.11597706536826848,0.10818979740142823]},{"name":"pottedplant","coordinates":[0.9508370453456663,0.4670596440633138,0.10084089842982262,0.08754191398620606]},{"name":"wine-glass","coordinates":[1.2533439780181308,0.4875885645548503,0.07767503366530316,0.10235772132873536]},{"name":"wine-glass","coordinates":[1.1518635299970519,0.487827205657959,0.07389250341451394,0.08943487008412679]}]}
