{"src":"https://a0.muscache.com/im/pictures/05f6a1db-078b-47e8-9555-3c4ecc3ddadd.jpg?aki_policy=xx_large","name":"Private Bedroom/Bath in spacious home!","listingId":21397326,"photoId":"1227-2","tags":[{"name":"sofa","coordinates":[0.31944031185574,0.4089354515075684,0.47687674628363713,0.3604791323343913]},{"name":"diningtable","coordinates":[0.433534664577908,0.5822759628295898,0.3205494562784831,0.25664145151774087]},{"name":"tvmonitor","coordinates":[0.937025875515408,0.5228354454040527,0.10154585308498806,0.4318167050679525]},{"name":"pottedplant","coordinates":[0.04217062261369493,0.2978467305501302,0.07585238880581326,0.49983797073364256]},{"name":"bowl","coordinates":[0.44556897481282554,0.48356987635294596,0.10467508104112414,0.061255677541097]}]}
