{"src":"https://a0.muscache.com/im/pictures/77f390a2-28f5-4a18-aa8f-358c66259f6c.jpg?aki_policy=xx_large","name":"Private Bedroom/Bath in spacious home!","listingId":21397326,"photoId":"1227-2","tags":[{"name":"diningtable","coordinates":[0.28040648566351994,0.6234366099039713,0.5702365027533637,0.5186116536458333]},{"name":"chair","coordinates":[0.4871834225124783,0.728445307413737,0.34793626997205945,0.5363432566324869]},{"name":"chair","coordinates":[0.13541361490885417,0.7444674173990885,0.2498417748345269,0.44430421193440756]},{"name":"oven","coordinates":[0.8136489020453559,0.3466682434082031,0.13242665396796333,0.20059494972229003]},{"name":"refrigerator","coordinates":[0.9158023410373264,0.31357173919677733,0.06125467088487413,0.3579222361246745]},{"name":"chair","coordinates":[0.4161926693386502,0.3935024897257487,0.1295259263780382,0.14247911771138508]},{"name":"microwave","coordinates":[0.8191178215874566,0.13947318394978842,0.11393666797214085,0.08265334765116374]},{"name":"cup","coordinates":[0.37032750447591145,0.4941558837890625,0.03457400268978543,0.07511266072591145]}]}
