{"src":"https://a0.muscache.com/im/pictures/05f6a1db-078b-47e8-9555-3c4ecc3ddadd.jpg?aki_policy=xx_large","name":"Private Bedroom/Bath in spacious home!","listingId":21397326,"photoId":"1227-2","tags":[{"name":"sofa","coordinates":[0.08100193871392145,0.22869588534037275,0.47687674628363713,0.3604791323343913]},{"name":"diningtable","coordinates":[0.2732599364386665,0.4539552370707194,0.3205494562784831,0.25664145151774087]},{"name":"tvmonitor","coordinates":[0.886252948972914,0.30692709287007647,0.10154585308498806,0.4318167050679525]},{"name":"pottedplant","coordinates":[0.004244428210788305,0.047927745183308945,0.07585238880581326,0.49983797073364256]},{"name":"bowl","coordinates":[0.3932314342922635,0.4529420375823975,0.10467508104112414,0.061255677541097]}]}
