{"src":"https://a0.muscache.com/im/pictures/78324056/433d2ae4_original.jpg?aki_policy=xx_large","name":"Cosy studio close to beach &amp; center","listingId":6255393,"photoId":"1227-2","tags":[{"name":"chair","coordinates":[0.6887233327575822,0.8644915262858073,0.18013103136219766,0.2659694035847982]},{"name":"chair","coordinates":[0.8948611074203987,0.8032627105712891,0.11235920624217569,0.3675034205118815]},{"name":"pottedplant","coordinates":[0.06279611046892715,0.859546407063802,0.09485998175311791,0.2793829282124837]},{"name":"sofa","coordinates":[0.40628750686472503,0.6486428578694662,0.09336728465800383,0.18561404546101887]},{"name":"vase","coordinates":[0.7402506602684477,0.702984110514323,0.04223012888152223,0.0806906541188558]}]}
