{"src":"https://a0.muscache.com/im/pictures/78451760/34134471_original.jpg?aki_policy=xx_large","name":"Private floor with private bathroom","listingId":6282461,"photoId":"1229-3","tags":[{"name":"bed","coordinates":[0.4498014662000868,0.9115320205688476,0.8968019273546007,0.16294312477111816]},{"name":"chair","coordinates":[0.8820193820529514,0.7458544413248698,0.23846600850423177,0.42361586888631186]},{"name":"chair","coordinates":[0.28424814012315536,0.7415089925130208,0.1777364730834961,0.22712278366088867]},{"name":"tvmonitor","coordinates":[0.34266363779703773,0.5752851486206054,0.14109683566623263,0.17862369219462076]},{"name":"tvmonitor","coordinates":[0.14907774395412868,0.6220817565917969,0.11190681457519532,0.14218010902404785]},{"name":"keyboard","coordinates":[0.1648575676812066,0.6844477971394857,0.107025941212972,0.034782254695892335]}]}
