{"src":"https://a0.muscache.com/im/pictures/403fc4fb-99b1-4a6f-a6ed-d481f602251b.jpg?aki_policy=xx_large","name":"Private room in Al Khalidiya.","listingId":12688252,"photoId":"123-6","tags":[{"name":"pottedplant","coordinates":[0.03521413207054138,0.6754800160725911,0.07391065955162049,0.24015528361002605]},{"name":"chair","coordinates":[0.15144038200378418,0.5686869939168294,0.08176891803741455,0.17877402305603027]},{"name":"chair","coordinates":[0.2583098649978638,0.562911860148112,0.06512503027915954,0.1655301253000895]},{"name":"chair","coordinates":[0.07360713481903076,0.5285492579142252,0.04990141689777374,0.11949896017710368]},{"name":"pottedplant","coordinates":[0.08905494809150696,0.4538364092508952,0.05469736456871033,0.07583488623301188]},{"name":"apple","coordinates":[0.47331981658935546,0.9765357335408529,0.04543052613735199,0.04681374231974284]},{"name":"orange","coordinates":[0.41485180854797366,0.932805887858073,0.03713558614253998,0.04827390114466349]},{"name":"chair","coordinates":[0.23266754150390626,0.47405341466267903,0.04460047483444214,0.030089696248372395]}]}
