{"src":"https://a0.muscache.com/im/pictures/403fc4fb-99b1-4a6f-a6ed-d481f602251b.jpg?aki_policy=xx_large","name":"Private room in Al Khalidiya.","listingId":12688252,"photoId":"123-6","tags":[{"name":"pottedplant","coordinates":[-0.0030954625871446456,0.5554023742675781,0.13139672809176975,0.24015528361002605]},{"name":"chair","coordinates":[0.19654386308458116,0.47929998238881427,0.14536696539984809,0.17877402305603027]},{"name":"chair","coordinates":[0.4013286219702827,0.48014679749806727,0.11577783160739474,0.1655301253000895]},{"name":"chair","coordinates":[0.08650031354692247,0.4687997778256734,0.08871363004048666,0.11949896017710368]},{"name":"pottedplant","coordinates":[0.10970002810160319,0.4159189661343893,0.0972397592332628,0.07583488623301188]},{"name":"apple","coordinates":[0.8010747618145413,0.9531288623809815,0.08076537979973687,0.04681374231974284]},{"name":"orange","coordinates":[0.7045049164030287,0.9086689372857412,0.06601881980895996,0.04827390114466349]},{"name":"chair","coordinates":[0.37398631837632923,0.4590085665384928,0.07928973303900824,0.030089696248372395]}]}
