{"src":"https://a0.muscache.com/im/pictures/f19e4b7d-5c8c-466e-af3e-64a6048d9164.jpg?aki_policy=xx_large","name":"Private room in Al Khalidiya.","listingId":12688252,"photoId":"123-4","tags":[{"name":"oven","coordinates":[0.30981173515319826,0.38600417772928874,0.2324808120727539,0.42396701176961266]},{"name":"sink","coordinates":[0.7491614699363709,0.5207549969355265,0.25366413593292236,0.0860647996266683]},{"name":"spoon","coordinates":[0.47818346619606017,0.24657933712005614,0.019931495189666748,0.1197444756825765]},{"name":"spoon","coordinates":[0.46292345076799396,0.24799611568450924,0.017793139815330504,0.119759734471639]},{"name":"bottle","coordinates":[0.2841639295220375,0.2150178074836731,0.019985339045524596,0.03972814083099365]},{"name":"cup","coordinates":[0.23076438307762145,0.14318187435468038,0.02560349702835083,0.029754936695098877]},{"name":"cup","coordinates":[0.2688994452357292,0.14186765154202777,0.022389355301856994,0.03037793238957723]},{"name":"knife","coordinates":[0.5745241854339838,0.3644781231880188,0.010319095104932785,0.03203135331471761]}]}
