{"src":"https://a0.muscache.com/im/pictures/f19e4b7d-5c8c-466e-af3e-64a6048d9164.jpg?aki_policy=xx_large","name":"Private room in Al Khalidiya.","listingId":12688252,"photoId":"123-4","tags":[{"name":"oven","coordinates":[0.4260521411895752,0.597987683614095,0.2324808120727539,0.42396701176961266]},{"name":"sink","coordinates":[0.8759935379028321,0.5637873967488607,0.25366413593292236,0.0860647996266683]},{"name":"spoon","coordinates":[0.48814921379089354,0.3064515749613444,0.019931495189666748,0.1197444756825765]},{"name":"spoon","coordinates":[0.4718200206756592,0.30787598292032875,0.017793139815330504,0.119759734471639]},{"name":"bottle","coordinates":[0.2941565990447998,0.23488187789916992,0.019985339045524596,0.03972814083099365]},{"name":"cup","coordinates":[0.24356613159179688,0.15805934270222982,0.02560349702835083,0.029754936695098877]},{"name":"cup","coordinates":[0.2800941228866577,0.1570566177368164,0.022389355301856994,0.03037793238957723]},{"name":"knife","coordinates":[0.5796837329864502,0.3804937998453776,0.010319095104932785,0.03203135331471761]}]}
