{"src":"https://a0.muscache.com/im/pictures/403fc4fb-99b1-4a6f-a6ed-d481f602251b.jpg?aki_policy=xx_large","name":"Private room in Al Khalidiya.","listingId":12688252,"photoId":"123-6","tags":[{"name":"pottedplant","coordinates":[0.06260290145874023,0.6754800160725911,0.13139672809176975,0.24015528361002605]},{"name":"chair","coordinates":[0.2692273457845052,0.5686869939168294,0.14536696539984809,0.17877402305603027]},{"name":"chair","coordinates":[0.45921753777398006,0.562911860148112,0.11577783160739474,0.1655301253000895]},{"name":"chair","coordinates":[0.1308571285671658,0.5285492579142252,0.08871363004048666,0.11949896017710368]},{"name":"pottedplant","coordinates":[0.1583199077182346,0.4538364092508952,0.0972397592332628,0.07583488623301188]},{"name":"apple","coordinates":[0.8414574517144098,0.9765357335408529,0.08076537979973687,0.04681374231974284]},{"name":"orange","coordinates":[0.7375143263075087,0.932805887858073,0.06601881980895996,0.04827390114466349]},{"name":"chair","coordinates":[0.41363118489583334,0.47405341466267903,0.07928973303900824,0.030089696248372395]}]}
