{"src":"https://a0.muscache.com/im/pictures/9311981/7294023a_original.jpg?aki_policy=xx_large","name":"Amazing Apartment on 39th floor 772","listingId":635931,"photoId":"1234-3","tags":[{"name":"diningtable","coordinates":[0.7084942287868924,0.8094033559163412,0.3107026841905382,0.3903962771097819]},{"name":"chair","coordinates":[0.5826822068956163,0.8329470952351888,0.18611204359266492,0.3727453549702962]},{"name":"chair","coordinates":[0.8310460408528646,0.8205713907877604,0.1638039165072971,0.3640110651652018]},{"name":"sofa","coordinates":[0.48563291761610244,0.6438261667887369,0.18152862124972874,0.16429309844970702]},{"name":"tvmonitor","coordinates":[0.3026156955295139,0.5842225392659505,0.060167619917127824,0.0594583789507548]},{"name":"chair","coordinates":[0.8216232299804688,0.6198149998982747,0.06097564697265625,0.05321410099665324]}]}
