{"src":"https://a0.muscache.com/im/pictures/9334371/3b33919d_original.jpg?aki_policy=xx_large","name":"Amazing Apartment on 39th floor 774","listingId":635974,"photoId":"1235-0","tags":[{"name":"chair","coordinates":[0.7417758517795139,0.8255199432373047,0.1761588414510091,0.36759427388509114]},{"name":"chair","coordinates":[0.5489928775363498,0.8249131520589192,0.17391538619995117,0.37036040623982747]},{"name":"sofa","coordinates":[0.2919156816270616,0.7367777506510417,0.2457156711154514,0.24798553784688313]},{"name":"chair","coordinates":[0.8379692077636719,0.7770000457763672,0.06752494176228842,0.3319848378499349]},{"name":"tvmonitor","coordinates":[0.3136042277018229,0.5895421346028645,0.07824943860371908,0.07134373188018799]},{"name":"chair","coordinates":[0.5719317966037326,0.6348883310953776,0.06789151827494304,0.06707088947296143]},{"name":"chair","coordinates":[0.8141468471950954,0.6118135452270508,0.06317736837599013,0.04004281759262085]},{"name":"cup","coordinates":[0.7184873792860244,0.6356065750122071,0.027505871984693737,0.0523486852645874]}]}
