{"src":"https://a0.muscache.com/im/pictures/2417f79f-6cab-40f8-a0c2-687678904b7e.jpg?aki_policy=xx_large","name":"Un Oasis en pleno Centro de la Ciudad","listingId":21438648,"photoId":"1237-10","tags":[{"name":"pottedplant","coordinates":[0.6193093087938097,0.16216732660929362,0.24631095462375216,0.7408785502115885]},{"name":"bench","coordinates":[-0.008746814727783186,0.6427275657653808,0.30680402119954425,0.34412008921305337]},{"name":"pottedplant","coordinates":[0.281317573123508,0.46803315480550134,0.09649333953857422,0.24386609395345052]},{"name":"pottedplant","coordinates":[0.698673497305976,0.6800291458765665,0.12051528294881185,0.17712203661600748]},{"name":"pottedplant","coordinates":[0.12887492179870608,0.6106412251790365,0.1015928586324056,0.2046770731608073]},{"name":"chair","coordinates":[0.6206982877519396,0.5542730967203776,0.09151858223809137,0.1870557149251302]},{"name":"pottedplant","coordinates":[0.37448339992099333,0.4326029141743978,0.07047188017103408,0.22688579559326172]},{"name":"pottedplant","coordinates":[0.2683717992570665,0.6422425826390584,0.10828254487779405,0.14404470125834148]},{"name":"pottedplant","coordinates":[0.567448369661967,0.4980109453201294,0.07084488868713379,0.18142625490824382]},{"name":"person","coordinates":[0.5318607661459182,0.4737901051839193,0.025122512711419,0.1383263905843099]}]}
