{"src":"https://a0.muscache.com/im/pictures/972c4b17-64b5-4d9a-a5bd-f430e9db0097.jpg?aki_policy=xx_large","name":"Un Oasis en pleno Centro de la Ciudad","listingId":21438648,"photoId":"1237-11","tags":[{"name":"bed","coordinates":[0.6375132242838542,0.8810486475626628,0.6606635623508029,0.23050750096638997]},{"name":"sofa","coordinates":[0.1746746169196235,0.8420653025309245,0.3208292431301541,0.26561447779337566]},{"name":"tvmonitor","coordinates":[0.2376330057779948,0.29655354817708335,0.2051609887017144,0.18979093233744304]},{"name":"chair","coordinates":[0.5709267934163411,0.7419016520182292,0.10794029235839844,0.26742623647054037]},{"name":"chair","coordinates":[0.7126419915093316,0.7085040410359701,0.09903416103786893,0.2113873799641927]},{"name":"vase","coordinates":[0.6118016137017144,0.5955835342407226,0.017209102047814263,0.05287944873174032]}]}
