{"src":"https://a0.muscache.com/im/pictures/5b1e7cf7-2da3-4348-b010-d20a319fb007.jpg?aki_policy=xx_large","name":"Un Oasis en pleno Centro de la Ciudad","listingId":21438648,"photoId":"1237-14","tags":[{"name":"sofa","coordinates":[0.6000685171587257,0.5812466939290365,0.2145086928653253,0.1649377981821696]},{"name":"umbrella","coordinates":[0.12799737120436827,0.34202070236206056,0.2088623046875,0.11373844941457113]},{"name":"pottedplant","coordinates":[0.7403614502801424,0.4829738934834798,0.10899214118284181,0.1546085834503174]},{"name":"pottedplant","coordinates":[0.4951789861258904,0.700655746459961,0.08061026864121405,0.14451347986857097]},{"name":"chair","coordinates":[0.03548834868981823,0.5844593048095703,0.06879827460951073,0.13853451410929363]},{"name":"person","coordinates":[0.1221236387336312,0.4532416343688965,0.06890670850593403,0.10238105456034342]},{"name":"chair","coordinates":[0.20554649241688022,0.5438036600748698,0.04946403688983506,0.11480425198872884]},{"name":"pottedplant","coordinates":[0.5798431460106845,0.42465569178263346,0.026397357805476078,0.04039697249730428]},{"name":"pottedplant","coordinates":[0.41800365752855717,0.42565635045369465,0.026864513744489445,0.03353147904078166]},{"name":"pottedplant","coordinates":[0.5329657283568233,0.432142702738444,0.02482464745941056,0.03219950596491496]}]}
