{"src":"https://a0.muscache.com/im/pictures/69c2b554-b846-402f-b213-6d2d2c5a6e0c.jpg?aki_policy=xx_large","name":"Un Oasis en pleno Centro de la Ciudad","listingId":21438648,"photoId":"1237-0","tags":[{"name":"umbrella","coordinates":[0.4866270339679519,0.2909340063730876,0.2968491904846573,0.34888277053833006]},{"name":"sofa","coordinates":[0.6458568241631015,0.6370714664459229,0.33404473151656966,0.22662432988484701]},{"name":"chair","coordinates":[-0.005693813427361125,0.6351861000061034,0.15328159822698598,0.27354005177815754]},{"name":"diningtable","coordinates":[0.40633367945370863,0.5811042785644531,0.15500190740165154,0.21098467508951824]},{"name":"chair","coordinates":[0.17524709164723495,0.5977537155151367,0.12918017654471964,0.23094927469889323]},{"name":"chair","coordinates":[0.3669360746021814,0.6237700541814168,0.12888841450090124,0.22937995592753094]},{"name":"chair","coordinates":[0.5295921468834152,0.5806998093922933,0.11733616450497307,0.21561250686645508]},{"name":"chair","coordinates":[0.1592761232589499,0.6247057199478149,0.09083179635584064,0.24607424736022948]},{"name":"chair","coordinates":[0.3274453344073372,0.5787756601969402,0.06475174236496428,0.2114776611328125]}]}
