{"src":"https://a0.muscache.com/im/pictures/79928316/0b1cdf3a_original.jpg?aki_policy=xx_large","name":"Bizstay Cricket Mansion 41A","listingId":6383136,"photoId":"1237-5","tags":[{"name":"oven","coordinates":[0.09949063658714294,0.8266911824544271,0.16469287872314453,0.32547826766967775]},{"name":"bowl","coordinates":[0.5701579093933106,0.6114392598470052,0.07343530654907227,0.05130776564280192]},{"name":"vase","coordinates":[0.12750611305236817,0.6228905359903971,0.02378091812133789,0.06790499687194824]},{"name":"orange","coordinates":[0.5655291557312012,0.6126311620076498,0.02267540991306305,0.024063068628311157]},{"name":"orange","coordinates":[0.5871341228485107,0.6111186345418295,0.022009722888469696,0.023551410436630248]},{"name":"orange","coordinates":[0.5522529602050781,0.6084718704223633,0.022532960772514342,0.02003474235534668]},{"name":"apple","coordinates":[0.5522529602050781,0.6084718704223633,0.022532960772514342,0.02003474235534668]}]}
