{"src":"https://a0.muscache.com/im/pictures/69c2b554-b846-402f-b213-6d2d2c5a6e0c.jpg?aki_policy=xx_large","name":"Un Oasis en pleno Centro de la Ciudad","listingId":21438648,"photoId":"1237-0","tags":[{"name":"umbrella","coordinates":[0.6350516292102806,0.4653753916422526,0.2968491904846573,0.34888277053833006]},{"name":"sofa","coordinates":[0.8128791899213864,0.7503836313883464,0.33404473151656966,0.22662432988484701]},{"name":"chair","coordinates":[0.07094698568613186,0.7719561258951823,0.15328159822698598,0.27354005177815754]},{"name":"diningtable","coordinates":[0.4838346331545344,0.6865966161092122,0.15500190740165154,0.21098467508951824]},{"name":"chair","coordinates":[0.23983717991959477,0.7132283528645833,0.12918017654471964,0.23094927469889323]},{"name":"chair","coordinates":[0.43138028185263205,0.7384600321451823,0.12888841450090124,0.22937995592753094]},{"name":"chair","coordinates":[0.5882602291359017,0.6885060628255208,0.11733616450497307,0.21561250686645508]},{"name":"chair","coordinates":[0.20469202143687024,0.7477428436279296,0.09083179635584064,0.24607424736022948]},{"name":"chair","coordinates":[0.35982120558981934,0.6845144907633464,0.06475174236496428,0.2114776611328125]}]}
