{"src":"https://a0.muscache.com/im/pictures/d8d857d4-3940-4176-b7eb-737f26ef7d2c.jpg?aki_policy=xx_large","name":"Un Oasis en pleno Centro de la Ciudad","listingId":21438648,"photoId":"1237-5","tags":[{"name":"diningtable","coordinates":[0.4413859049479167,0.8288469950358073,0.318021117316352,0.36573584874471027]},{"name":"chair","coordinates":[0.6574479420979817,0.8208500544230143,0.23858958350287543,0.36318515141805013]},{"name":"chair","coordinates":[0.24388982984754776,0.8187827428181966,0.22909297943115234,0.370821221669515]},{"name":"chair","coordinates":[0.48124537997775607,0.7678965250651042,0.15100186665852863,0.419982115427653]},{"name":"chair","coordinates":[0.04894293149312337,0.7521044413248698,0.09000199635823568,0.32803532282511394]},{"name":"pottedplant","coordinates":[0.5080859714084202,0.48070265452067057,0.07595321337381998,0.12829511960347492]},{"name":"chair","coordinates":[0.2979678259955512,0.6267723719278971,0.08299485842386882,0.114946715037028]},{"name":"chair","coordinates":[0.6449369642469618,0.6271586100260417,0.07029959360758463,0.12032955487569173]},{"name":"person","coordinates":[0.6235998789469401,0.5050975163777669,0.03786983225080702,0.09912068843841552]},{"name":"pottedplant","coordinates":[0.5698673672146267,0.5056603431701661,0.03780515193939209,0.09366724491119385]},{"name":"person","coordinates":[0.6748410542805989,0.5058661778767903,0.04264674716525608,0.08244562943776448]},{"name":"vase","coordinates":[0.5113252851698133,0.5201185862223308,0.014915960364871556,0.04605912764867147]}]}
