{"src":"https://a0.muscache.com/im/pictures/5b1e7cf7-2da3-4348-b010-d20a319fb007.jpg?aki_policy=xx_large","name":"Un Oasis en pleno Centro de la Ciudad","listingId":21438648,"photoId":"1237-14","tags":[{"name":"sofa","coordinates":[0.49281417072606304,0.4987777948379517,0.2145086928653253,0.1649377981821696]},{"name":"umbrella","coordinates":[0.02356621886061827,0.285151477654775,0.2088623046875,0.11373844941457113]},{"name":"pottedplant","coordinates":[0.6858653796887215,0.4056696017583211,0.10899214118284181,0.1546085834503174]},{"name":"pottedplant","coordinates":[0.4548738518052834,0.6283990065256755,0.08061026864121405,0.14451347986857097]},{"name":"chair","coordinates":[0.0010892113850628701,0.5151920477549234,0.06879827460951073,0.13853451410929363]},{"name":"person","coordinates":[0.08767028448066419,0.40205110708872477,0.06890670850593403,0.10238105456034342]},{"name":"chair","coordinates":[0.18081447397196268,0.48640153408050535,0.04946403688983506,0.11480425198872884]},{"name":"pottedplant","coordinates":[0.5666444671079465,0.40445720553398135,0.026397357805476078,0.04039697249730428]},{"name":"pottedplant","coordinates":[0.4045714006563125,0.4088906109333038,0.026864513744489445,0.03353147904078166]},{"name":"pottedplant","coordinates":[0.5205534046271181,0.41604294975598655,0.02482464745941056,0.03219950596491496]}]}
