{"src":"https://a0.muscache.com/im/pictures/5b1e7cf7-2da3-4348-b010-d20a319fb007.jpg?aki_policy=xx_large","name":"Un Oasis en pleno Centro de la Ciudad","listingId":21438648,"photoId":"1237-12","tags":[{"name":"sofa","coordinates":[1.3513280065593212,0.5812466939290365,0.4830641768907717,0.1649377981821696]},{"name":"umbrella","coordinates":[0.2882444713037339,0.34202070236206056,0.4703487581303795,0.11373844941457113]},{"name":"pottedplant","coordinates":[1.6672615445275822,0.4829738934834798,0.24544552607528855,0.1546085834503174]},{"name":"pottedplant","coordinates":[1.1151213787717624,0.700655746459961,0.18153079276166983,0.14451347986857097]},{"name":"chair","coordinates":[0.07991820620445765,0.5844593048095703,0.15493069978573698,0.13853451410929363]},{"name":"person","coordinates":[0.27501708315758266,0.4532416343688965,0.1551748881690752,0.10238105456034342]},{"name":"chair","coordinates":[0.46288169419075215,0.5438036600748698,0.11139084363767239,0.11480425198872884]},{"name":"pottedplant","coordinates":[1.3057813569786776,0.42465569178263346,0.05944569308619731,0.04039697249730428]},{"name":"pottedplant","coordinates":[0.9413259204751075,0.42565635045369465,0.06049770779079861,0.03353147904078166]},{"name":"pottedplant","coordinates":[1.2002154665187303,0.432142702738444,0.05590401830061314,0.03219950596491496]}]}
