{"src":"https://a0.muscache.com/im/pictures/79928538/5a3e05b1_original.jpg?aki_policy=xx_large","name":"Bizstay Cricket Mansion 41A","listingId":6383136,"photoId":"1237-9","tags":[{"name":"chair","coordinates":[0.7562261104583741,0.7644720077514648,0.4184574604034424,0.47612298329671227]},{"name":"bench","coordinates":[0.36567819118499756,0.8364147822062175,0.5443991661071778,0.301096248626709]},{"name":"chair","coordinates":[0.36567819118499756,0.8364147822062175,0.5443991661071778,0.301096248626709]},{"name":"pottedplant","coordinates":[0.11075789928436279,0.5393438339233398,0.14813344478607177,0.21565364201863607]},{"name":"pottedplant","coordinates":[0.43736929893493653,0.5153072357177735,0.09306795001029969,0.14943180084228516]},{"name":"pottedplant","coordinates":[0.2815246105194092,0.5719584782918294,0.07821570634841919,0.1267617464065552]},{"name":"pottedplant","coordinates":[0.3388938903808594,0.5673042933146158,0.0748288869857788,0.11972482204437256]},{"name":"vase","coordinates":[0.43709425926208495,0.5426325480143229,0.06356906294822692,0.08820761839548746]}]}
