{"src":"https://a0.muscache.com/im/pictures/2417f79f-6cab-40f8-a0c2-687678904b7e.jpg?aki_policy=xx_large","name":"Un Oasis en pleno Centro de la Ciudad","listingId":21438648,"photoId":"1237-10","tags":[{"name":"pottedplant","coordinates":[0.7424647861056858,0.5326066017150879,0.24631095462375216,0.7408785502115885]},{"name":"bench","coordinates":[0.14465519587198894,0.8147876103719075,0.30680402119954425,0.34412008921305337]},{"name":"pottedplant","coordinates":[0.3295642428927951,0.5899662017822266,0.09649333953857422,0.24386609395345052]},{"name":"pottedplant","coordinates":[0.758931138780382,0.7685901641845703,0.12051528294881185,0.17712203661600748]},{"name":"pottedplant","coordinates":[0.17967135111490887,0.7129797617594401,0.1015928586324056,0.2046770731608073]},{"name":"chair","coordinates":[0.6664575788709852,0.6478009541829427,0.09151858223809137,0.1870557149251302]},{"name":"pottedplant","coordinates":[0.4097193400065104,0.5460458119710286,0.07047188017103408,0.22688579559326172]},{"name":"pottedplant","coordinates":[0.32251307169596355,0.7142649332682292,0.10828254487779405,0.14404470125834148]},{"name":"pottedplant","coordinates":[0.6028708140055339,0.5887240727742513,0.07084488868713379,0.18142625490824382]},{"name":"person","coordinates":[0.5444220225016276,0.5429533004760743,0.025122512711419,0.1383263905843099]}]}
