{"src":"https://a0.muscache.com/im/pictures/972c4b17-64b5-4d9a-a5bd-f430e9db0097.jpg?aki_policy=xx_large","name":"Un Oasis en pleno Centro de la Ciudad","listingId":21438648,"photoId":"1237-11","tags":[{"name":"bed","coordinates":[0.3071814431084527,0.7657948970794678,0.6606635623508029,0.23050750096638997]},{"name":"sofa","coordinates":[0.014259995354546445,0.7092580636342367,0.3208292431301541,0.26561447779337566]},{"name":"tvmonitor","coordinates":[0.1350525114271376,0.20165808200836183,0.2051609887017144,0.18979093233744304]},{"name":"chair","coordinates":[0.5169566472371419,0.608188533782959,0.10794029235839844,0.26742623647054037]},{"name":"chair","coordinates":[0.6631249109903972,0.6028103510538737,0.09903416103786893,0.2113873799641927]},{"name":"vase","coordinates":[0.6031970626778073,0.5691438098748525,0.017209102047814263,0.05287944873174032]}]}
