{"src":"https://a0.muscache.com/im/pictures/79931084/c9fbe94d_original.jpg?aki_policy=xx_large","name":"Bizstay Cricket Mansion 41B","listingId":6383351,"photoId":"1238-6","tags":[{"name":"diningtable","coordinates":[0.29056572914123535,0.7947755177815755,0.49283490180969236,0.38105271657307943]},{"name":"chair","coordinates":[0.4010603904724121,0.7790955861409505,0.16043190956115722,0.4104592323303223]},{"name":"knife","coordinates":[0.19862557649612428,0.2888092041015625,0.02609540820121765,0.23433842658996581]},{"name":"chair","coordinates":[0.3722061634063721,0.6208471934000651,0.06372932195663453,0.06680962244669596]},{"name":"bowl","coordinates":[0.8181611061096191,0.5572924296061198,0.08355972170829773,0.05088917811711629]},{"name":"orange","coordinates":[0.7996978759765625,0.5368380228678385,0.02430575340986252,0.024634377161661784]},{"name":"orange","coordinates":[0.8529984474182128,0.5325429916381836,0.027081313729286193,0.02150680422782898]},{"name":"orange","coordinates":[0.8347283363342285,0.5346705118815104,0.02429693043231964,0.021297742923100788]},{"name":"orange","coordinates":[0.8161677360534668,0.5391724268595378,0.020706088840961458,0.02198075254758199]}]}
