{"src":"https://a0.muscache.com/im/pictures/1eb1c1ba-540a-4402-ae25-8cd909dd4695.jpg?aki_policy=xx_large","name":"Single Room #4 in Tiny Hotel Bishkek","listingId":21443613,"photoId":"1239-4","tags":[{"name":"bed","coordinates":[0.5785574171278212,0.5323527495066325,0.39502393934461805,0.45486071904500325]},{"name":"chair","coordinates":[0.26147804260253904,0.6879924297332765,0.22564231024848092,0.3046874682108561]},{"name":"tvmonitor","coordinates":[0.17707068125406905,0.4330068429311116,0.21123343573676215,0.28232208887736004]},{"name":"chair","coordinates":[0.5167120138804119,0.4935616016387939,0.09380875693427192,0.1999866803487142]},{"name":"keyboard","coordinates":[0.39572402636210124,0.6056372284889221,0.08676587210761176,0.09060377279917399]}]}
