{"src":"https://a0.muscache.com/im/pictures/94752300/4c33643c_original.jpg?aki_policy=xx_large","name":"Attic double bed with private toilet and shower","listingId":6393043,"photoId":"1239-5","tags":[{"name":"chair","coordinates":[0.40452240844187226,0.8497260411580404,0.20168928053663476,0.2920260429382324]},{"name":"laptop","coordinates":[0.8384857851907677,0.7629220962524415,0.22305315829517214,0.2373751163482666]},{"name":"vase","coordinates":[0.5725859022632087,0.647076161702474,0.06862690943857004,0.19543727238972983]},{"name":"chair","coordinates":[0.3206981496010332,0.6307017644246419,0.06933504983848605,0.15061543782552084]},{"name":"chair","coordinates":[0.41067563311165317,0.6512247085571289,0.11035610193356499,0.06841391722361247]},{"name":"keyboard","coordinates":[0.8330293860456554,0.8335267384847005,0.1759650858231602,0.04121514956156413]},{"name":"cup","coordinates":[0.852471645169827,0.6198945999145508,0.039653957855719006,0.06950601736704508]}]}
