{"src":"https://a0.muscache.com/im/pictures/c918966a-5d3d-4daf-b219-59ee1c147c26.jpg?aki_policy=xx_large","name":"Habitaciones en casa de lujo","listingId":12732368,"photoId":"124-1","tags":[{"name":"refrigerator","coordinates":[0.523613633049859,0.2257864634195963,0.23487866719563802,0.7656333923339844]},{"name":"oven","coordinates":[0.40363075998094344,0.4443224827448527,0.12315348519219292,0.1960231304168701]},{"name":"microwave","coordinates":[0.4162454711066352,0.24954002698262534,0.11655521392822266,0.14276520411173502]},{"name":"pottedplant","coordinates":[0.14765028953552245,0.4050424774487813,0.07818456225925022,0.10805997053782145]},{"name":"sink","coordinates":[0.003789228863186306,0.5298930803934733,0.13176903194851344,0.0465725580851237]}]}
