{"src":"https://a0.muscache.com/im/pictures/c918966a-5d3d-4daf-b219-59ee1c147c26.jpg?aki_policy=xx_large","name":"Habitaciones en casa de lujo","listingId":12732368,"photoId":"124-1","tags":[{"name":"refrigerator","coordinates":[0.641052966647678,0.6086031595865885,0.23487866719563802,0.7656333923339844]},{"name":"oven","coordinates":[0.4652075025770399,0.5423340479532878,0.12315348519219292,0.1960231304168701]},{"name":"microwave","coordinates":[0.4745230780707465,0.32092262903849283,0.11655521392822266,0.14276520411173502]},{"name":"pottedplant","coordinates":[0.18674257066514757,0.45907246271769203,0.07818456225925022,0.10805997053782145]},{"name":"sink","coordinates":[0.06967374483744303,0.5531793594360351,0.13176903194851344,0.0465725580851237]}]}
