{"src":"https://a0.muscache.com/im/pictures/29c0dccc-9c1e-40d3-9d1c-8ae1bff6a1a5.jpg?aki_policy=xx_large","name":"Apartment for up to 2-close Airport/trade fair","listingId":21445138,"photoId":"1240-3","tags":[{"name":"diningtable","coordinates":[0.3169568803575304,0.738383928934733,0.5737842983669705,0.4506779352823893]},{"name":"sofa","coordinates":[0.20769560072157117,0.4921069780985514,0.3746768951416016,0.1424920876820882]},{"name":"bed","coordinates":[0.5715340932210287,0.4520034154256185,0.41073298984103734,0.0807251771291097]},{"name":"chair","coordinates":[0.28204322391086156,0.523355770111084,0.160111755794949,0.14105911254882814]},{"name":"bowl","coordinates":[0.17756338119506837,0.5891068776448568,0.21594488355848523,0.07183831532796224]},{"name":"tvmonitor","coordinates":[0.9170756022135417,0.40604333877563475,0.0840046935611301,0.0719111680984497]},{"name":"clock","coordinates":[0.37956343756781685,0.30587275822957355,0.05372840033637153,0.08231670061747233]}]}
