{"src":"https://a0.muscache.com/im/pictures/29c0dccc-9c1e-40d3-9d1c-8ae1bff6a1a5.jpg?aki_policy=xx_large","name":"Apartment for up to 2-close Airport/trade fair","listingId":21445138,"photoId":"1240-3","tags":[{"name":"diningtable","coordinates":[0.030064731174045123,0.5130449612935384,0.5737842983669705,0.4506779352823893]},{"name":"sofa","coordinates":[0.020357153150770385,0.4208609342575073,0.3746768951416016,0.1424920876820882]},{"name":"bed","coordinates":[0.36616759830051,0.4116408268610636,0.41073298984103734,0.0807251771291097]},{"name":"chair","coordinates":[0.20198734601338708,0.45282621383667,0.160111755794949,0.14105911254882814]},{"name":"bowl","coordinates":[0.06959093941582575,0.5531877199808757,0.21594488355848523,0.07183831532796224]},{"name":"tvmonitor","coordinates":[0.8750732554329766,0.3700877547264099,0.0840046935611301,0.0719111680984497]},{"name":"clock","coordinates":[0.3526992373996311,0.2647144079208374,0.05372840033637153,0.08231670061747233]}]}
