{"src":"https://a0.muscache.com/im/pictures/94743930/5d23f8da_original.jpg?aki_policy=xx_large","name":"Double bedroom 1st Floor","listingId":6393520,"photoId":"1240-0","tags":[{"name":"bed","coordinates":[0.7022687113399099,0.7993395487467448,0.5537885002040793,0.37834078470865884]},{"name":"diningtable","coordinates":[0.1623974618357363,0.8376933415730794,0.270533861352557,0.3133852005004883]},{"name":"chair","coordinates":[0.3177556928419909,0.8356014887491862,0.11360726486329562,0.33075542449951173]},{"name":"book","coordinates":[0.14233173878426233,0.6506011962890625,0.09807986946470866,0.04081867138544718]},{"name":"bowl","coordinates":[0.09877244333206861,0.7424914677937825,0.05900707904515326,0.05394759178161621]}]}
