{"src":"https://a0.muscache.com/im/pictures/82594c02-de26-4e13-8611-942dd73b1745.jpg?aki_policy=xx_large","name":"The Green Room and The Red Room","listingId":21448942,"photoId":"1241-3","tags":[{"name":"diningtable","coordinates":[0.7056467533111572,0.7962648391723632,0.5873694896697998,0.37617390950520835]},{"name":"chair","coordinates":[0.49615230560302737,0.8651891072591146,0.30379834175109866,0.23535126050313313]},{"name":"chair","coordinates":[0.9446877479553223,0.6886744181315104,0.11065514087677002,0.32332709630330403]},{"name":"refrigerator","coordinates":[0.3746251821517944,0.43432817459106443,0.1234254002571106,0.1606855551401774]},{"name":"chair","coordinates":[0.5438185691833496,0.6589703877766927,0.13151085376739502,0.12935364246368408]},{"name":"chair","coordinates":[0.9468475341796875,0.5848527272542318,0.11034946441650391,0.10039189656575521]},{"name":"chair","coordinates":[0.6841166496276856,0.6106581370035807,0.09204822182655334,0.11263271967569986]},{"name":"cup","coordinates":[0.7670090198516846,0.6562886555989583,0.04471161663532257,0.06843393643697103]},{"name":"bowl","coordinates":[0.48450675010681155,0.47841081619262693,0.07574878931045533,0.029764660199483237]},{"name":"bottle","coordinates":[0.14731552600860595,0.537750244140625,0.017694878578186034,0.0613545020421346]},{"name":"apple","coordinates":[0.5063493251800537,0.4640627861022949,0.022435410320758818,0.02098794182141622]},{"name":"apple","coordinates":[0.47237043380737304,0.4649796485900879,0.019475141167640687,0.016981826225916544]},{"name":"apple","coordinates":[0.48892645835876464,0.4638856569925944,0.018075013160705568,0.01753756801287333]}]}
