{"src":"https://a0.muscache.com/im/pictures/d90f44e1-76b3-45f9-93ed-342289948194.jpg?aki_policy=xx_large","name":"The Green Room and The Red Room","listingId":21448942,"photoId":"1241-6","tags":[{"name":"refrigerator","coordinates":[0.36718051433563237,0.28813651402791346,0.25522618293762206,0.6842960993448893]},{"name":"chair","coordinates":[0.6881182670593262,0.5623798290888469,0.12666053771972657,0.24302878379821777]},{"name":"sink","coordinates":[-0.002125900983810422,0.679865292708079,0.14852899312973022,0.11634465058644612]},{"name":"chair","coordinates":[0.6869759172201156,0.5641976277033487,0.05892742276191711,0.23900434176127117]},{"name":"bottle","coordinates":[0.015401923656463624,0.5743671099344889,0.04117422103881836,0.12107105255126953]},{"name":"book","coordinates":[0.7926183439791202,0.42876634597778324,0.011109118163585664,0.05659542083740234]},{"name":"book","coordinates":[0.7755376845598221,0.4246822992960612,0.009602922201156616,0.06010246276855469]},{"name":"knife","coordinates":[0.34202471859753136,0.516014830271403,0.011212565749883652,0.04349842071533203]},{"name":"knife","coordinates":[0.3137300323694944,0.5140370627244313,0.009555182605981826,0.04697279532750447]},{"name":"knife","coordinates":[0.33212739415466785,0.5166718244552612,0.00921451672911644,0.041513554255167645]}]}
