{"src":"https://a0.muscache.com/im/pictures/2eb99467-d863-4636-a698-08033e3d2ce1.jpg?aki_policy=xx_large","name":"「大召」【KICI小屋】\n两房一厅   北欧小清新","listingId":21456333,"photoId":"1243-1","tags":[{"name":"chair","coordinates":[0.5467736117811088,0.7793697992960612,0.69190404501306,0.4131715138753255]},{"name":"chair","coordinates":[0.9564314692853445,0.714483133951823,0.26436380593173475,0.3796446482340495]},{"name":"chair","coordinates":[0.1290153710238905,0.7076546986897786,0.2538090211799346,0.3878200848897298]},{"name":"diningtable","coordinates":[0.5645925223109234,0.5481904983520508,0.6160460782338337,0.0427679181098938]},{"name":"bottle","coordinates":[0.5676514039556664,0.4771046002705892,0.0469083297683532,0.10939892927805582]},{"name":"vase","coordinates":[0.632220854242164,0.5115017255147298,0.05865160815687065,0.05958422819773356]}]}
