{"src":"https://a0.muscache.com/im/pictures/2eb99467-d863-4636-a698-08033e3d2ce1.jpg?aki_policy=xx_large","name":"「大召」【KICI小屋】\n两房一厅   北欧小清新","listingId":21456333,"photoId":"1243-1","tags":[{"name":"chair","coordinates":[0.5042467753092448,0.7793697992960612,0.6380892859564887,0.4131715138753255]},{"name":"chair","coordinates":[0.8820423550075955,0.714483133951823,0.24380217658148873,0.3796446482340495]},{"name":"chair","coordinates":[0.11898084216647678,0.7076546986897786,0.23406831953260634,0.3878200848897298]},{"name":"diningtable","coordinates":[0.5206797705756293,0.5481904983520508,0.5681313832600912,0.0427679181098938]},{"name":"bottle","coordinates":[0.523500739203559,0.4771046002705892,0.043259904119703506,0.10939892927805582]},{"name":"vase","coordinates":[0.5830481211344402,0.5115017255147298,0.05408981641133626,0.05958422819773356]}]}
