{"src":"https://a0.muscache.com/im/pictures/81143596/dd11a253_original.jpg?aki_policy=xx_large","name":"Bright apartment with garden","listingId":6463237,"photoId":"1245-2","tags":[{"name":"chair","coordinates":[0.7081953260633681,0.8116498311360677,0.5366561465793186,0.3488305409749349]},{"name":"sofa","coordinates":[0.8093706766764323,0.5363061269124348,0.33777491251627606,0.314853572845459]},{"name":"chair","coordinates":[0.32190897199842666,0.4518263498942057,0.13782256444295246,0.33286170959472655]},{"name":"pottedplant","coordinates":[0.6721590677897136,0.30945905049641925,0.09242886437310113,0.24270949363708497]},{"name":"remote","coordinates":[0.5343705495198567,0.6202576319376628,0.06140326923794216,0.019773036241531372]}]}
