{"src":"https://a0.muscache.com/im/pictures/bf6fe5e5-084e-4f61-9412-1f101626574e.jpg?aki_policy=xx_large","name":"ROMANTIC ATTIC on the waterfront","listingId":646887,"photoId":"1246-1","tags":[{"name":"sofa","coordinates":[0.880483341217041,0.6978621164957682,0.23986423015594482,0.6058113733927409]},{"name":"sofa","coordinates":[0.5277739524841308,0.508781369527181,0.36198375225067136,0.2096957524617513]},{"name":"tvmonitor","coordinates":[0.12025566101074218,0.46871550877888996,0.13444242477416993,0.14035054842631023]},{"name":"pottedplant","coordinates":[0.7432178974151611,0.3347237269083659,0.06494066119194031,0.08449002901713053]},{"name":"book","coordinates":[0.5228083610534668,0.6471876780192057,0.09700273871421813,0.04211591879526774]},{"name":"pottedplant","coordinates":[0.4890450000762939,0.35389674504597984,0.04587883353233337,0.05504860877990723]},{"name":"pottedplant","coordinates":[0.6434376239776611,0.35220429102579753,0.04154994785785675,0.05724812348683675]},{"name":"pottedplant","coordinates":[0.5674243450164795,0.36106964747111003,0.0341774582862854,0.04241771300633748]},{"name":"book","coordinates":[0.108233642578125,0.6127218882242839,0.011560655385255813,0.0387263019879659]},{"name":"book","coordinates":[0.12152646780014038,0.6113426844278972,0.009876846522092819,0.043257304032643634]}]}
