{"src":"https://a0.muscache.com/im/pictures/7087252b-cd23-4865-9381-2b24f9e1155f.jpg?aki_policy=xx_large","name":"Stop over BLZ.(blantyre)","listingId":12745652,"photoId":"125-5","tags":[{"name":"diningtable","coordinates":[0.4994663238525391,0.4972387949625651,0.9743414878845215,0.9634510040283203]},{"name":"cup","coordinates":[0.3652253389358521,0.21012674967447917,0.23110146522521974,0.3076469421386719]},{"name":"bowl","coordinates":[0.3652253389358521,0.21012674967447917,0.23110146522521974,0.3076469421386719]},{"name":"knife","coordinates":[0.7350520610809326,0.06803562641143798,0.4578287601470947,0.13406273523966472]},{"name":"cup","coordinates":[0.37763664722442625,0.7433943430582682,0.18348504304885865,0.21117579142252604]},{"name":"banana","coordinates":[0.1799835443496704,0.3048272132873535,0.15677735805511475,0.22184810638427735]},{"name":"sandwich","coordinates":[0.1799835443496704,0.3048272132873535,0.15677735805511475,0.22184810638427735]},{"name":"hot-dog","coordinates":[0.7055687427520752,0.6847763061523438,0.13175290822982788,0.2613164265950521]},{"name":"hot-dog","coordinates":[0.7535124778747558,0.7139103571573894,0.11782655715942383,0.21782752672831218]}]}
