{"src":"https://a0.muscache.com/im/pictures/7087252b-cd23-4865-9381-2b24f9e1155f.jpg?aki_policy=xx_large","name":"Stop over BLZ.(blantyre)","listingId":12745652,"photoId":"125-5","tags":[{"name":"diningtable","coordinates":[0.012295579910278354,0.015513292948404978,0.9743414878845215,0.9634510040283203]},{"name":"cup","coordinates":[0.2496746063232422,0.056303278605143225,0.23110146522521974,0.3076469421386719]},{"name":"bowl","coordinates":[0.2496746063232422,0.056303278605143225,0.23110146522521974,0.3076469421386719]},{"name":"knife","coordinates":[0.5061376810073852,0.0010042587916056223,0.4578287601470947,0.13406273523966472]},{"name":"cup","coordinates":[0.28589412569999695,0.6378064473470052,0.18348504304885865,0.21117579142252604]},{"name":"banana","coordinates":[0.10159486532211302,0.19390316009521485,0.15677735805511475,0.22184810638427735]},{"name":"sandwich","coordinates":[0.10159486532211302,0.19390316009521485,0.15677735805511475,0.22184810638427735]},{"name":"hot-dog","coordinates":[0.6396922886371612,0.5541180928548177,0.13175290822982788,0.2613164265950521]},{"name":"hot-dog","coordinates":[0.6945991992950439,0.6049965937932333,0.11782655715942383,0.21782752672831218]}]}
