{"src":"https://a0.muscache.com/im/pictures/0c64a8df-44b7-4e9e-953a-f87d1c6e7cf4.jpg?aki_policy=xx_large","name":"拎包就住的loft","listingId":21477723,"photoId":"1250-4","tags":[{"name":"chair","coordinates":[0.5676288962364197,0.707736078898112,0.2747765779495239,0.272869873046875]},{"name":"chair","coordinates":[0.8001644253730774,0.5327968597412109,0.18146398067474365,0.1640973409016927]},{"name":"sink","coordinates":[0.007055711746215831,0.4909719864527385,0.319663405418396,0.09012964566548666]},{"name":"laptop","coordinates":[0.612655919790268,0.47198234399159755,0.18449403047561647,0.15059657096862794]},{"name":"bottle","coordinates":[0.026242901384830472,0.40342870553334553,0.028727605938911438,0.11819217999776205]}]}
