{"src":"https://a0.muscache.com/im/pictures/82164750/b2a7b249_original.jpg?aki_policy=xx_large","name":"Charming guesthouse near the beach","listingId":6524554,"photoId":"1250-7","tags":[{"name":"diningtable","coordinates":[0.8320790608723958,0.8811319986979167,0.16177550421820747,0.21723543802897136]},{"name":"pottedplant","coordinates":[0.24298038482666015,0.8762011210123698,0.13903415468004016,0.21171614329020183]},{"name":"chair","coordinates":[0.44068997701009116,0.8751232147216796,0.12346082263522679,0.21691524187723796]},{"name":"chair","coordinates":[0.722399648030599,0.8674838383992513,0.07565069198608398,0.24576020240783691]},{"name":"chair","coordinates":[0.5567404005262587,0.8561927159627278,0.079681486553616,0.20900739034016927]},{"name":"person","coordinates":[0.8887244330512153,0.6896430969238281,0.07533523241678873,0.1595969518025716]},{"name":"person","coordinates":[0.8172832912868924,0.6500300725301107,0.04310395982530382,0.08787140051523844]},{"name":"pottedplant","coordinates":[0.8033453199598525,0.7673025131225586,0.04421325524648031,0.0810186227162679]}]}
