{"src":"https://a0.muscache.com/im/pictures/0c64a8df-44b7-4e9e-953a-f87d1c6e7cf4.jpg?aki_policy=xx_large","name":"拎包就住的loft","listingId":21477723,"photoId":"1250-3","tags":[{"name":"chair","coordinates":[0.7050171852111816,0.8441710154215495,0.2747765779495239,0.272869873046875]},{"name":"chair","coordinates":[0.8908964157104492,0.6148455301920573,0.18146398067474365,0.1640973409016927]},{"name":"sink","coordinates":[0.16688741445541383,0.5360368092854818,0.319663405418396,0.09012964566548666]},{"name":"laptop","coordinates":[0.7049029350280762,0.5472806294759115,0.18449403047561647,0.15059657096862794]},{"name":"bottle","coordinates":[0.04060670435428619,0.4625247955322266,0.028727605938911438,0.11819217999776205]}]}
