{"src":"https://a0.muscache.com/im/pictures/84582081/433f0e79_original.jpg?aki_policy=xx_large","name":"Sunny, spacious house near beach","listingId":6556585,"photoId":"1252-11","tags":[{"name":"diningtable","coordinates":[0.49540417989095054,0.846508280436198,0.9982385423448351,0.2618602434794108]},{"name":"bowl","coordinates":[0.19666629367404515,0.7766929626464844,0.17715693579779732,0.14902652104695638]},{"name":"bowl","coordinates":[0.7554356045193142,0.7696174621582031,0.16307676103379992,0.12612114747365316]},{"name":"pottedplant","coordinates":[0.277282354566786,0.5926026662190755,0.11379019419352214,0.17351527214050294]},{"name":"chair","coordinates":[0.5512713962131076,0.705659294128418,0.09117727279663086,0.10817033449808756]},{"name":"chair","coordinates":[0.3801280551486545,0.710383415222168,0.09295600255330404,0.10228532950083415]},{"name":"clock","coordinates":[0.2753583484225803,0.43395395278930665,0.059716982311672634,0.08407448927561442]},{"name":"vase","coordinates":[0.2805005815294054,0.6491970698038737,0.03478208912743463,0.07017070452372233]},{"name":"book","coordinates":[0.12621040344238282,0.3994441986083984,0.011330419116550021,0.04073739051818848]}]}
