{"src":"https://a0.muscache.com/im/pictures/82853483/ddaeeb84_original.jpg?aki_policy=xx_large","name":"Amazing Apartment on 38th floor 768","listingId":6580603,"photoId":"1253-5","tags":[{"name":"sofa","coordinates":[0.7065695762634278,0.7037060419718425,0.563338327407837,0.5865381876627604]},{"name":"sofa","coordinates":[0.7431143760681153,0.5095834732055664,0.4465309143066406,0.2548899014790853]},{"name":"chair","coordinates":[0.2043593168258667,0.53565673828125,0.1975774884223938,0.24728832244873047]},{"name":"refrigerator","coordinates":[0.291637921333313,0.3109675407409668,0.11489589214324951,0.1644046147664388]},{"name":"chair","coordinates":[0.059716546535491945,0.40709784825642903,0.08854257464408874,0.19464866320292154]},{"name":"chair","coordinates":[0.1794284462928772,0.311342716217041,0.04651325643062591,0.041550421714782716]},{"name":"remote","coordinates":[0.3239067792892456,0.5744591395060221,0.03485348522663116,0.035441788037618]}]}
