{"src":"https://a0.muscache.com/im/pictures/82853427/2c9e9310_original.jpg?aki_policy=xx_large","name":"Amazing Apartment on 38th floor 768","listingId":6580603,"photoId":"1253-13","tags":[{"name":"diningtable","coordinates":[0.3955439805984497,0.8153617858886719,0.6766088008880615,0.34835666020711265]},{"name":"chair","coordinates":[0.7239205837249756,0.8066566467285157,0.18625264167785643,0.3344182014465332]},{"name":"pottedplant","coordinates":[0.9290465354919434,0.46021289825439454,0.11618173122406006,0.3127964973449707]},{"name":"chair","coordinates":[0.6652217864990234,0.6552301406860351,0.1230478048324585,0.05693437655766805]},{"name":"wine-glass","coordinates":[0.2875159025192261,0.6898334503173829,0.04354789257049561,0.1583039442698161]},{"name":"wine-glass","coordinates":[0.4704747676849365,0.7144243876139323,0.04494257867336273,0.14980600674947103]},{"name":"cup","coordinates":[0.5305263042449951,0.8012650171915691,0.045098960399627686,0.11134076118469238]},{"name":"wine-glass","coordinates":[0.6376026630401611,0.5158872604370117,0.02377384603023529,0.07385011514027913]},{"name":"wine-glass","coordinates":[0.6603517532348633,0.5154843330383301,0.024665048718452452,0.06398032506306967]},{"name":"wine-glass","coordinates":[0.7493144512176514,0.5423263549804688,0.02295990437269211,0.05974785089492798]}]}
