{"src":"https://a0.muscache.com/im/pictures/82853416/55332f7f_original.jpg?aki_policy=xx_large","name":"Amazing Apartment on 38th floor 768","listingId":6580603,"photoId":"1253-11","tags":[{"name":"diningtable","coordinates":[0.8500066757202148,0.8316612243652344,0.2844935655593872,0.3005679448445638]},{"name":"bowl","coordinates":[0.8500066757202148,0.8316612243652344,0.2844935655593872,0.3005679448445638]},{"name":"cup","coordinates":[0.6100526809692383,0.8128400166829427,0.15251309871673585,0.28722136815389]},{"name":"cup","coordinates":[0.2280285120010376,0.8522934595743815,0.1143457055091858,0.22216121355692545]},{"name":"cup","coordinates":[0.10881555080413818,0.6864816665649414,0.097364741563797,0.22459287643432618]},{"name":"bowl","coordinates":[0.1000984787940979,0.9098385492960612,0.12805784940719606,0.15082950592041017]},{"name":"spoon","coordinates":[0.44700207710266116,0.8798289616902669,0.08523914217948914,0.19293511708577474]}]}
