{"src":"https://a0.muscache.com/im/pictures/f82c47b8-ad52-4050-9711-8303d06b501f.jpg?aki_policy=xx_large","name":"Stunning Shipping Container-A Must See!!","listingId":21491074,"photoId":"1256-3","tags":[{"name":"sofa","coordinates":[-0.004835690119413566,0.6100593407948812,0.3352913659220092,0.3805612246195475]},{"name":"chair","coordinates":[0.20883715925134783,0.5675258954366048,0.14277202239918765,0.30229460398356117]},{"name":"chair","coordinates":[0.3533632812976465,0.5823860327402751,0.12411657448023394,0.26339591344197594]},{"name":"pottedplant","coordinates":[0.6307940516594701,0.357055393854777,0.07853599863997854,0.15557133356730143]},{"name":"bottle","coordinates":[0.3306474075198267,0.3895932038625081,0.011497570517284622,0.04408833185831706]},{"name":"knife","coordinates":[0.3655750366228805,0.35359244346618657,0.010334974522706031,0.024472459157307943]}]}
