{"src":"https://a0.muscache.com/im/pictures/c52d1fac-aaa1-4b36-8c68-87a2d2337101.jpg?aki_policy=xx_large","name":"22近二附院徽园港澳广场两个肥宅攻城狮经营的幽静和式合肥二胖家","listingId":21499008,"photoId":"1259-9","tags":[{"name":"bus","coordinates":[0.38164733052253724,0.45665477116902675,0.13352292776107788,0.269755490620931]},{"name":"motorbike","coordinates":[0.0658933162689209,0.6790075222651163,0.14355792999267578,0.18155239423116049]},{"name":"motorbike","coordinates":[0.0017529219388961806,0.67962433497111,0.0861284613609314,0.21905028025309245]},{"name":"person","coordinates":[0.0935539126396179,0.6361970901489258,0.08425195217132568,0.18454322814941407]},{"name":"motorbike","coordinates":[0.23266405165195464,0.693414036432902,0.08774668574333191,0.1125276247660319]},{"name":"car","coordinates":[0.5304543763399123,0.5907767136891683,0.06183714270591736,0.04001461664835612]}]}
