{"src":"https://a0.muscache.com/im/pictures/c52d1fac-aaa1-4b36-8c68-87a2d2337101.jpg?aki_policy=xx_large","name":"22近二附院徽园港澳广场两个肥宅攻城狮经营的幽静和式合肥二胖家","listingId":21499008,"photoId":"1259-9","tags":[{"name":"bus","coordinates":[0.4484087944030762,0.5915325164794922,0.13352292776107788,0.269755490620931]},{"name":"motorbike","coordinates":[0.1376722812652588,0.7697837193806966,0.14355792999267578,0.18155239423116049]},{"name":"motorbike","coordinates":[0.04481715261936188,0.7891494750976562,0.0861284613609314,0.21905028025309245]},{"name":"person","coordinates":[0.13567988872528075,0.7284687042236329,0.08425195217132568,0.18454322814941407]},{"name":"motorbike","coordinates":[0.2765373945236206,0.7496778488159179,0.08774668574333191,0.1125276247660319]},{"name":"car","coordinates":[0.561372947692871,0.6107840220133464,0.06183714270591736,0.04001461664835612]}]}
