{"src":"https://a0.muscache.com/im/pictures/386b1093-011d-40d2-98ac-2fab0feb0c7c.jpg?aki_policy=xx_large","name":"From bedside to seaside in minutes!","listingId":672726,"photoId":"1259-3","tags":[{"name":"sofa","coordinates":[0.7425850762261285,0.6565703709920248,0.4189440409342448,0.3087930997212728]},{"name":"sofa","coordinates":[0.3546822441948785,0.6564481735229493,0.3924957275390625,0.29816598892211915]},{"name":"pottedplant","coordinates":[0.6287192874484592,0.574440066019694,0.07353793250189887,0.19268113772074383]},{"name":"vase","coordinates":[0.6314912584092882,0.6289024988810221,0.04958229594760471,0.08954126040140788]},{"name":"book","coordinates":[0.06742628415425618,0.21923446655273438,0.009935918119218614,0.05245676835378011]}]}
