{"src":"https://a0.muscache.com/im/pictures/48e4ae6a-f880-406e-8f3c-01250b372044.jpg?aki_policy=xx_large","name":"入云屋(整套房源由预定者独享但预定者只使用一个房间最多入住2人)","listingId":12772155,"photoId":"126-2","tags":[{"name":"pottedplant","coordinates":[0.22902357578277588,0.8170867284138997,0.3596030235290527,0.36846332550048827]},{"name":"chair","coordinates":[0.4623228073120117,0.7551064809163411,0.10688790082931518,0.1936050573984782]},{"name":"chair","coordinates":[0.5307794094085694,0.8654748280843099,0.0629262387752533,0.2675753275553385]},{"name":"clock","coordinates":[0.3420943975448608,0.2124162991841634,0.09873590469360352,0.12479798793792725]},{"name":"pottedplant","coordinates":[0.4036579608917236,0.5885493596394856,0.04649909436702728,0.12500231266021727]},{"name":"book","coordinates":[0.5485755920410156,0.541528828938802,0.019377340376377106,0.08664716084798177]}]}
