{"src":"https://a0.muscache.com/im/pictures/d2480c97-fb7e-4a7a-a142-ea83714b87ef.jpg?aki_policy=xx_large","name":"入云屋(整套房源由预定者独享但预定者只使用一个房间最多入住2人)","listingId":12772155,"photoId":"126-0","tags":[{"name":"diningtable","coordinates":[0.15307416915893557,0.6201473236083984,0.6842208862304687,0.36704839070638023]},{"name":"chair","coordinates":[0.6874517917633057,0.7359692176183065,0.128741455078125,0.2646128495534261]},{"name":"chair","coordinates":[0.2006341576576233,0.5892594496409098,0.1554030656814575,0.183429749806722]},{"name":"chair","coordinates":[0.510455334186554,0.8445376475652059,0.17263925075531006,0.1448986530303955]},{"name":"pottedplant","coordinates":[0.1451953172683716,0.5352506955464681,0.11185946464538574,0.1550167719523112]},{"name":"chair","coordinates":[0.46513620316982274,0.633560578028361,0.0776694118976593,0.07534697850545248]},{"name":"chair","coordinates":[0.24439224302768708,0.5696083267529805,0.036209458112716676,0.0874110778172811]},{"name":"clock","coordinates":[0.29318901449441914,0.26381537914276126,0.03645670115947723,0.0777510166168213]},{"name":"wine-glass","coordinates":[0.7914066992700101,0.5665241877237955,0.016751916706562044,0.0420989990234375]},{"name":"bottle","coordinates":[0.9075170531868935,0.5699707170327505,0.014585110545158386,0.04610376755396525]}]}
