{"src":"https://a0.muscache.com/im/pictures/48e4ae6a-f880-406e-8f3c-01250b372044.jpg?aki_policy=xx_large","name":"入云屋(整套房源由预定者独享但预定者只使用一个房间最多入住2人)","listingId":12772155,"photoId":"126-2","tags":[{"name":"pottedplant","coordinates":[0.4071530236138238,0.8170867284138997,0.6392942640516494,0.36846332550048827]},{"name":"chair","coordinates":[0.8219072129991319,0.7551064809163411,0.19002293480767143,0.1936050573984782]},{"name":"chair","coordinates":[0.9436078389485677,0.8654748280843099,0.11186886893378364,0.2675753275553385]},{"name":"clock","coordinates":[0.6081678178575304,0.2124162991841634,0.17553049723307293,0.12479798793792725]},{"name":"pottedplant","coordinates":[0.7176141526963976,0.5885493596394856,0.08266505665249295,0.12500231266021727]},{"name":"book","coordinates":[0.9752454969618055,0.541528828938802,0.0344486051135593,0.08664716084798177]}]}
