{"src":"https://a0.muscache.com/im/pictures/48e4ae6a-f880-406e-8f3c-01250b372044.jpg?aki_policy=xx_large","name":"入云屋(整套房源由预定者独享但预定者只使用一个房间最多入住2人)","listingId":12772155,"photoId":"126-2","tags":[{"name":"pottedplant","coordinates":[0.0875058915879991,0.6328550656636556,0.6392942640516494,0.36846332550048827]},{"name":"chair","coordinates":[0.7268957455952962,0.658303952217102,0.19002293480767143,0.1936050573984782]},{"name":"chair","coordinates":[0.8876734044816759,0.7316871643066406,0.11186886893378364,0.2675753275553385]},{"name":"clock","coordinates":[0.5204025692409939,0.1500173052151998,0.17553049723307293,0.12479798793792725]},{"name":"pottedplant","coordinates":[0.6762816243701512,0.526048203309377,0.08266505665249295,0.12500231266021727]},{"name":"book","coordinates":[0.9580211944050259,0.4982052485148112,0.0344486051135593,0.08664716084798177]}]}
