{"src":"https://a0.muscache.com/im/pictures/d2480c97-fb7e-4a7a-a142-ea83714b87ef.jpg?aki_policy=xx_large","name":"入云屋(整套房源由预定者独享但预定者只使用一个房间最多入住2人)","listingId":12772155,"photoId":"126-0","tags":[{"name":"diningtable","coordinates":[0.49518461227416993,0.8036715189615885,0.6842208862304687,0.36704839070638023]},{"name":"chair","coordinates":[0.7518225193023682,0.8682756423950195,0.128741455078125,0.2646128495534261]},{"name":"chair","coordinates":[0.27833569049835205,0.6809743245442709,0.1554030656814575,0.183429749806722]},{"name":"chair","coordinates":[0.596774959564209,0.9169869740804036,0.17263925075531006,0.1448986530303955]},{"name":"pottedplant","coordinates":[0.20112504959106445,0.6127590815226237,0.11185946464538574,0.1550167719523112]},{"name":"chair","coordinates":[0.5039709091186524,0.6712340672810873,0.0776694118976593,0.07534697850545248]},{"name":"chair","coordinates":[0.26249697208404543,0.613313865661621,0.036209458112716676,0.0874110778172811]},{"name":"clock","coordinates":[0.31141736507415774,0.3026908874511719,0.03645670115947723,0.0777510166168213]},{"name":"wine-glass","coordinates":[0.799782657623291,0.5875736872355143,0.016751916706562044,0.0420989990234375]},{"name":"bottle","coordinates":[0.9148096084594727,0.5930226008097331,0.014585110545158386,0.04610376755396525]}]}
