{"src":"https://a0.muscache.com/im/pictures/92951466/16c8fbf0_original.jpg?aki_policy=xx_large","name":"Vakantiechalet Den Haag / Delft","listingId":6745184,"photoId":"1261-1","tags":[{"name":"diningtable","coordinates":[0.3366384029388428,0.782545789082845,0.27109570503234864,0.3824588775634766]},{"name":"chair","coordinates":[0.44219241142272947,0.7743563969930013,0.19650628566741943,0.3705245018005371]},{"name":"sofa","coordinates":[0.6081362247467041,0.5156631469726562,0.22836484909057617,0.21401011149088542]},{"name":"chair","coordinates":[0.27963905334472655,0.8434724807739258,0.1497928500175476,0.2886946678161621]},{"name":"chair","coordinates":[0.7905699729919433,0.5916177749633789,0.14607971906661987,0.20953818957010906]},{"name":"bowl","coordinates":[0.3541335821151733,0.594829241434733,0.08023543357849121,0.06259274482727051]}]}
