{"src":"https://a0.muscache.com/im/pictures/8bdadd2a-7c0f-4ca0-a651-58b0c82a8beb.jpg?aki_policy=xx_large","name":"Charming Bungalow with View; 7 miles to Red Rocks","listingId":21512852,"photoId":"1263-5","tags":[{"name":"chair","coordinates":[0.015598368644714353,0.5978757222493489,0.24439706802368164,0.3927037556966146]},{"name":"sofa","coordinates":[0.532976508140564,0.3358817418416341,0.3670495510101318,0.2599325180053711]},{"name":"chair","coordinates":[0.72300146818161,0.4759630839029948,0.2305595636367798,0.26469243367513023]},{"name":"chair","coordinates":[0.10297693610191347,0.3809962272644043,0.1713337779045105,0.20729783376057942]},{"name":"tvmonitor","coordinates":[0.4216348111629486,0.08490444024403891,0.10509787797927857,0.1475786050160726]},{"name":"clock","coordinates":[0.12039278447628021,0.03274370431900024,0.04888303875923157,0.07355835437774658]}]}
