{"src":"https://a0.muscache.com/im/pictures/518064ad-f969-40f3-a1ef-5510975913d6.jpg?aki_policy=xx_large","name":"Charming Bungalow with View; 7 miles to Red Rocks","listingId":21512852,"photoId":"1263-6","tags":[{"name":"diningtable","coordinates":[0.5810365200042724,0.7705118179321289,0.8641925811767578,0.45073299407958983]},{"name":"chair","coordinates":[0.17664529085159303,0.7438404083251953,0.3093092918395996,0.4937814076741536]},{"name":"chair","coordinates":[0.8028498649597168,0.8522398630777995,0.36553521156311036,0.2743700981140137]},{"name":"chair","coordinates":[0.9067913055419922,0.5888100306193034,0.1957034945487976,0.2667655944824219]},{"name":"chair","coordinates":[0.44952960014343263,0.48801193237304685,0.16634707450866698,0.1600641409556071]},{"name":"vase","coordinates":[0.5743906021118164,0.6165216445922852,0.059859180450439455,0.1775545279184977]},{"name":"clock","coordinates":[0.9006205558776855,0.15262298583984374,0.04648873507976532,0.07822960217793783]},{"name":"microwave","coordinates":[0.49715800285339357,0.23417030970255534,0.04398287832736969,0.07811742623647054]},{"name":"chair","coordinates":[0.25937395095825194,0.6159598668416341,0.03817933201789856,0.05528234640757243]}]}
