{"src":"https://a0.muscache.com/im/pictures/1ea9b27d-f0bb-481d-b3fb-c67cb17cc061.jpg?aki_policy=xx_large","name":"Charming Bungalow with View; 7 miles to Red Rocks","listingId":21512852,"photoId":"1263-6","tags":[{"name":"diningtable","coordinates":[0.45235009193420406,0.563391367594401,0.5386260032653809,0.4255152384440104]},{"name":"sofa","coordinates":[0.0640670299530029,0.3366156101226807,0.38743200302124026,0.2581113497416178]},{"name":"chair","coordinates":[0.37291407585144043,0.5987959225972495,0.26323728561401366,0.37565657297770183]},{"name":"chair","coordinates":[0.5033581852912903,0.4241593678792318,0.16059768199920654,0.19472306569417316]},{"name":"vase","coordinates":[0.795743665099144,0.5358700434366862,0.07600153088569642,0.18213284810384114]},{"name":"chair","coordinates":[0.9530570700764657,0.4288081725438435,0.048131045699119565,0.19598720868428549]}]}
