{"src":"https://a0.muscache.com/im/pictures/1ea9b27d-f0bb-481d-b3fb-c67cb17cc061.jpg?aki_policy=xx_large","name":"Charming Bungalow with View; 7 miles to Red Rocks","listingId":21512852,"photoId":"1263-5","tags":[{"name":"diningtable","coordinates":[0.7216630935668945,0.7761489868164062,0.5386260032653809,0.4255152384440104]},{"name":"sofa","coordinates":[0.257783031463623,0.4656712849934896,0.38743200302124026,0.2581113497416178]},{"name":"chair","coordinates":[0.5045327186584473,0.7866242090861003,0.26323728561401366,0.37565657297770183]},{"name":"chair","coordinates":[0.5836570262908936,0.5215209007263184,0.16059768199920654,0.19472306569417316]},{"name":"vase","coordinates":[0.8337444305419922,0.6269364674886068,0.07600153088569642,0.18213284810384114]},{"name":"chair","coordinates":[0.9771225929260254,0.5268017768859863,0.048131045699119565,0.19598720868428549]}]}
