{"src":"https://a0.muscache.com/im/pictures/5d85f422-fbfd-49b0-96a2-45fcc42ba162.jpg?aki_policy=xx_large","name":"Palacio Salvo OM","listingId":21515990,"photoId":"1264-3","tags":[{"name":"diningtable","coordinates":[0.4996403694152832,0.7129960378011068,0.9460655212402344,0.5319822311401368]},{"name":"bed","coordinates":[0.23605751991271973,0.37999022801717125,0.5319643020629883,0.42442715962727867]},{"name":"sofa","coordinates":[0.8860687255859375,0.4785285949707031,0.2264228343963623,0.37392120361328124]},{"name":"chair","coordinates":[0.5627877235412597,0.27474664052327474,0.10476539134979249,0.2397201379140218]},{"name":"wine-glass","coordinates":[0.6772887229919433,0.7364818572998046,0.11683956384658814,0.20924437840779622]},{"name":"cup","coordinates":[0.25312888622283936,0.5100528717041015,0.1228144884109497,0.18019375801086426]},{"name":"chair","coordinates":[0.4268957614898682,0.2312605381011963,0.0884658694267273,0.18996219635009765]},{"name":"diningtable","coordinates":[0.4887065887451172,0.2554707209269206,0.08335226774215698,0.1791455586751302]},{"name":"cup","coordinates":[0.9579913139343261,0.9034724553426107,0.08645715713500976,0.1723400592803955]},{"name":"cup","coordinates":[0.503718090057373,0.7478144963582357,0.09612775444984437,0.1498066266377767]}]}
