{"src":"https://a0.muscache.com/im/pictures/5d85f422-fbfd-49b0-96a2-45fcc42ba162.jpg?aki_policy=xx_large","name":"Palacio Salvo OM","listingId":21515990,"photoId":"1264-3","tags":[{"name":"diningtable","coordinates":[0.02660760879516605,0.4470049222310384,0.9460655212402344,0.5319822311401368]},{"name":"bed","coordinates":[-0.029924631118774414,0.16777664820353191,0.5319643020629883,0.42442715962727867]},{"name":"sofa","coordinates":[0.7728573083877563,0.29156799316406246,0.2264228343963623,0.37392120361328124]},{"name":"chair","coordinates":[0.5104050278663634,0.15488657156626384,0.10476539134979249,0.2397201379140218]},{"name":"wine-glass","coordinates":[0.6188689410686492,0.6318596680959065,0.11683956384658814,0.20924437840779622]},{"name":"cup","coordinates":[0.1917216420173645,0.4199559926986694,0.1228144884109497,0.18019375801086426]},{"name":"chair","coordinates":[0.38266282677650454,0.13627943992614747,0.0884658694267273,0.18996219635009765]},{"name":"diningtable","coordinates":[0.4470304548740387,0.16589794158935547,0.08335226774215698,0.1791455586751302]},{"name":"cup","coordinates":[0.9147627353668213,0.817302425702413,0.08645715713500976,0.1723400592803955]},{"name":"cup","coordinates":[0.45565421283245083,0.6729111830393474,0.09612775444984437,0.1498066266377767]}]}
