{"src":"https://a0.muscache.com/im/pictures/08d10316-8548-4860-a6ef-d2456a26e977.jpg?aki_policy=xx_large","name":"Chez Eva 3 minutes away from metro station","listingId":21525929,"photoId":"1267-2","tags":[{"name":"refrigerator","coordinates":[0.5765416264533996,0.5468771298726399,0.21119163036346436,0.44055067698160805]},{"name":"microwave","coordinates":[0.7464439153671265,0.6172510703404744,0.238219690322876,0.2175108750661214]},{"name":"bed","coordinates":[0.03855262398719787,0.6366828441619873,0.16175049543380737,0.20154708226521809]},{"name":"chair","coordinates":[0.34048675298690795,0.5784025510152181,0.07458951473236083,0.2022408167521159]},{"name":"pottedplant","coordinates":[0.34741554558277127,0.4878381172815958,0.06535505652427673,0.09042808214823404]}]}
