{"src":"https://a0.muscache.com/im/pictures/08d10316-8548-4860-a6ef-d2456a26e977.jpg?aki_policy=xx_large","name":"Chez Eva 3 minutes away from metro station","listingId":21525929,"photoId":"1267-1","tags":[{"name":"refrigerator","coordinates":[0.6816049377774932,0.767152468363444,0.21102676570275908,0.44055067698160805]},{"name":"microwave","coordinates":[0.8648780745328357,0.7260065078735352,0.23803372647406812,0.2175108750661214]},{"name":"bed","coordinates":[0.11933464151541764,0.7374563852945963,0.1616242265068489,0.20154708226521809]},{"name":"chair","coordinates":[0.3774865989476605,0.679522959391276,0.07453128716426376,0.2022408167521159]},{"name":"pottedplant","coordinates":[0.37979635794026884,0.5330521583557128,0.06530403774478862,0.09042808214823404]}]}
