{"src":"https://a0.muscache.com/im/pictures/90354611/539d1f61_original.jpg?aki_policy=xx_large","name":"Spacious beach house with garden","listingId":6856870,"photoId":"1267-1","tags":[{"name":"sofa","coordinates":[0.24800849490695528,0.7325010299682617,0.5173891279432509,0.5221192677815755]},{"name":"diningtable","coordinates":[0.628015857272678,0.8092405954996745,0.3262382083468967,0.3847245216369629]},{"name":"pottedplant","coordinates":[0.855419413248698,0.5838865280151367,0.30585691663953996,0.38120892842610676]},{"name":"sofa","coordinates":[0.41675563388400605,0.6107567469278972,0.4168568081325955,0.24569509824117025]},{"name":"bowl","coordinates":[0.6210169050428602,0.65794251759847,0.1160617298550076,0.06727559566497802]}]}
