{"src":"https://a0.muscache.com/im/pictures/86759127/f8396450_original.jpg?aki_policy=xx_large","name":"Spacious beach house with garden","listingId":6856870,"photoId":"1267-2","tags":[{"name":"sofa","coordinates":[0.1830810546875,0.7707490921020508,0.359944831000434,0.42759008407592775]},{"name":"sofa","coordinates":[0.7838551839192708,0.7996213912963868,0.2045530531141493,0.3605998675028483]},{"name":"chair","coordinates":[0.7802699618869358,0.5785936991373698,0.19520753224690754,0.2739220937093099]},{"name":"bowl","coordinates":[0.5500111473931206,0.5578463872273763,0.08313329484727648,0.058471826712290446]},{"name":"vase","coordinates":[0.4415867699517144,0.3049748102823893,0.01564500331878662,0.048524749279022214]}]}
