{"src":"https://a0.muscache.com/im/pictures/08d10316-8548-4860-a6ef-d2456a26e977.jpg?aki_policy=xx_large","name":"Chez Eva 3 minutes away from metro station","listingId":21525929,"photoId":"1267-2","tags":[{"name":"refrigerator","coordinates":[0.6821374416351318,0.767152468363444,0.21119163036346436,0.44055067698160805]},{"name":"microwave","coordinates":[0.8655537605285645,0.7260065078735352,0.238219690322876,0.2175108750661214]},{"name":"bed","coordinates":[0.11942787170410156,0.7374563852945963,0.16175049543380737,0.20154708226521809]},{"name":"chair","coordinates":[0.3777815103530884,0.679522959391276,0.07458951473236083,0.2022408167521159]},{"name":"pottedplant","coordinates":[0.38009307384490965,0.5330521583557128,0.06535505652427673,0.09042808214823404]}]}
