{"src":"https://a0.muscache.com/im/pictures/5e178d78-9639-41e2-a12f-781dc16e628b.jpg?aki_policy=xx_large","name":"10mins walk | SUNWAY STAY 03.Queen Bed+Shared Bath","listingId":21531861,"photoId":"1268-10","tags":[{"name":"diningtable","coordinates":[0.21280820634629993,0.546227471033732,0.5623579661051432,0.45044794082641604]},{"name":"chair","coordinates":[0.2993556658426921,0.5866532961527506,0.18131838904486763,0.43734188079833985]},{"name":"chair","coordinates":[0.514706728193495,0.6048301378885905,0.16947544945610893,0.40616461435953777]},{"name":"vase","coordinates":[0.4823169973161486,0.4940112590789795,0.04666869905259874,0.11443694432576497]},{"name":"cup","coordinates":[0.6403531697061327,0.5473716874917348,0.03692510657840305,0.05443252325057983]},{"name":"cup","coordinates":[0.3167789737383525,0.5496300836404164,0.03821812470753987,0.045474533240000406]}]}
