{"src":"https://a0.muscache.com/im/pictures/5e178d78-9639-41e2-a12f-781dc16e628b.jpg?aki_policy=xx_large","name":"10mins walk | SUNWAY STAY 03.Queen Bed+Shared Bath","listingId":21531861,"photoId":"1268-10","tags":[{"name":"diningtable","coordinates":[0.49398718939887154,0.7714514414469401,0.5623579661051432,0.45044794082641604]},{"name":"chair","coordinates":[0.3900148603651259,0.8053242365519205,0.18131838904486763,0.43734188079833985]},{"name":"chair","coordinates":[0.5994444529215495,0.8079124450683594,0.16947544945610893,0.40616461435953777]},{"name":"vase","coordinates":[0.505651346842448,0.551229731241862,0.04666869905259874,0.11443694432576497]},{"name":"cup","coordinates":[0.6588157229953342,0.5745879491170247,0.03692510657840305,0.05443252325057983]},{"name":"cup","coordinates":[0.3358880360921224,0.5723673502604166,0.03821812470753987,0.045474533240000406]}]}
