{"src":"https://z0.muscache.cn/im/pictures/413eba5e-753a-4991-b6d2-c218f95ea98f.jpg?aki_policy=xx_large","name":"Lovely apartment in Friedenau","listingId":21533100,"photoId":"1269-3","tags":[{"name":"diningtable","coordinates":[0.7910712348090277,0.611213747660319,1.0476245456271702,0.5781847635904948]},{"name":"chair","coordinates":[0.35279199812147355,0.7166899998982748,0.5733441670735677,0.5451090494791667]},{"name":"chair","coordinates":[1.1384210374620225,0.8025463104248047,0.5195791880289714,0.3653463045756022]},{"name":"pottedplant","coordinates":[1.4532511393229166,0.3294542630513509,0.2920805401272244,0.18839131991068522]},{"name":"vase","coordinates":[1.008160909016927,0.28613897959391277,0.07289198769463433,0.06805148919423422]}]}
