{"src":"https://z0.muscache.cn/im/pictures/413eba5e-753a-4991-b6d2-c218f95ea98f.jpg?aki_policy=xx_large","name":"Lovely apartment in Friedenau","listingId":21533100,"photoId":"1269-3","tags":[{"name":"diningtable","coordinates":[0.4449775695800781,0.611213747660319,0.5892888069152832,0.5781847635904948]},{"name":"chair","coordinates":[0.19844549894332886,0.7166899998982748,0.32250609397888186,0.5451090494791667]},{"name":"chair","coordinates":[0.6403618335723877,0.8025463104248047,0.2922632932662964,0.3653463045756022]},{"name":"pottedplant","coordinates":[0.8174537658691406,0.3294542630513509,0.1642953038215637,0.18839131991068522]},{"name":"vase","coordinates":[0.5670905113220215,0.28613897959391277,0.04100174307823181,0.06805148919423422]}]}
