{"src":"https://z0.muscache.cn/im/pictures/413eba5e-753a-4991-b6d2-c218f95ea98f.jpg?aki_policy=xx_large","name":"Lovely apartment in Friedenau","listingId":21533100,"photoId":"1269-3","tags":[{"name":"diningtable","coordinates":[0.15033316612243652,0.3221213658650716,0.5892888069152832,0.5781847635904948]},{"name":"chair","coordinates":[0.03719245195388793,0.4441354751586914,0.32250609397888186,0.5451090494791667]},{"name":"chair","coordinates":[0.49423018693923954,0.6198731581370036,0.2922632932662964,0.3653463045756022]},{"name":"pottedplant","coordinates":[0.7353061139583588,0.23525860309600827,0.1642953038215637,0.18839131991068522]},{"name":"vase","coordinates":[0.5465896397829055,0.25211323499679567,0.04100174307823181,0.06805148919423422]}]}
