{"src":"https://a0.muscache.com/im/pictures/94376677/009c8919_original.jpg?aki_policy=xx_large","name":"Huisje aan het strand","listingId":6948636,"photoId":"1271-0","tags":[{"name":"sofa","coordinates":[0.1626814948187934,0.6327060699462891,0.3026117960611979,0.6267449061075846]},{"name":"cat","coordinates":[0.7001514858669705,0.8519599914550782,0.19490424262152778,0.21899431546529133]},{"name":"chair","coordinates":[0.5825200822618273,0.425965690612793,0.13888609144422742,0.27445910771687826]},{"name":"teddy-bear","coordinates":[0.5825200822618273,0.425965690612793,0.13888609144422742,0.27445910771687826]},{"name":"pottedplant","coordinates":[0.17246491114298504,0.33614991505940756,0.18031590779622395,0.20214905738830566]},{"name":"tvmonitor","coordinates":[0.8551041497124566,0.3941253344217936,0.09074488745795356,0.18303763071695964]},{"name":"chair","coordinates":[0.6985216776529948,0.4681673049926758,0.08183393478393555,0.18276678721110026]},{"name":"bottle","coordinates":[0.040472234619988334,0.7257036844889323,0.07816055615743002,0.17776700655619304]},{"name":"pottedplant","coordinates":[0.9556983100043402,0.10943382581075033,0.07707089847988552,0.17657804489135742]},{"name":"pottedplant","coordinates":[0.39141103956434464,0.4798037846883138,0.06599550777011448,0.10360523064931233]}]}
