{"src":"https://a0.muscache.com/im/pictures/30c5899d-c254-4a43-afd7-130d8110bc4a.jpg?aki_policy=xx_large","name":"Luxury Penthouse Apartment with Ensuite Double Bed","listingId":21544327,"photoId":"1271-3","tags":[{"name":"chair","coordinates":[0.2777764426337348,0.7800936381022135,0.21853944990370008,0.4064816474914551]},{"name":"chair","coordinates":[0.12593972947862414,0.6939673741658529,0.15024362140231662,0.38955281575520834]},{"name":"chair","coordinates":[0.41231121487087674,0.6330313364664714,0.14871064292060004,0.3665501594543457]},{"name":"oven","coordinates":[0.5825925615098742,0.4211727778116862,0.07696583006117079,0.18769863446553547]},{"name":"laptop","coordinates":[0.3406855477227105,0.45663312276204426,0.08956033918592665,0.09624102910359701]},{"name":"chair","coordinates":[0.3406855477227105,0.45663312276204426,0.08956033918592665,0.09624102910359701]},{"name":"vase","coordinates":[0.2779552671644423,0.5435785929361979,0.036391814549764,0.08511214256286621]}]}
