{"src":"https://a0.muscache.com/im/pictures/30c5899d-c254-4a43-afd7-130d8110bc4a.jpg?aki_policy=xx_large","name":"Luxury Penthouse Apartment with Ensuite Double Bed","listingId":21544327,"photoId":"1271-3","tags":[{"name":"chair","coordinates":[0.16850671768188474,0.5768528143564859,0.21853944990370008,0.4064816474914551]},{"name":"chair","coordinates":[0.05081791877746583,0.49919096628824866,0.15024362140231662,0.38955281575520834]},{"name":"chair","coordinates":[0.33795589341057675,0.44975625673929853,0.14871064292060004,0.3665501594543457]},{"name":"oven","coordinates":[0.5441096464792887,0.3273234605789185,0.07696583006117079,0.18769863446553547]},{"name":"laptop","coordinates":[0.29590537812974715,0.40851260821024576,0.08956033918592665,0.09624102910359701]},{"name":"chair","coordinates":[0.29590537812974715,0.40851260821024576,0.08956033918592665,0.09624102910359701]},{"name":"vase","coordinates":[0.2597593598895603,0.5010225216547648,0.036391814549764,0.08511214256286621]}]}
