{"src":"https://a0.muscache.com/im/pictures/08b40868-b595-4731-b6fd-3b29c32f85fe.jpg?aki_policy=xx_large","name":"Room, green oasis close to city center and FU","listingId":21545811,"photoId":"1272-5","tags":[{"name":"sink","coordinates":[0.891584575176239,0.7666423877080282,0.11435720920562745,0.2107789198557536]},{"name":"chair","coordinates":[0.4831505686044693,0.5904766162236532,0.09881049990653992,0.24035197893778484]},{"name":"chair","coordinates":[0.41293652057647706,0.5673353910446167,0.08540663719177247,0.24496649106343588]},{"name":"sink","coordinates":[0.4473727464675904,0.5018225888411204,0.23601574897766114,0.03102794090906779]},{"name":"cup","coordinates":[0.93909293115139,0.5743805686632792,0.05364091992378235,0.09174306392669677]},{"name":"apple","coordinates":[0.06773758083581924,0.5796551038821538,0.03497463166713714,0.032174624999364215]}]}
