{"src":"https://a0.muscache.com/im/pictures/48084ee2-79d8-417d-ae04-b681b2c84f22.jpg?aki_policy=xx_large","name":"Шестиместная комната","listingId":2156751,"photoId":"1276-0","tags":[{"name":"diningtable","coordinates":[0.6583979712592231,0.8005935668945312,0.6797459072536892,0.3870846430460612]},{"name":"chair","coordinates":[0.799208747016059,0.8162064870198568,0.3254083421495226,0.3430917421976725]},{"name":"refrigerator","coordinates":[0.7998986985948351,0.46414578755696617,0.22323731316460504,0.4813486417134603]},{"name":"chair","coordinates":[0.3993902842203776,0.8751335144042969,0.27165722317165797,0.25514674186706543]},{"name":"chair","coordinates":[0.22226808336046006,0.7653183619181315,0.09894789589775933,0.3929951032002767]},{"name":"diningtable","coordinates":[0.33917829725477433,0.6341843287150065,0.24264721340603299,0.12870806058247883]},{"name":"oven","coordinates":[0.19844720628526474,0.6389482498168946,0.08830569585164388,0.20678629875183105]},{"name":"chair","coordinates":[0.6816476186116537,0.6786294301350911,0.11920273039076064,0.10285844802856445]},{"name":"microwave","coordinates":[0.6421358744303386,0.48927955627441405,0.0974066522386339,0.07613409360249837]},{"name":"chair","coordinates":[0.4542326185438368,0.6064639409383138,0.0780513604482015,0.08241240978240967]},{"name":"cup","coordinates":[0.3185790379842122,0.5749076843261719,0.03134531444973416,0.037844892342885336]},{"name":"spoon","coordinates":[0.3539662255181207,0.4325079600016276,0.011033705208036634,0.08567398389180501]},{"name":"spoon","coordinates":[0.3168689092000326,0.42803433736165364,0.01013279226091173,0.09250111579895019]},{"name":"spoon","coordinates":[0.33500196668836807,0.4301760673522949,0.009556460380554199,0.08694403966267904]}]}
