{"src":"https://a0.muscache.com/im/pictures/3bbdab42-a1ce-451f-88ed-b6caac177cc0.jpg?aki_policy=xx_large","name":"Nice double upper house in center","listingId":6969413,"photoId":"1276-0","tags":[{"name":"diningtable","coordinates":[0.5901164054870606,0.7839096069335938,0.13675992488861083,0.26168959935506186]},{"name":"pottedplant","coordinates":[0.9147830963134765,0.48617979685465496,0.08419156074523926,0.18627231915791828]},{"name":"pottedplant","coordinates":[0.5257071495056153,0.4132510185241699,0.06894636154174805,0.1481066385904948]},{"name":"vase","coordinates":[0.5683848857879639,0.43287633260091146,0.03133930265903473,0.10454079310099283]},{"name":"book","coordinates":[0.011232481896877288,0.6850692749023437,0.014490307867527008,0.1231947104136149]},{"name":"vase","coordinates":[0.5286684989929199,0.45984007517496744,0.02800233066082001,0.049167172114054365]}]}
