{"src":"https://a0.muscache.com/im/pictures/3407685/de78762e_original.jpg?aki_policy=xx_large","name":"Espresso @ Dejavu 9 min airport","listingId":215691,"photoId":"1277-3","tags":[{"name":"oven","coordinates":[0.4398836771647136,0.6183600902557373,0.25583419799804685,0.37774807612101235]},{"name":"microwave","coordinates":[0.24307463434007437,0.540339994430542,0.16713539759318033,0.13526430130004882]},{"name":"toaster","coordinates":[0.24307463434007437,0.540339994430542,0.16713539759318033,0.13526430130004882]},{"name":"bottle","coordinates":[0.5332160578833686,0.2966662605603536,0.018788814544677734,0.10094441572825114]},{"name":"bottle","coordinates":[0.4843727833694882,0.2940201918284098,0.016376774840884737,0.09497588475545247]},{"name":"bottle","coordinates":[0.5035834756162432,0.29858259757359823,0.015518460008833144,0.09331719875335694]},{"name":"bottle","coordinates":[0.518788214524587,0.2994091312090556,0.014925927586025662,0.09570840994517009]},{"name":"bowl","coordinates":[0.6112347894244724,0.41689374148845676,0.0535659843020969,0.025590187311172484]}]}
