{"src":"https://a0.muscache.com/im/pictures/58a8c3c0-699d-4097-87e4-ae5ace813f3a.jpg?aki_policy=xx_large","name":"Cozy Arty Mansard - Great Location","listingId":7020172,"photoId":"1277-4","tags":[{"name":"bed","coordinates":[0.4793238162994385,0.8328946431477865,0.5314025402069091,0.3200756390889486]},{"name":"sofa","coordinates":[0.9172331809997558,0.7781553268432617,0.17616266012191772,0.2951160748799642]},{"name":"chair","coordinates":[0.06048818826675415,0.7825216929117839,0.1103377103805542,0.3019573211669922]},{"name":"chair","coordinates":[0.7102653980255127,0.7196591059366862,0.14293688535690308,0.19861796696980794]},{"name":"chair","coordinates":[0.3884429454803467,0.6470210393269856,0.07007691860198975,0.14488414128621419]},{"name":"pottedplant","coordinates":[0.8123212814331054,0.6427161534627278,0.04540826678276062,0.07789018948872885]},{"name":"book","coordinates":[0.5843320369720459,0.6402459462483724,0.015889525413513184,0.10367053349812826]},{"name":"book","coordinates":[0.336146879196167,0.5550210316975911,0.011337432265281677,0.05375501314798991]},{"name":"book","coordinates":[0.5859375953674316,0.41082461675008136,0.016202934086322784,0.02447833220163981]}]}
