{"src":"https://a0.muscache.com/im/pictures/3407685/de78762e_original.jpg?aki_policy=xx_large","name":"Espresso @ Dejavu 9 min airport","listingId":215691,"photoId":"1277-3","tags":[{"name":"oven","coordinates":[0.567800776163737,0.8072341283162435,0.25583419799804685,0.37774807612101235]},{"name":"microwave","coordinates":[0.3266423331366645,0.6079721450805664,0.16713539759318033,0.13526430130004882]},{"name":"toaster","coordinates":[0.3266423331366645,0.6079721450805664,0.16713539759318033,0.13526430130004882]},{"name":"bottle","coordinates":[0.5426104651557074,0.34713846842447915,0.018788814544677734,0.10094441572825114]},{"name":"bottle","coordinates":[0.49256117078993056,0.34150813420613607,0.016376774840884737,0.09497588475545247]},{"name":"bottle","coordinates":[0.5113427056206598,0.3452411969502767,0.015518460008833144,0.09331719875335694]},{"name":"bottle","coordinates":[0.5262511783175998,0.3472633361816406,0.014925927586025662,0.09570840994517009]},{"name":"bowl","coordinates":[0.6380177815755208,0.429688835144043,0.0535659843020969,0.025590187311172484]}]}
