{"src":"https://a0.muscache.com/im/pictures/94b6f513-8857-4884-9778-7e1bb858f657.jpg?aki_policy=xx_large","name":"Ruim appartement in oase van rust, gratis parkeren","listingId":7048053,"photoId":"1278-7","tags":[{"name":"diningtable","coordinates":[0.10778340101242065,0.6009613672892252,0.18604371547698975,0.2727718671162923]},{"name":"microwave","coordinates":[0.5068353176116943,0.5594143549601237,0.12687866687774657,0.3655138333638509]},{"name":"chair","coordinates":[0.21196455955505372,0.6087928136189779,0.10961054563522339,0.23519074122111003]},{"name":"chair","coordinates":[0.03892928063869476,0.6057668050130208,0.07815666794776917,0.25169032414754233]},{"name":"cup","coordinates":[0.5135555744171143,0.3440885861714681,0.03616003692150116,0.051087109247843425]},{"name":"bottle","coordinates":[0.10340086221694947,0.4854644457499186,0.020690663158893584,0.07601445515950521]}]}
