{"src":"https://a0.muscache.com/im/pictures/20fefc5d-025c-416a-96f5-8ae35e269aab.jpg?aki_policy=xx_large","name":"Grey Stone - Lakefront PentHouse (Full AC)","listingId":21577928,"photoId":"1279-9","tags":[{"name":"bench","coordinates":[0.662534056769477,0.6669649918874105,0.2589989980061849,0.3378598213195801]},{"name":"sofa","coordinates":[0.3678756925794813,0.5920477549235026,0.31579407585991753,0.20741729736328124]},{"name":"chair","coordinates":[0.07216108110215928,0.6524222532908122,0.13485628763834637,0.23912204106648763]},{"name":"chair","coordinates":[0.2456855509016249,0.6019032637278239,0.10404019885592991,0.2087910016377767]},{"name":"vase","coordinates":[0.38477689690060085,0.6526339054107666,0.04177500936720106,0.13096672693888348]}]}
