{"src":"https://a0.muscache.com/im/pictures/172e0f98-ce7e-46a6-a073-a581629736e6.jpg?aki_policy=xx_large","name":"Grey Stone - Lakefront PentHouse (Full AC)","listingId":21577928,"photoId":"1279-8","tags":[{"name":"bench","coordinates":[0.7913347880045573,0.6303042729695638,0.2682242923312717,0.13048853079477946]},{"name":"sofa","coordinates":[0.7913347880045573,0.6303042729695638,0.2682242923312717,0.13048853079477946]},{"name":"chair","coordinates":[0.7744855244954427,0.9123032251993816,0.16151790618896483,0.17300108273824055]},{"name":"chair","coordinates":[0.6627905951605902,0.8720669428507487,0.10529755486382378,0.2513650099436442]},{"name":"diningtable","coordinates":[0.39443058437771267,0.8752207438151042,0.09700025982326932,0.21935420036315917]},{"name":"chair","coordinates":[0.5875304328070746,0.6671307881673177,0.08388088014390734,0.1642531394958496]},{"name":"chair","coordinates":[0.8956804911295573,0.9116647720336915,0.06098404460483127,0.15880913734436036]},{"name":"chair","coordinates":[0.8211023966471355,0.6956347783406576,0.06642298168606228,0.11519283453623454]},{"name":"chair","coordinates":[0.6377328660753038,0.6365063349405925,0.04706910451253255,0.13882894515991212]}]}
