{"src":"https://a0.muscache.com/im/pictures/4d2cdf3f-f1b2-42f5-97ae-4536e5d279c8.jpg?aki_policy=xx_large","name":"Grey Stone - Lakefront PentHouse (Full AC)","listingId":21577928,"photoId":"1279-12","tags":[{"name":"chair","coordinates":[0.7032527817620172,0.7062381267547607,0.26296872033013236,0.28548835118611654]},{"name":"sofa","coordinates":[0.0029654502868652344,0.6545502980550131,0.20180854797363282,0.3329625447591146]},{"name":"diningtable","coordinates":[0.4212863392300076,0.5878824392954509,0.21860209570990669,0.12088950475056966]},{"name":"vase","coordinates":[0.29751917521158855,0.6948697408040365,0.06583018832736545,0.20762863159179687]},{"name":"chair","coordinates":[0.6384919881820679,0.5802130540211995,0.04194370375739204,0.13515227635701496]},{"name":"chair","coordinates":[0.7801010674900478,0.6373680671056112,0.03953337934282091,0.10615808169047038]}]}
