{"src":"https://a0.muscache.com/im/pictures/4d2cdf3f-f1b2-42f5-97ae-4536e5d279c8.jpg?aki_policy=xx_large","name":"Grey Stone - Lakefront PentHouse (Full AC)","listingId":21577928,"photoId":"1279-12","tags":[{"name":"chair","coordinates":[0.8347371419270834,0.848982302347819,0.26296872033013236,0.28548835118611654]},{"name":"sofa","coordinates":[0.10386972427368164,0.8210315704345703,0.20180854797363282,0.3329625447591146]},{"name":"diningtable","coordinates":[0.5305873870849609,0.6483271916707357,0.21860209570990669,0.12088950475056966]},{"name":"vase","coordinates":[0.33043426937527126,0.7986840565999349,0.06583018832736545,0.20762863159179687]},{"name":"chair","coordinates":[0.6594638400607639,0.647789192199707,0.04194370375739204,0.13515227635701496]},{"name":"chair","coordinates":[0.7998677571614583,0.6904471079508464,0.03953337934282091,0.10615808169047038]}]}
