{"src":"https://a0.muscache.com/im/pictures/5d29efe0-e900-4a8d-b483-f6b308c620c4.jpg?aki_policy=xx_large","name":"Nice cottage at the beach","listingId":7085599,"photoId":"1281-5","tags":[{"name":"bed","coordinates":[0.5430328792995877,0.9255057652791341,1.0804231431749132,0.15446570714314778]},{"name":"tvmonitor","coordinates":[0.7538468254937066,0.4543614705403646,0.5406385633680556,0.2609790007273356]},{"name":"handbag","coordinates":[0.3441197289360894,0.7208144505818684,0.17854200998942057,0.2858576456705729]},{"name":"chair","coordinates":[1.3455000983344183,0.8943525314331054,0.19035411410861544,0.21837822596232095]},{"name":"laptop","coordinates":[1.359599812825521,0.6122113545735677,0.20072612762451172,0.09423372745513917]}]}
