{"src":"https://a0.muscache.com/im/pictures/e337b5e9-dd70-4e96-a394-173c2f467e18.jpg?aki_policy=xx_large","name":"Modern apartment at the sea side","listingId":7221703,"photoId":"1284-8","tags":[{"name":"bed","coordinates":[0.736192152235243,0.8158241271972656,0.4724263932969835,0.33610048294067385]},{"name":"chair","coordinates":[0.41594691806369355,0.7532649993896484,0.10883993572658962,0.2646921634674072]},{"name":"pottedplant","coordinates":[0.18703011406792536,0.6196206410725912,0.04594045745001899,0.07912116050720215]},{"name":"pottedplant","coordinates":[0.1305998166402181,0.6263807932535808,0.04536805682712131,0.07219160397847493]},{"name":"bird","coordinates":[0.9499231974283854,0.10420246124267578,0.023514488008287218,0.040117148558298746]},{"name":"bird","coordinates":[0.9723882887098524,0.10711848735809326,0.025612486733330622,0.03481157223383586]},{"name":"bird","coordinates":[0.8221828884548611,0.11645472049713135,0.02698336707221137,0.029002984364827473]},{"name":"bird","coordinates":[0.8189993116590711,0.4306794166564941,0.021401500701904295,0.03028218944867452]},{"name":"bird","coordinates":[0.8311528523763021,0.1094444990158081,0.023279224501715767,0.024688347180684408]},{"name":"bird","coordinates":[0.8724794175889757,0.46468728383382163,0.021525530020395915,0.026118948062260946]}]}
