{"src":"https://a0.muscache.com/im/pictures/ee49c17a-2148-4b32-8525-9b94ada98f04.jpg?aki_policy=xx_large","name":"Modern apartment at the sea side","listingId":7221703,"photoId":"1284-4","tags":[{"name":"diningtable","coordinates":[0.5905777401394314,0.8208052953084309,0.8442254808213976,0.3300846417744954]},{"name":"pottedplant","coordinates":[0.0859066645304362,0.4665157953898112,0.18639437357584634,0.5316797574361165]},{"name":"sofa","coordinates":[0.7398694356282552,0.6152385711669922,0.3842747582329644,0.20474878946940103]},{"name":"chair","coordinates":[0.33443243238661025,0.8729462305704753,0.2544034110175239,0.23890223503112792]},{"name":"sofa","coordinates":[0.7992102728949653,0.643560791015625,0.20502760145399307,0.17349414825439452]},{"name":"chair","coordinates":[0.7992102728949653,0.643560791015625,0.20502760145399307,0.17349414825439452]},{"name":"chair","coordinates":[0.47821506924099394,0.9159635543823242,0.20247044033474393,0.15074154535929363]},{"name":"pottedplant","coordinates":[0.5561839209662544,0.4779610315958659,0.14000110626220702,0.20056206385294598]},{"name":"bottle","coordinates":[0.6108183966742622,0.6801739374796549,0.045921643575032554,0.22804772059122722]},{"name":"chair","coordinates":[0.5077341715494792,0.5945360819498698,0.08439731068081326,0.0918158769607544]}]}
