{"src":"https://a0.muscache.com/im/pictures/8e20b70e-ab88-4a0e-ab2f-5c39e19515de.jpg?aki_policy=xx_large","name":"*설명필독* 창원시 창동 모던빌 오피스텔 요리/세탁가능 집전체 단독 사용 주방/침실 분리형","listingId":21607982,"photoId":"1285-5","tags":[{"name":"sink","coordinates":[0.2456896164838006,0.25141719182332356,0.5283138050752527,0.21946722666422527]},{"name":"toilet","coordinates":[0.008126277549594052,0.38758923212687174,0.1508761200250364,0.5736603418986003]},{"name":"bottle","coordinates":[0.25846586040422026,0.07550342877705891,0.0786580852433747,0.21977672576904297]},{"name":"bottle","coordinates":[0.3847508547352809,0.053446396191914894,0.06808014944487926,0.24249736467997232]},{"name":"bottle","coordinates":[0.31979940919315114,0.06943097114562989,0.07301153856165268,0.22376406987508138]},{"name":"bottle","coordinates":[0.6623171965281168,0.15749300320943194,0.09200968461878159,0.13344058990478516]},{"name":"cup","coordinates":[0.5810643037160238,0.1970505952835083,0.07019685296451345,0.08657590548197429]},{"name":"toothbrush","coordinates":[0.6203277368171543,0.14726020097732545,0.04336309900470808,0.06564865907033285]}]}
