{"src":"https://a0.muscache.com/im/pictures/8e20b70e-ab88-4a0e-ab2f-5c39e19515de.jpg?aki_policy=xx_large","name":"*설명필독* 창원시 창동 모던빌 오피스텔 요리/세탁가능 집전체 단독 사용 주방/침실 분리형","listingId":21607982,"photoId":"1285-3","tags":[{"name":"sink","coordinates":[0.28891302744547526,0.3611508051554362,0.2993778228759766,0.21946722666422527]},{"name":"toilet","coordinates":[0.04735312461853027,0.6744194030761719,0.08549646801418728,0.5736603418986003]},{"name":"bottle","coordinates":[0.1687504450480143,0.1853917916615804,0.04457291497124566,0.21977672576904297]},{"name":"bottle","coordinates":[0.23731486002604166,0.17469507853190105,0.038578751352098255,0.24249736467997232]},{"name":"bottle","coordinates":[0.20190626780192059,0.18131300608317058,0.04137320518493652,0.22376406987508138]},{"name":"bottle","coordinates":[0.4013824886745877,0.22421329816182453,0.05213882128397624,0.13344058990478516]},{"name":"cup","coordinates":[0.34915888044569227,0.24033854802449545,0.03977821667989095,0.08657590548197429]},{"name":"toothbrush","coordinates":[0.36380526224772136,0.18008453051249187,0.024572422769334582,0.06564865907033285]}]}
