{"src":"https://a0.muscache.com/im/pictures/10106925/ecd8f768_original.jpg?aki_policy=xx_large","name":"Spacious, central &amp; stunning view (free parking)","listingId":723170,"photoId":"1285-3","tags":[{"name":"diningtable","coordinates":[0.42551612854003906,0.767111333211263,0.8636588202582465,0.4278132756551107]},{"name":"chair","coordinates":[0.7798758612738715,0.8048364639282226,0.11951773961385091,0.3818333307902018]},{"name":"chair","coordinates":[0.6731917911105686,0.8696392059326172,0.1719050301445855,0.24006824493408202]},{"name":"chair","coordinates":[0.2749660280015733,0.7185091654459635,0.20249019198947482,0.18736899693806966]},{"name":"tvmonitor","coordinates":[0.5060433705647787,0.46548601786295574,0.12605929904513888,0.15072348912556965]},{"name":"chair","coordinates":[0.4727471669514974,0.6228481928507487,0.11000454160902236,0.12819458643595377]},{"name":"cup","coordinates":[0.6862181345621745,0.66029847462972,0.04312129020690918,0.06986988385518392]}]}
