{"src":"https://a0.muscache.com/im/pictures/10174015/1cc22e19_original.jpg?aki_policy=xx_large","name":"Spacious, central &amp; stunning view (free parking)","listingId":723170,"photoId":"1285-5","tags":[{"name":"oven","coordinates":[0.723090687833091,0.843812624613444,1.0606998887172965,0.30249125162760415]},{"name":"pottedplant","coordinates":[1.9316387324370154,0.5338977813720703,0.29574835725532944,0.17757787704467773]},{"name":"bottle","coordinates":[1.1458301159762596,0.5074511210123698,0.10271348583605862,0.1954647699991862]},{"name":"cup","coordinates":[2.114956168241279,0.6233976364135743,0.09828736652699552,0.1513606548309326]},{"name":"bottle","coordinates":[0.9573223261870155,0.5427696228027343,0.07859854883001756,0.1638015588124593]},{"name":"bottle","coordinates":[0.8846534906431686,0.5373902638753255,0.07476427536602168,0.15780034065246581]},{"name":"bottle","coordinates":[1.0596690096596415,0.5354759216308593,0.07176049402517866,0.1598366419474284]},{"name":"bottle","coordinates":[1.015109276586725,0.5405123392740886,0.045168375414471294,0.15201339721679688]}]}
