{"src":"https://a0.muscache.com/im/pictures/8e20b70e-ab88-4a0e-ab2f-5c39e19515de.jpg?aki_policy=xx_large","name":"*설명필독* 창원시 창동 모던빌 오피스텔 요리/세탁가능 집전체 단독 사용 주방/침실 분리형","listingId":21607982,"photoId":"1285-5","tags":[{"name":"sink","coordinates":[0.509846519021427,0.3611508051554362,0.5283138050752527,0.21946722666422527]},{"name":"toilet","coordinates":[0.08356433756211225,0.6744194030761719,0.1508761200250364,0.5736603418986003]},{"name":"bottle","coordinates":[0.2977949030259076,0.1853917916615804,0.0786580852433747,0.21977672576904297]},{"name":"bottle","coordinates":[0.41879092945772056,0.17469507853190105,0.06808014944487926,0.24249736467997232]},{"name":"bottle","coordinates":[0.35630517847397747,0.18131300608317058,0.07301153856165268,0.22376406987508138]},{"name":"bottle","coordinates":[0.7083220388375077,0.22421329816182453,0.09200968461878159,0.13344058990478516]},{"name":"cup","coordinates":[0.6161627301982805,0.24033854802449545,0.07019685296451345,0.08657590548197429]},{"name":"toothbrush","coordinates":[0.6420092863195083,0.18008453051249187,0.04336309900470808,0.06564865907033285]}]}
