{"src":"https://a0.muscache.com/im/pictures/10987338/5fb9080f_original.jpg?aki_policy=xx_large","name":"Charming terrace house","listingId":728333,"photoId":"1286-5","tags":[{"name":"sofa","coordinates":[0.14874036577012803,0.7032291412353515,0.25311898125542537,0.3580141067504883]},{"name":"chair","coordinates":[0.14874036577012803,0.7032291412353515,0.25311898125542537,0.3580141067504883]},{"name":"tvmonitor","coordinates":[0.8040520562065973,0.6058652877807618,0.14975933498806424,0.26367204984029136]},{"name":"chair","coordinates":[0.5643213484022352,0.5825000762939453,0.08495680491129558,0.18790241877237956]},{"name":"book","coordinates":[0.8736607021755642,0.8902242024739583,0.01882024473614163,0.07404497464497885]},{"name":"book","coordinates":[0.8520187377929688,0.8697352091471354,0.016094137562645806,0.08497642676035563]},{"name":"book","coordinates":[0.8171255323621962,0.8398499806722005,0.012183284759521485,0.0847165584564209]},{"name":"book","coordinates":[0.8368403116861979,0.8580099105834961,0.013003798325856526,0.07707576751708985]}]}
