{"src":"https://a0.muscache.com/im/pictures/4cc0c0c1-3bc1-474e-b335-f33240398f2c.jpg?aki_policy=xx_large","name":"Sunny apartment","listingId":2161619,"photoId":"1287-1","tags":[{"name":"diningtable","coordinates":[0.42498351203070744,0.8886767069498698,0.8302852206759983,0.2084396998087565]},{"name":"pottedplant","coordinates":[0.7310375637478299,0.520183817545573,0.20779130723741318,0.4856501579284668]},{"name":"chair","coordinates":[0.24968783060709634,0.7183541615804037,0.27044120364718965,0.194181489944458]},{"name":"pottedplant","coordinates":[0.7738610161675348,0.4010225613911947,0.1886519538031684,0.13508224487304688]},{"name":"bird","coordinates":[0.4917708502875434,0.27730849583943684,0.16616384718153213,0.07982696692148844]},{"name":"chair","coordinates":[0.586187998453776,0.4898927052815755,0.053226476245456275,0.08703703880310058]}]}
