{"src":"https://a0.muscache.com/im/pictures/f7a1e4cc-5811-4b87-8a9b-d2cc95d61d12.jpg?aki_policy=xx_large","name":"Sea view, sunset and beach","listingId":7323786,"photoId":"1289-4","tags":[{"name":"diningtable","coordinates":[0.6613578372531467,0.7622568130493164,0.573348405626085,0.4371556599934896]},{"name":"chair","coordinates":[0.8674587673611112,0.745129140218099,0.24566090901692708,0.4682252248128255]},{"name":"sofa","coordinates":[0.14022718005710177,0.7040793100992838,0.2626061757405599,0.3046257019042969]},{"name":"chair","coordinates":[0.46933237711588544,0.5827922185262044,0.11218656963772244,0.1549813111623128]},{"name":"chair","coordinates":[0.6089863671196831,0.5690266291300455,0.10519174999660916,0.13117582003275555]},{"name":"pottedplant","coordinates":[0.626664055718316,0.4552175839742025,0.052334229151407875,0.11104307969411215]},{"name":"chair","coordinates":[0.9128614637586806,0.5666110992431641,0.06500834359063043,0.0824930747350057]},{"name":"book","coordinates":[0.4457892947726779,0.34253129959106443,0.008042305045657687,0.03434522151947021]},{"name":"book","coordinates":[0.4174855550130208,0.38723481496175133,0.008027019765641954,0.034356351693471274]},{"name":"book","coordinates":[0.4323899586995443,0.38747310638427734,0.00771626697646247,0.03393496672312419]},{"name":"book","coordinates":[0.4369845496283637,0.3406171162923177,0.007021115885840522,0.03355557521184285]},{"name":"book","coordinates":[0.45007481045193143,0.3893902778625488,0.006416330072614882,0.029423314332962035]}]}
