{"src":"https://z0.muscache.cn/im/pictures/f3a415af-f7be-4c0c-b111-f5f9b9c17237.jpg?aki_policy=xx_large","name":"Cosy apartment nearby Rotterdam","listingId":21628340,"photoId":"1289-4","tags":[{"name":"refrigerator","coordinates":[0.8992364671495225,0.5006847381591797,0.21931182013617623,1.0603593826293944]},{"name":"oven","coordinates":[0.8992019653320312,0.19754239718119304,0.19171195560031468,0.46928459803263345]},{"name":"pottedplant","coordinates":[0.39025645785861546,0.4526270230611165,0.10703304078843859,0.16978764533996582]},{"name":"sink","coordinates":[0.3963277604844835,0.6220930099487305,0.1152157359653049,0.03571068048477173]},{"name":"vase","coordinates":[0.38896505567762585,0.506113338470459,0.030413442187839083,0.05006406307220459]},{"name":"bowl","coordinates":[0.6391090393066406,0.5653221130371093,0.03639517890082465,0.03010235826174418]}]}
