{"src":"https://z0.muscache.cn/im/pictures/83e6069b-1307-4fef-9138-938f14bfc7bb.jpg?aki_policy=xx_large","name":"Cosy apartment nearby Rotterdam","listingId":21628340,"photoId":"1289-2","tags":[{"name":"diningtable","coordinates":[0.5922424221335914,0.8155614217122396,0.8658830399082457,0.34405587514241537]},{"name":"chair","coordinates":[0.17228615543924017,0.8288345336914062,0.259041260336047,0.31014223098754884]},{"name":"pottedplant","coordinates":[0.5692282228083625,0.6440947850545248,0.21424233504916276,0.2249178409576416]},{"name":"chair","coordinates":[0.9119580230237538,0.7049288431803385,0.14773306445540668,0.15960378646850587]},{"name":"chair","coordinates":[0.8574320475260416,0.9670871098836263,0.2966729042314666,0.06821891466776529]},{"name":"pottedplant","coordinates":[0.26417560517973615,0.633739980061849,0.1318447196223654,0.12404929002126058]},{"name":"chair","coordinates":[0.7791323082469334,0.6762453079223633,0.12036892186815494,0.12433653672536214]},{"name":"vase","coordinates":[0.5663836232598326,0.7056173324584961,0.12041472200292665,0.11355172793070475]}]}
