{"src":"https://z0.muscache.cn/im/pictures/83e6069b-1307-4fef-9138-938f14bfc7bb.jpg?aki_policy=xx_large","name":"Cosy apartment nearby Rotterdam","listingId":21628340,"photoId":"1289-2","tags":[{"name":"diningtable","coordinates":[0.2970465898513794,0.8155614217122396,0.4342944622039795,0.34405587514241537]},{"name":"chair","coordinates":[0.08641227483749389,0.8288345336914062,0.1299253821372986,0.31014223098754884]},{"name":"pottedplant","coordinates":[0.28550353050231936,0.6440947850545248,0.1074559211730957,0.2249178409576416]},{"name":"chair","coordinates":[0.45740394592285155,0.7049288431803385,0.07409736514091492,0.15960378646850587]},{"name":"chair","coordinates":[0.4300557613372803,0.9670871098836263,0.14880000352859496,0.06821891466776529]},{"name":"pottedplant","coordinates":[0.13250057697296141,0.633739980061849,0.06612836718559265,0.12404929002126058]},{"name":"chair","coordinates":[0.39078354835510254,0.6762453079223633,0.06037253737449646,0.12433653672536214]},{"name":"vase","coordinates":[0.28407678604125974,0.7056173324584961,0.060395509004592896,0.11355172793070475]}]}
