{"src":"https://z0.muscache.cn/im/pictures/83e6069b-1307-4fef-9138-938f14bfc7bb.jpg?aki_policy=xx_large","name":"Cosy apartment nearby Rotterdam","listingId":21628340,"photoId":"1289-2","tags":[{"name":"diningtable","coordinates":[0.15930090217946852,0.6435334841410318,0.8658830399082457,0.34405587514241537]},{"name":"chair","coordinates":[0.04276552527121666,0.6737634181976319,0.259041260336047,0.31014223098754884]},{"name":"pottedplant","coordinates":[0.4621070552837811,0.531635864575704,0.21424233504916276,0.2249178409576416]},{"name":"chair","coordinates":[0.8380914907960505,0.6251269499460856,0.14773306445540668,0.15960378646850587]},{"name":"chair","coordinates":[0.7090955954103083,0.9329776525497437,0.2966729042314666,0.06821891466776529]},{"name":"pottedplant","coordinates":[0.19825324536855343,0.5717153350512186,0.1318447196223654,0.12404929002126058]},{"name":"chair","coordinates":[0.7189478473128559,0.6140770395596822,0.12036892186815494,0.12433653672536214]},{"name":"vase","coordinates":[0.5061762622583693,0.6488414684931437,0.12041472200292665,0.11355172793070475]}]}
