{"src":"https://a0.muscache.com/im/pictures/5f1cd79d-4394-4548-8208-6a7a47abb9b4.jpg?aki_policy=xx_large","name":"Gartenhaus / Garden cottage with private terrace","listingId":12626765,"photoId":"129-9","tags":[{"name":"sofa","coordinates":[0.21201767921447753,0.4789202372233073,0.4122318267822266,0.4645841916402181]},{"name":"chair","coordinates":[0.8930636405944824,0.6790674209594727,0.20615439414978026,0.6224451065063477]},{"name":"pottedplant","coordinates":[0.21768922805786134,0.8696913401285807,0.4576685428619385,0.2546175638834635]},{"name":"diningtable","coordinates":[0.9107178688049317,0.47459897994995115,0.1823746681213379,0.43555126190185545]},{"name":"chair","coordinates":[0.9010647773742676,0.27811066309611004,0.12558306455612184,0.2102974573771159]},{"name":"pottedplant","coordinates":[0.47528843879699706,0.40201059977213544,0.07256864309310913,0.10704433917999268]},{"name":"bowl","coordinates":[0.37944645881652833,0.4590640068054199,0.09229474663734435,0.07035292784372965]}]}
