{"src":"https://a0.muscache.com/im/pictures/1b35e0fc-233a-40f4-a83f-e4aa628a6b8d.jpg?aki_policy=xx_large","name":"mooie kamer in rustige buurt","listingId":7333094,"photoId":"1291-3","tags":[{"name":"diningtable","coordinates":[0.34802816179063584,0.8053669611612956,0.27585071987575954,0.4096445719401042]},{"name":"chair","coordinates":[0.5189161936442057,0.7641911824544271,0.1388962427775065,0.37728134791056317]},{"name":"pottedplant","coordinates":[0.2623699824015299,0.46461308797200523,0.13271697362263998,0.32699238459269203]},{"name":"chair","coordinates":[0.8035327487521702,0.7630437850952149,0.1041128052605523,0.23675026893615722]},{"name":"chair","coordinates":[0.25818485683865017,0.5971886316935221,0.0686663998497857,0.21092324256896972]},{"name":"pottedplant","coordinates":[0.6215324401855469,0.5946041107177734,0.07576012081570095,0.14814434051513672]},{"name":"chair","coordinates":[0.459825685289171,0.5920628865559896,0.06864098972744412,0.06587826410929362]},{"name":"vase","coordinates":[0.26587660047743056,0.2650534788767497,0.04749874538845486,0.08532186349232991]}]}
