{"src":"https://a0.muscache.com/im/pictures/91de15ec-f551-4b65-9a8e-ce89e69c3ace.jpg?aki_policy=xx_large","name":"Sunny apartment close to  beach and center","listingId":7333723,"photoId":"1292-0","tags":[{"name":"chair","coordinates":[0.32507860395643445,0.7798074086507162,0.1340205086602105,0.35515912373860675]},{"name":"chair","coordinates":[0.4537539588080512,0.821218999226888,0.13634778128729927,0.3457272211710612]},{"name":"vase","coordinates":[0.31453560723198787,0.5523510615030924,0.03932113647460937,0.07996646563212077]},{"name":"apple","coordinates":[0.3606000688340929,0.5403378168741862,0.019574856758117674,0.03551758527755737]},{"name":"orange","coordinates":[0.3920400831434462,0.5441867192586263,0.019358686606089272,0.024553781747817992]}]}
