{"src":"https://a0.muscache.com/im/pictures/93424736/86cb23c9_original.jpg?aki_policy=xx_large","name":"BizStay City Center 2","listingId":7362802,"photoId":"1295-4","tags":[{"name":"sofa","coordinates":[0.7808967590332031,0.7956593195597331,0.4489123821258545,0.384285036722819]},{"name":"chair","coordinates":[0.27170798778533933,0.7398258845011393,0.212951135635376,0.26266268094380696]},{"name":"sofa","coordinates":[0.27170798778533933,0.7398258845011393,0.212951135635376,0.26266268094380696]},{"name":"tvmonitor","coordinates":[0.35982182025909426,0.5450726191202799,0.11532903909683227,0.1357679526011149]},{"name":"pottedplant","coordinates":[0.5163903713226319,0.6493467966715495,0.035379862785339354,0.0410617470741272]},{"name":"vase","coordinates":[0.5043558597564697,0.5554406483968098,0.019285328686237335,0.04733070532480876]},{"name":"vase","coordinates":[0.5297840118408204,0.5559253056844076,0.017554895579814912,0.04747307300567627]}]}
