{"src":"https://a0.muscache.com/im/pictures/93546284/f21e9648_original.jpg?aki_policy=xx_large","name":"Bizstay Queenshouse 72J","listingId":7373576,"photoId":"1296-8","tags":[{"name":"refrigerator","coordinates":[0.7160640716552734,0.728823725382487,0.16429536342620848,0.37917356491088866]},{"name":"oven","coordinates":[0.7156858921051026,0.4423929850260417,0.16072906255722047,0.19016586939493815]},{"name":"sink","coordinates":[0.08850253820419311,0.7426871617635091,0.17860541343688965,0.10416633288065592]},{"name":"pottedplant","coordinates":[0.5448945999145508,0.5635114034016927,0.07429831624031066,0.10995800495147705]},{"name":"knife","coordinates":[0.1838265061378479,0.5152119954427083,0.015900997817516326,0.05007803440093994]}]}
