{"src":"https://a0.muscache.com/im/pictures/93546068/59821d70_original.jpg?aki_policy=xx_large","name":"Bizstay Queenshouse 72J","listingId":7373576,"photoId":"1296-3","tags":[{"name":"sofa","coordinates":[0.6649551868438721,0.7318291982014974,0.6388375282287597,0.4427879969278971]},{"name":"diningtable","coordinates":[0.3655245780944824,0.891622797648112,0.37631585597991946,0.20278766949971516]},{"name":"chair","coordinates":[0.12415502071380616,0.6648414611816407,0.19776830673217774,0.29560251235961915]},{"name":"pottedplant","coordinates":[0.1673095107078552,0.4833475748697917,0.10189630985260009,0.06177194515864055]},{"name":"bottle","coordinates":[0.3632440328598022,0.8501623153686524,0.03855722844600677,0.13704419136047363]},{"name":"vase","coordinates":[0.32540557384490965,0.823819351196289,0.03367284238338471,0.1403144359588623]}]}
