{"src":"https://a0.muscache.com/im/pictures/93581849/ad33005f_original.jpg?aki_policy=xx_large","name":"Bizstay City &amp; Beach 340","listingId":7376689,"photoId":"1297-0","tags":[{"name":"sofa","coordinates":[0.19741368293762207,0.580813471476237,0.4049088001251221,0.32504332860310875]},{"name":"sofa","coordinates":[0.08874937295913696,0.7821717580159505,0.17908482551574706,0.36987972259521484]},{"name":"chair","coordinates":[0.9302695274353028,0.7279967625935873,0.13131778240203856,0.4929706891377767]},{"name":"chair","coordinates":[0.8288349151611328,0.6276574452718099,0.09583144187927246,0.3378774642944336]},{"name":"pottedplant","coordinates":[0.3025152921676636,0.5660467147827148,0.14876875877380372,0.2017079512278239]},{"name":"chair","coordinates":[0.7401456356048584,0.5428331375122071,0.08804250955581665,0.2136335055033366]},{"name":"microwave","coordinates":[0.8590236663818359,0.3553401629130046,0.06681559085845948,0.06795222759246826]},{"name":"pottedplant","coordinates":[0.6984763622283936,0.3626503626505534,0.03916567265987396,0.06278735399246216]},{"name":"vase","coordinates":[0.6993140697479248,0.3775958061218262,0.018302386999130248,0.02987057566642761]}]}
