{"src":"https://a0.muscache.com/im/pictures/93586852/f3de97d1_original.jpg?aki_policy=xx_large","name":"Bizstay City &amp; Beach 344a","listingId":7377050,"photoId":"1299-1","tags":[{"name":"sofa","coordinates":[0.662360143661499,0.8250269571940104,0.4584973335266113,0.3272457440694173]},{"name":"tvmonitor","coordinates":[0.10743292570114135,0.5027546246846517,0.23934669494628907,0.30104490915934246]},{"name":"chair","coordinates":[0.1780909776687622,0.9040034612019857,0.2982478618621826,0.1818545341491699]},{"name":"chair","coordinates":[0.2562835454940796,0.7431965510050456,0.13962783813476562,0.18970832824707032]},{"name":"cup","coordinates":[0.029166537523269653,0.9268857955932617,0.054306381940841676,0.11158596674601237]}]}
