{"src":"https://a0.muscache.com/im/pictures/12219721/210744e7_original.jpg?aki_policy=xx_large","name":"Safe and Comfortable apartment","listingId":102444,"photoId":"13-2","tags":[{"name":"chair","coordinates":[0.8267926216125489,0.625742769241333,0.1609789318508572,0.3627638816833496]},{"name":"chair","coordinates":[0.548761749267578,0.8456527868906657,0.2595760769314236,0.1451250394185384]},{"name":"tvmonitor","coordinates":[0.8321470419565837,0.4692596991856893,0.13622573216756184,0.1572873592376709]},{"name":"vase","coordinates":[0.4458199474546644,0.5502850612004597,0.0596727000342475,0.14769241015116374]},{"name":"bottle","coordinates":[0.31003668904304504,0.40717347462972003,0.01164913574854533,0.04289677937825521]}]}
