{"src":"https://a0.muscache.com/im/pictures/12219721/210744e7_original.jpg?aki_policy=xx_large","name":"Safe and Comfortable apartment","listingId":102444,"photoId":"13-2","tags":[{"name":"chair","coordinates":[0.9072820875379775,0.8071247100830078,0.1609789318508572,0.3627638816833496]},{"name":"chair","coordinates":[0.6785497877332899,0.9182153065999349,0.2595760769314236,0.1451250394185384]},{"name":"tvmonitor","coordinates":[0.9002599080403646,0.5479033788045248,0.13622573216756184,0.1572873592376709]},{"name":"vase","coordinates":[0.47565629747178817,0.6241312662760417,0.0596727000342475,0.14769241015116374]},{"name":"bottle","coordinates":[0.3158612569173177,0.42862186431884763,0.01164913574854533,0.04289677937825521]}]}
