{"src":"https://z0.muscache.cn/im/pictures/692563/65f1a003_original.jpg?aki_policy=xx_large","name":"CITY Apartment - centre and private parking","listingId":103875,"photoId":"13-2","tags":[{"name":"chair","coordinates":[0.07120796069764254,0.9474128087361654,0.13351162023711624,0.1081559975941976]},{"name":"microwave","coordinates":[0.42301941988760966,0.48273658752441406,0.09005930047286184,0.07795109748840331]},{"name":"sink","coordinates":[0.6839017098410087,0.6250718434651693,0.14109336451480264,0.03996574878692627]},{"name":"sink","coordinates":[0.4589257384183114,0.6210884730021159,0.08635815536766721,0.025673075517018636]},{"name":"bottle","coordinates":[0.7690253220942982,0.40840231577555336,0.013020470602470531,0.040479107697804766]},{"name":"bottle","coordinates":[0.7117732319078948,0.4083182652791341,0.011920674641927084,0.044119763374328616]},{"name":"bottle","coordinates":[0.7287750993695176,0.40777832667032876,0.011724423860248766,0.04413065910339355]}]}
