{"src":"https://z0.muscache.cn/im/pictures/1048805/78fee95f_original.jpg?aki_policy=xx_large","name":"CITY Apartment - centre and private parking","listingId":103875,"photoId":"13-5","tags":[{"name":"diningtable","coordinates":[0.5372978846232096,0.8615090052286783,0.3015271186828613,0.27087561289469403]},{"name":"chair","coordinates":[0.3569601058959961,0.8630862553914388,0.19522436459859213,0.2467065493265788]},{"name":"chair","coordinates":[0.6680955251057943,0.8927369435628255,0.1901236057281494,0.2242453416188558]},{"name":"sink","coordinates":[1.2409008026123047,0.8606353759765625,0.30788790384928383,0.11325106620788575]},{"name":"vase","coordinates":[0.5287836392720541,0.7434961954752605,0.05156235297520955,0.08601693312327068]}]}
