{"src":"https://a0.muscache.com/im/pictures/8f2b7043-4c0b-4833-a4cb-2a98bb94fada.jpg?aki_policy=xx_large","name":"Free Airport Pick/Drop/Dinner/Pool/Mountain View","listingId":12837492,"photoId":"130-5","tags":[{"name":"chair","coordinates":[0.5199323534965514,0.8567999521891276,0.32084248065948484,0.15773760477701823]},{"name":"bench","coordinates":[0.5199323534965514,0.8567999521891276,0.32084248065948484,0.15773760477701823]},{"name":"car","coordinates":[0.6539089918136597,0.7327221155166626,0.178696870803833,0.12681562105814617]},{"name":"car","coordinates":[0.81085245013237,0.7497695128122965,0.17128788232803344,0.1259169578552246]},{"name":"car","coordinates":[0.03920908570289612,0.7049416144688924,0.17121790647506713,0.12287586530049642]},{"name":"truck","coordinates":[0.03920908570289612,0.7049416144688924,0.17121790647506713,0.12287586530049642]},{"name":"car","coordinates":[0.287104070186615,0.7253648082415263,0.15538933277130126,0.11539332866668701]},{"name":"car","coordinates":[0.5474859535694122,0.7354759454727173,0.1275575041770935,0.11900490125020345]},{"name":"car","coordinates":[0.39465605616569516,0.7271828095118205,0.11916767358779908,0.12008684476216634]},{"name":"car","coordinates":[0.21708379387855528,0.716742726167043,0.13072537183761596,0.10555644830067952]},{"name":"truck","coordinates":[0.21708379387855528,0.716742726167043,0.13072537183761596,0.10555644830067952]},{"name":"car","coordinates":[0.9405567824840546,0.7252711772918701,0.056017172336578366,0.14173796971638997]},{"name":"car","coordinates":[0.7483382403850555,0.7072513421376546,0.10303913354873658,0.06688744227091471]}]}
