{"src":"https://a0.muscache.com/im/pictures/4f20a1e5-e371-47cb-9f9f-421667b602f5.jpg?aki_policy=xx_large","name":"Trirashmi Villa","listingId":21685776,"photoId":"1300-15","tags":[{"name":"umbrella","coordinates":[0.435174560546875,0.39670696258544924,0.9697315216064453,0.898617172241211]},{"name":"person","coordinates":[0.4317621231079102,0.614382807413737,0.29862008094787595,0.3167137145996094]},{"name":"chair","coordinates":[0.4192302703857422,0.8189652125040691,0.2372673988342285,0.31665175755818686]},{"name":"chair","coordinates":[0.585887336730957,0.636892827351888,0.1411660671234131,0.36673056284586586]},{"name":"handbag","coordinates":[0.5087754726409912,0.6103790283203125,0.09667598009109497,0.08128339449564616]}]}
