{"src":"https://a0.muscache.com/im/pictures/4f20a1e5-e371-47cb-9f9f-421667b602f5.jpg?aki_policy=xx_large","name":"Trirashmi Villa","listingId":21685776,"photoId":"1300-15","tags":[{"name":"umbrella","coordinates":[-0.049691200256347656,-0.05260162353515624,0.9697315216064453,0.898617172241211]},{"name":"person","coordinates":[0.2824520826339722,0.45602595011393227,0.29862008094787595,0.3167137145996094]},{"name":"chair","coordinates":[0.3005965709686279,0.6606393337249756,0.2372673988342285,0.31665175755818686]},{"name":"chair","coordinates":[0.5153043031692505,0.45352754592895506,0.1411660671234131,0.36673056284586586]},{"name":"handbag","coordinates":[0.4604374825954437,0.5697373310724895,0.09667598009109497,0.08128339449564616]}]}
