{"src":"https://a0.muscache.com/im/pictures/b331b69b-65d4-4268-bed7-3069e08d16af.jpg?aki_policy=xx_large","name":"5 room appartment The Hague Centre","listingId":7409157,"photoId":"1302-0","tags":[{"name":"diningtable","coordinates":[0.725505222567134,0.793406867980957,0.45135275256951046,0.30878705978393556]},{"name":"diningtable","coordinates":[0.10025576747415636,0.7040235519409179,0.21864289838551568,0.2798397382100423]},{"name":"chair","coordinates":[0.9076274915339829,0.8258342742919922,0.16726641636837572,0.3297828992207845]},{"name":"chair","coordinates":[0.4886562332907557,0.8480244954427083,0.15449890600864424,0.3093082110087077]},{"name":"chair","coordinates":[0.6468483116236929,0.9074933369954427,0.23476704064430845,0.16821147600809733]},{"name":"pottedplant","coordinates":[0.71478271484375,0.6214521408081055,0.18091031498782081,0.20694157282511394]},{"name":"chair","coordinates":[0.8035357689222908,0.6505970001220703,0.08017964526274358,0.0785377581914266]},{"name":"vase","coordinates":[0.7240679954847908,0.6905773162841797,0.06643957565945817,0.0820553461710612]}]}
