{"src":"https://a0.muscache.com/im/pictures/50ff05eb-c098-4627-8c12-f422e34c4f82.jpg?aki_policy=xx_large","name":"Flat Cumaru: Localização privilegiada e conforto!","listingId":21697449,"photoId":"1303-6","tags":[{"name":"sofa","coordinates":[0.0038233439127604296,0.48474671045939133,0.3649784935845269,0.47631956736246744]},{"name":"diningtable","coordinates":[0.27274676428900824,0.6741811752319337,0.2642083485921224,0.318655268351237]},{"name":"chair","coordinates":[0.24839516745673285,0.6605515162150065,0.14002272288004558,0.3198912302652995]},{"name":"chair","coordinates":[0.63427930937873,0.5697085380554199,0.13496361838446724,0.14385662078857422]},{"name":"chair","coordinates":[0.39060328271653916,0.5643395741780599,0.07452607684665256,0.1699883778889974]},{"name":"cup","coordinates":[0.4522551324632432,0.8450392444928487,0.05149042341444227,0.10308735370635987]}]}
