{"src":"https://a0.muscache.com/im/pictures/2018b9c5-ed0b-4322-88e2-d6dff2880727.jpg?aki_policy=xx_large","name":"Amanda inn, Tokyo room.\nKing size bed","listingId":21703117,"photoId":"1304-6","tags":[{"name":"sofa","coordinates":[0.011702823638916032,0.4798569838205973,0.41171579360961913,0.26826772689819334]},{"name":"chair","coordinates":[0.26315491199493407,0.7552374760309855,0.25771484375,0.23851542472839354]},{"name":"tvmonitor","coordinates":[0.5464653968811035,0.2455952088038127,0.22651948928833007,0.1831572691599528]},{"name":"book","coordinates":[0.7134625218808651,0.48940615256627407,0.014501424133777618,0.06085348924001058]},{"name":"book","coordinates":[0.7286299854516983,0.4877153555552165,0.013210934400558472,0.06423343022664388]},{"name":"book","coordinates":[0.6972177159041166,0.492364913225174,0.011951897293329239,0.05415300130844116]},{"name":"book","coordinates":[0.677555414661765,0.48849862615267436,0.011736113578081131,0.05201364755630493]}]}
