{"src":"https://a0.muscache.com/im/pictures/2018b9c5-ed0b-4322-88e2-d6dff2880727.jpg?aki_policy=xx_large","name":"Amanda inn, Tokyo room.\nKing size bed","listingId":21703117,"photoId":"1304-6","tags":[{"name":"sofa","coordinates":[0.2175607204437256,0.613990847269694,0.41171579360961913,0.26826772689819334]},{"name":"chair","coordinates":[0.39201233386993406,0.8744951883951823,0.25771484375,0.23851542472839354]},{"name":"tvmonitor","coordinates":[0.6597251415252685,0.3371738433837891,0.22651948928833007,0.1831572691599528]},{"name":"book","coordinates":[0.7207132339477539,0.5198328971862793,0.014501424133777618,0.06085348924001058]},{"name":"book","coordinates":[0.7352354526519775,0.5198320706685384,0.013210934400558472,0.06423343022664388]},{"name":"book","coordinates":[0.7031936645507812,0.5194414138793946,0.011951897293329239,0.05415300130844116]},{"name":"book","coordinates":[0.6834234714508056,0.5145054499308268,0.011736113578081131,0.05201364755630493]}]}
