{"src":"https://a0.muscache.com/im/pictures/94549891/77a75fda_original.jpg?aki_policy=xx_large","name":"Family Home 'Beach, Forest, City'","listingId":7455758,"photoId":"1305-0","tags":[{"name":"sofa","coordinates":[0.14443178176879884,0.6421272277832031,0.2812128305435181,0.2854667981465658]},{"name":"sofa","coordinates":[0.46732268333435056,0.5279562950134278,0.2765294313430786,0.21882890065511068]},{"name":"chair","coordinates":[0.7968417167663574,0.6832113265991211,0.16323235034942626,0.3097637176513672]},{"name":"sofa","coordinates":[0.7968417167663574,0.6832113265991211,0.16323235034942626,0.3097637176513672]},{"name":"pottedplant","coordinates":[0.9153605461120605,0.6223256429036458,0.14433188438415528,0.34826443990071615]},{"name":"pottedplant","coordinates":[0.23788022994995117,0.45625648498535154,0.07722317576408386,0.09187227884928385]},{"name":"book","coordinates":[0.42509965896606444,0.7394807815551758,0.06569813489913941,0.04361383517583211]},{"name":"vase","coordinates":[0.238922381401062,0.48256444931030273,0.02166697531938553,0.033865455786387125]}]}
