{"src":"https://a0.muscache.com/im/pictures/0c7f1ddd-30ed-4fb3-a217-83754028ab7e.jpg?aki_policy=xx_large","name":"Просторная квартира в новом доме","listingId":21706474,"photoId":"1305-3","tags":[{"name":"refrigerator","coordinates":[0.1866384202783758,0.508367125193278,0.39670129255814984,0.7028956095377604]},{"name":"diningtable","coordinates":[1.2140519402243874,0.7629273096720378,0.5094083872708407,0.34308385848999023]},{"name":"chair","coordinates":[1.2796627391468396,0.836479377746582,0.2984136668118564,0.305503781636556]},{"name":"chair","coordinates":[0.22843781384554776,0.9336696624755859,0.4904004010287198,0.12968589464823405]},{"name":"sofa","coordinates":[0.22843781384554776,0.9336696624755859,0.4904004010287198,0.12968589464823405]},{"name":"chair","coordinates":[1.552366776899858,0.8793874740600586,0.25807944211092865,0.22354523340861002]},{"name":"oven","coordinates":[0.852780515497381,0.6502960205078125,0.21222478693181818,0.22784806887308756]},{"name":"chair","coordinates":[1.0525678287852893,0.7781062444051107,0.1618959145112471,0.2790805816650391]},{"name":"microwave","coordinates":[0.6224959546869452,0.3152410825093587,0.23797665942798962,0.11638964811960856]},{"name":"microwave","coordinates":[0.6165290745821866,0.5033888816833496,0.2091005715456876,0.09138808250427247]},{"name":"microwave","coordinates":[1.1923431049693713,0.2950487454732259,0.0866531187837774,0.12035942872365316]}]}
