{"src":"https://a0.muscache.com/im/pictures/cd2de4e5-95f7-45a8-9a3c-b60cb474bf96.jpg?aki_policy=xx_large","name":"House at the beach Scheveningen, The Hague","listingId":7473812,"photoId":"1306-0","tags":[{"name":"pottedplant","coordinates":[0.4108903249104818,0.571095339457194,0.06978663868374295,0.15373331705729168]},{"name":"bottle","coordinates":[0.8001619127061632,0.6597209294637044,0.016065545876820884,0.057118980089823405]},{"name":"vase","coordinates":[0.41915770636664496,0.6188611348470052,0.01596268680360582,0.039706301689147946]},{"name":"wine-glass","coordinates":[0.895743645562066,0.482034174601237,0.01318900187810262,0.03514283498128255]},{"name":"wine-glass","coordinates":[0.8762728373209635,0.48179829915364586,0.013298155201805963,0.031492811441421506]}]}
