{"src":"https://a0.muscache.com/im/pictures/880501ff-6f99-401f-bc65-986bed454748.jpg?aki_policy=xx_large","name":"Relax in a spacious luxury home","listingId":7515190,"photoId":"1307-3","tags":[{"name":"diningtable","coordinates":[0.2259254879421658,0.6452267328898112,0.3350417243109809,0.3443144798278809]},{"name":"chair","coordinates":[0.33819173177083334,0.7588349024454752,0.19875613318549262,0.39308659235636395]},{"name":"chair","coordinates":[0.08487314118279352,0.7479731877644856,0.16457823647393122,0.33293905258178713]},{"name":"refrigerator","coordinates":[0.34273283216688366,0.4054109255472819,0.07727120717366537,0.25054961840311685]},{"name":"chair","coordinates":[0.3707422892252604,0.5843165079752605,0.0882468965318468,0.1526008447011312]},{"name":"chair","coordinates":[0.06000641187032064,0.5522867838541666,0.07416934967041015,0.12256479263305664]},{"name":"chair","coordinates":[0.11568607754177518,0.49165051778157554,0.06401973830329047,0.09514002799987793]},{"name":"chair","coordinates":[0.31555716196695965,0.5067742347717286,0.06599721908569336,0.08706033229827881]},{"name":"bottle","coordinates":[0.06675336096021864,0.3733894983927409,0.010783212714725071,0.08956038951873779]}]}
