{"src":"https://a0.muscache.com/im/pictures/4e627c06-af2c-4310-b983-357adc33aae9.jpg?aki_policy=xx_large","name":"Modern 2Br Apt in Bonapriso","listingId":21727777,"photoId":"1308-0","tags":[{"name":"diningtable","coordinates":[0.3325289249420166,0.869454828898112,0.6482551574707032,0.2240646521250407]},{"name":"sofa","coordinates":[0.2535910129547119,0.5701648712158203,0.27568755149841306,0.2579740047454834]},{"name":"sofa","coordinates":[0.6086731910705566,0.5372130711873372,0.3164231777191162,0.21942272186279296]},{"name":"chair","coordinates":[0.4782886028289795,0.7180940628051757,0.14945580959320068,0.3046553293863932]},{"name":"chair","coordinates":[0.05402731895446777,0.7835946400960286,0.10866692066192626,0.370859432220459]},{"name":"chair","coordinates":[0.6735674858093261,0.9052289326985677,0.08267751336097717,0.18605415026346842]},{"name":"cup","coordinates":[0.2175893545150757,0.9211832682291666,0.05634470582008362,0.09628275235493979]},{"name":"cup","coordinates":[0.32455129623413087,0.8902668635050456,0.051574486494064334,0.07568542957305908]},{"name":"cup","coordinates":[0.32892158031463625,0.9689509709676106,0.05649251341819763,0.06798551082611085]}]}
