{"src":"https://a0.muscache.com/im/pictures/4e627c06-af2c-4310-b983-357adc33aae9.jpg?aki_policy=xx_large","name":"Modern 2Br Apt in Bonapriso","listingId":21727777,"photoId":"1308-0","tags":[{"name":"diningtable","coordinates":[0.008401346206664995,0.7574225028355916,0.6482551574707032,0.2240646521250407]},{"name":"sofa","coordinates":[0.1157472372055054,0.4411778688430786,0.27568755149841306,0.2579740047454834]},{"name":"sofa","coordinates":[0.4504616022109985,0.4275017102559407,0.3164231777191162,0.21942272186279296]},{"name":"chair","coordinates":[0.40356069803237915,0.5657663981119792,0.14945580959320068,0.3046553293863932]},{"name":"chair","coordinates":[-0.00030614137649535855,0.5981649239857991,0.10866692066192626,0.370859432220459]},{"name":"chair","coordinates":[0.6322287291288375,0.8122018575668335,0.08267751336097717,0.18605415026346842]},{"name":"cup","coordinates":[0.18941700160503389,0.8730418920516967,0.05634470582008362,0.09628275235493979]},{"name":"cup","coordinates":[0.2987640529870987,0.852424148718516,0.051574486494064334,0.07568542957305908]},{"name":"cup","coordinates":[0.30067532360553745,0.9349582155545552,0.05649251341819763,0.06798551082611085]}]}
