{"src":"https://a0.muscache.com/im/pictures/95814604/e486c55e_original.jpg?aki_policy=xx_large","name":"Top Location! Great beach apartment @Scheveningen","listingId":7551507,"photoId":"1310-2","tags":[{"name":"diningtable","coordinates":[0.37696495056152346,0.6749299367268881,0.784520149230957,0.4659326871236165]},{"name":"chair","coordinates":[0.27175909678141275,0.7977187474568684,0.30919485092163085,0.3906993548075358]},{"name":"chair","coordinates":[0.5846793492635091,0.7170401255289713,0.3231153170267741,0.3597349484761556]},{"name":"bowl","coordinates":[0.10134117603302002,0.5584237416585286,0.18575016657511392,0.09994855721791586]},{"name":"chair","coordinates":[0.2550744851430257,0.49231030146280924,0.13246339162190754,0.04055132865905762]},{"name":"bottle","coordinates":[0.34073397318522136,0.4972087542215983,0.04002110163370768,0.11510562896728516]},{"name":"vase","coordinates":[0.34073397318522136,0.4972087542215983,0.04002110163370768,0.11510562896728516]}]}
