{"src":"https://a0.muscache.com/im/pictures/96536773/f8dd8cf9_original.jpg?aki_policy=xx_large","name":"BizStay Harbour 32","listingId":7606749,"photoId":"1313-2","tags":[{"name":"sofa","coordinates":[0.30024943351745603,0.7111764272054036,0.5005166053771972,0.36760826110839845]},{"name":"vase","coordinates":[0.5983072280883789,0.7387302398681641,0.052640503644943236,0.1242100715637207]},{"name":"bottle","coordinates":[0.5983072280883789,0.7387302398681641,0.052640503644943236,0.1242100715637207]},{"name":"book","coordinates":[0.8697775840759278,0.6178675333658854,0.0511189341545105,0.02010682225227356]},{"name":"book","coordinates":[0.7561765670776367,0.4724365234375,0.01659034937620163,0.042905060450236]},{"name":"book","coordinates":[0.7442214488983154,0.4715745290120443,0.011847370117902756,0.04315979878107707]},{"name":"book","coordinates":[0.8567680358886719,0.425393803914388,0.00914633721113205,0.04284802675247192]},{"name":"book","coordinates":[0.8701967239379883,0.42594423294067385,0.010747265815734864,0.03313612937927246]}]}
