{"src":"https://a0.muscache.com/im/pictures/96537885/97c3735d_original.jpg?aki_policy=xx_large","name":"Bizstay Harbour 32C","listingId":7606844,"photoId":"1315-6","tags":[{"name":"diningtable","coordinates":[0.291114354133606,0.8057353337605794,0.5280535221099854,0.32469924290974933]},{"name":"bench","coordinates":[0.6076459407806396,0.8400945663452148,0.12464749813079834,0.31939172744750977]},{"name":"chair","coordinates":[0.1271213173866272,0.691260019938151,0.1330505132675171,0.11988631089528402]},{"name":"chair","coordinates":[0.5707378387451172,0.7207543055216471,0.06855955123901367,0.16923287709554036]},{"name":"chair","coordinates":[0.25600557327270507,0.6448833465576171,0.07162963151931763,0.07106104691823324]},{"name":"boat","coordinates":[0.5543703079223633,0.6087956746419271,0.04075257778167725,0.023845618963241576]}]}
