{"src":"https://a0.muscache.com/im/pictures/f7a325a2-5ac2-4c1c-bbc8-ba202fe87649.jpg?aki_policy=xx_large","name":"Bizstay Harbour 32C","listingId":7606844,"photoId":"1315-12","tags":[{"name":"diningtable","coordinates":[0.6296072959899902,0.8124512990315755,0.46262516975402834,0.3694899241129557]},{"name":"diningtable","coordinates":[0.631003475189209,0.708223025004069,0.43601250648498535,0.20404678980509441]},{"name":"chair","coordinates":[0.7620171546936035,0.8740203857421875,0.20474643707275392,0.2702465057373047]},{"name":"chair","coordinates":[0.5132612705230712,0.8484339396158854,0.16570998430252076,0.3154889106750488]},{"name":"chair","coordinates":[0.40906586647033694,0.7450361251831055,0.06485127210617066,0.23764190673828126]},{"name":"oven","coordinates":[0.32456235885620116,0.6428630193074544,0.07678408026695252,0.09907724062601725]},{"name":"vase","coordinates":[0.6504626750946045,0.6600665410359701,0.06939821243286133,0.07004884084065756]},{"name":"chair","coordinates":[0.8341933250427246,0.6848909378051757,0.06518462300300598,0.061362938086191816]},{"name":"vase","coordinates":[0.5268636226654053,0.6161977767944335,0.04551933407783508,0.05548322995503743]}]}
