{"src":"https://a0.muscache.com/im/pictures/416145ab-fe87-4f52-8a80-86c117f0842e.jpg?aki_policy=xx_large","name":"Beautiful Apartment  @ The Hague","listingId":7650302,"photoId":"1317-4","tags":[{"name":"chair","coordinates":[0.3676840464274089,0.8137563705444336,0.19161018795437282,0.2602508068084717]},{"name":"sofa","coordinates":[0.3676840464274089,0.8137563705444336,0.19161018795437282,0.2602508068084717]},{"name":"sofa","coordinates":[0.057517825232611765,0.664295768737793,0.11696847279866536,0.278785769144694]},{"name":"tvmonitor","coordinates":[0.3991469489203559,0.4729496955871582,0.04568933910793728,0.13011154333750408]},{"name":"book","coordinates":[0.4232310824924045,0.3119556427001953,0.008047465483347576,0.05221717357635498]},{"name":"book","coordinates":[0.4227004157172309,0.37337255477905273,0.007091430160734389,0.04908030430475871]},{"name":"book","coordinates":[0.38456717597113715,0.3333260536193848,0.006397003597683377,0.05195913712183634]}]}
