{"src":"https://a0.muscache.com/im/pictures/b4b5504f-ec01-47dc-86dc-0502f090c853.jpg?aki_policy=xx_large","name":"Sweet Room At City Center","listingId":21770034,"photoId":"1319-2","tags":[{"name":"sofa","coordinates":[0.00325028896331786,0.44656798044840496,0.5777849197387696,0.3751917521158854]},{"name":"pottedplant","coordinates":[0.8001104533672333,0.09717909495035809,0.1945375084877014,0.8267977396647136]},{"name":"chair","coordinates":[0.6592872142791748,0.6207688649495442,0.17866992950439453,0.3413922627766927]},{"name":"book","coordinates":[0.7900540582835675,0.23748383522033692,0.01401391178369522,0.07050441106160482]},{"name":"book","coordinates":[0.7546928931027651,0.24142507314682005,0.011384095996618271,0.06926402250925699]},{"name":"book","coordinates":[0.7712507709860802,0.24321047067642212,0.012191680073738099,0.0628682533899943]},{"name":"book","coordinates":[0.6963876992464065,0.29443093935648595,0.04345812201499939,0.016831175486246745]}]}
