{"src":"https://a0.muscache.com/im/pictures/b4b5504f-ec01-47dc-86dc-0502f090c853.jpg?aki_policy=xx_large","name":"Sweet Room At City Center","listingId":21770034,"photoId":"1319-2","tags":[{"name":"sofa","coordinates":[0.29214274883270264,0.6341638565063477,0.5777849197387696,0.3751917521158854]},{"name":"pottedplant","coordinates":[0.897379207611084,0.5105779647827149,0.1945375084877014,0.8267977396647136]},{"name":"chair","coordinates":[0.7486221790313721,0.7914649963378906,0.17866992950439453,0.3413922627766927]},{"name":"book","coordinates":[0.7970610141754151,0.27273604075113933,0.01401391178369522,0.07050441106160482]},{"name":"book","coordinates":[0.7603849411010742,0.27605708440144855,0.011384095996618271,0.06926402250925699]},{"name":"book","coordinates":[0.7773466110229492,0.2746445973714193,0.012191680073738099,0.0628682533899943]},{"name":"book","coordinates":[0.7181167602539062,0.30284652709960935,0.04345812201499939,0.016831175486246745]}]}
