{"src":"https://a0.muscache.com/im/pictures/43927adb-66e8-4fa4-9628-62688edebfee.jpg?aki_policy=xx_large","name":"大晶家の個室。距离新宿、涉谷仅13分钟车程的幽静小镇,来体验当地人的生活吧!","listingId":12842421,"photoId":"132-8","tags":[{"name":"chair","coordinates":[0.07161920335557728,0.7303893566131592,0.44621891445583767,0.2670961697896322]},{"name":"chair","coordinates":[0.5173734876844618,0.7185132344563802,0.33136808607313367,0.28260409037272133]},{"name":"chair","coordinates":[0.7688036812676324,0.6677019596099854,0.21127908494737413,0.3397308667500814]},{"name":"diningtable","coordinates":[0.5492097642686632,0.6224124391873678,0.36235521104600693,0.08743360042572021]},{"name":"car","coordinates":[0.5528325186835394,0.49124065637588504,0.24395467970106338,0.07419052918752035]},{"name":"bicycle","coordinates":[0.8185033268398708,0.5069403131802876,0.10329011281331381,0.11764466762542725]},{"name":"person","coordinates":[0.47795465787251795,0.4724013169606527,0.076594787173801,0.11547301610310873]},{"name":"car","coordinates":[0.7208218786451551,0.49613410234451294,0.09684518178304037,0.0681195338567098]},{"name":"bowl","coordinates":[0.30851219230228,0.6503924806912741,0.047876161999172634,0.026169435183207194]}]}
