{"src":"https://a0.muscache.com/im/pictures/01107d97-034c-479e-b482-0904c1ad96cb.jpg?aki_policy=xx_large","name":"BRICKERICA COTTAGE NEW HOUSE \"LEGO+BRICKS+BLOCKS\"","listingId":21774467,"photoId":"1320-3","tags":[{"name":"diningtable","coordinates":[1.275142867476852,0.6127559026082356,2.363113742404514,0.6777171452840169]},{"name":"person","coordinates":[1.9518048321759258,0.36964219411214194,0.7891260782877604,0.2312681516011556]},{"name":"bowl","coordinates":[1.1633313214337384,0.6534411112467448,0.4985266791449653,0.14124492009480794]},{"name":"bowl","coordinates":[0.5887122825339989,0.43352959950764974,0.451682366265191,0.11994269688924154]},{"name":"wine-glass","coordinates":[1.3653309009693286,0.5228297233581543,0.20797234994393807,0.21979077657063803]},{"name":"wine-glass","coordinates":[0.9584964328342014,0.42713807423909506,0.19717993559660735,0.1731136957804362]},{"name":"knife","coordinates":[1.9172905815972223,0.5413132985432942,0.5466770313404224,0.032300106684366864]},{"name":"fork","coordinates":[1.6237844961660879,0.36642106374104816,0.18555700514051648,0.06559836069742839]}]}
