{"src":"https://a0.muscache.com/im/pictures/01107d97-034c-479e-b482-0904c1ad96cb.jpg?aki_policy=xx_large","name":"BRICKERICA COTTAGE NEW HOUSE \"LEGO+BRICKS+BLOCKS\"","listingId":21774467,"photoId":"1320-3","tags":[{"name":"diningtable","coordinates":[0.47817857530381946,0.6127559026082356,0.8861676534016927,0.6777171452840169]},{"name":"person","coordinates":[0.7319268120659722,0.36964219411214194,0.29592227935791016,0.2312681516011556]},{"name":"bowl","coordinates":[0.43624924553765193,0.6534411112467448,0.18694750467936197,0.14124492009480794]},{"name":"bowl","coordinates":[0.22076710595024956,0.43352959950764974,0.16938088734944662,0.11994269688924154]},{"name":"wine-glass","coordinates":[0.5119990878634982,0.5228297233581543,0.07798963122897679,0.21979077657063803]},{"name":"wine-glass","coordinates":[0.35943616231282555,0.42713807423909506,0.07394247584872776,0.1731136957804362]},{"name":"knife","coordinates":[0.7189839680989584,0.5413132985432942,0.20500388675265843,0.032300106684366864]},{"name":"fork","coordinates":[0.608919186062283,0.36642106374104816,0.06958387692769369,0.06559836069742839]}]}
