{"src":"https://a0.muscache.com/im/pictures/50c8ef91-e767-47e4-9efc-30a580595014.jpg?aki_policy=xx_large","name":"Music Loft - entire apartment","listingId":7704452,"photoId":"1323-0","tags":[{"name":"sofa","coordinates":[0.21054566540971859,0.8055729548136393,0.41474136651731003,0.36716766357421876]},{"name":"chair","coordinates":[0.8847422025450805,0.843776257832845,0.22283657725785627,0.2849712371826172]},{"name":"pottedplant","coordinates":[0.38103465873654147,0.5363721211751302,0.08532095089012168,0.18426440556844076]},{"name":"chair","coordinates":[0.8973498945476628,0.6664662043253581,0.12847901459167652,0.052072397867838544]},{"name":"book","coordinates":[0.44787995154116333,0.8286750793457032,0.07943757642217043,0.06282625198364258]},{"name":"pottedplant","coordinates":[0.46389706395253416,0.598448371887207,0.048698494748241096,0.07885332107543945]}]}
