{"src":"https://a0.muscache.com/im/pictures/103569779/2a9bba21_original.jpg?aki_policy=xx_large","name":"In the historic heart of The Hague","listingId":7707333,"photoId":"1324-3","tags":[{"name":"diningtable","coordinates":[0.5151929152360049,0.8054101943969727,0.5397219173765647,0.3563260396321615]},{"name":"sofa","coordinates":[0.2073739679201256,0.7376820882161458,0.421026662261496,0.3345197041829427]},{"name":"chair","coordinates":[0.6734339007084492,0.8754239400227865,0.2841342506886192,0.2532771587371826]},{"name":"chair","coordinates":[0.27500552627075364,0.8815029780069987,0.20734616678845402,0.22167089780171711]},{"name":"chair","coordinates":[0.39960574175286856,0.6497324625651042,0.08869543062297625,0.08583349386850993]},{"name":"tvmonitor","coordinates":[0.15120878471618568,0.5185481389363606,0.08128843453398003,0.05696585973103841]},{"name":"chair","coordinates":[0.43016092568345793,0.6408376693725586,0.05918656668842088,0.06629852056503296]},{"name":"bowl","coordinates":[0.47620791884887864,0.5028132756551107,0.0423417681613121,0.018163331349690757]}]}
