{"src":"https://a0.muscache.com/im/pictures/d00500f5-5500-40cc-9f03-59d626a6ea95.jpg?aki_policy=xx_large","name":"Mudgeeraba, Gold Coast, Self-Contained Apartment","listingId":21786612,"photoId":"1324-3","tags":[{"name":"pottedplant","coordinates":[0.42833080291748044,0.3401593844095866,0.23962984085083008,0.36436004638671876]},{"name":"pottedplant","coordinates":[0.22379334568977358,0.36528055667877196,0.1834070563316345,0.18195897738138836]},{"name":"sink","coordinates":[0.2644704461097718,0.7256901542345683,0.1912761449813843,0.10448631445566813]},{"name":"vase","coordinates":[0.5407825648784638,0.6011997858683268,0.06518703699111938,0.16920623779296876]},{"name":"bottle","coordinates":[0.18786709606647492,0.6531632741292318,0.04322203993797302,0.14443766276041667]},{"name":"cup","coordinates":[0.12131791710853576,0.7275999069213868,0.056139576435089114,0.10304743448893229]}]}
