{"src":"https://a0.muscache.com/im/pictures/d00500f5-5500-40cc-9f03-59d626a6ea95.jpg?aki_policy=xx_large","name":"Mudgeeraba, Gold Coast, Self-Contained Apartment","listingId":21786612,"photoId":"1324-3","tags":[{"name":"pottedplant","coordinates":[0.5481457233428955,0.522339407602946,0.23962984085083008,0.36436004638671876]},{"name":"pottedplant","coordinates":[0.31549687385559083,0.4562600453694661,0.1834070563316345,0.18195897738138836]},{"name":"sink","coordinates":[0.3601085186004639,0.7779333114624023,0.1912761449813843,0.10448631445566813]},{"name":"vase","coordinates":[0.5733760833740235,0.6858029047648112,0.06518703699111938,0.16920623779296876]},{"name":"bottle","coordinates":[0.20947811603546143,0.7253821055094402,0.04322203993797302,0.14443766276041667]},{"name":"cup","coordinates":[0.1493877053260803,0.7791236241658529,0.056139576435089114,0.10304743448893229]}]}
