{"src":"https://a0.muscache.com/im/pictures/4302fb4a-9627-42b4-bf26-4496fc5c7f0e.jpg?aki_policy=xx_large","name":"Benvenuti a Torino stanza perfetta per te!","listingId":21799956,"photoId":"1326-4","tags":[{"name":"diningtable","coordinates":[0.1997309578789605,0.8261666615804036,0.3790047963460286,0.3171815554300944]},{"name":"chair","coordinates":[0.3359776178995768,0.7813587188720703,0.18134435017903647,0.3842901865641276]},{"name":"oven","coordinates":[0.5197060055202908,0.6973944981892903,0.1445741229587131,0.31466026306152345]},{"name":"cup","coordinates":[0.15593798955281576,0.8031217575073242,0.053258784612019855,0.11354614893595377]},{"name":"cup","coordinates":[0.11138774024115669,0.7745330810546875,0.05243119663662381,0.10845293998718261]},{"name":"sink","coordinates":[0.33775850931803386,0.4165126164754232,0.09363256030612521,0.04033610026041667]},{"name":"bottle","coordinates":[0.3125462849934896,0.35097166697184246,0.02566064993540446,0.10219213167826334]}]}
