{"src":"https://a0.muscache.com/im/pictures/101515970/0d8039e4_original.jpg?aki_policy=xx_large","name":"Sunny &amp; spacious with roof terrace!","listingId":7741241,"photoId":"1326-3","tags":[{"name":"sofa","coordinates":[0.7866756863064236,0.7133341471354167,0.4061576843261719,0.43434886932373046]},{"name":"diningtable","coordinates":[0.29734598795572914,0.5819154103597005,0.11773014068603516,0.14710335731506347]},{"name":"bowl","coordinates":[0.10764090220133464,0.24475436210632323,0.08669523662990994,0.07774311701456706]},{"name":"chair","coordinates":[0.31665742662217883,0.5740177154541015,0.04831879403856065,0.13383755683898926]},{"name":"chair","coordinates":[0.25787285698784723,0.5758335749308269,0.034152184592352974,0.15048542022705078]}]}
