{"src":"https://a0.muscache.com/im/pictures/4302fb4a-9627-42b4-bf26-4496fc5c7f0e.jpg?aki_policy=xx_large","name":"Benvenuti a Torino stanza perfetta per te!","listingId":21799956,"photoId":"1326-4","tags":[{"name":"diningtable","coordinates":[0.010228559705946189,0.6675758838653565,0.3790047963460286,0.3171815554300944]},{"name":"chair","coordinates":[0.24530544281005856,0.5892136255900065,0.18134435017903647,0.3842901865641276]},{"name":"oven","coordinates":[0.44741894404093424,0.5400643666585286,0.1445741229587131,0.31466026306152345]},{"name":"cup","coordinates":[0.12930859724680582,0.7463486830393473,0.053258784612019855,0.11354614893595377]},{"name":"cup","coordinates":[0.08517214192284478,0.7203066110610963,0.05243119663662381,0.10845293998718261]},{"name":"sink","coordinates":[0.29094222916497126,0.39634456634521487,0.09363256030612521,0.04033610026041667]},{"name":"bottle","coordinates":[0.2997159600257873,0.2998756011327108,0.02566064993540446,0.10219213167826334]}]}
