{"src":"https://a0.muscache.com/im/pictures/ab079438-735d-4a66-b9e6-1cbbcf145303.jpg?aki_policy=xx_large","name":"Locals路客·汴西湖阳光瞰景房","listingId":21816793,"photoId":"1329-14","tags":[{"name":"diningtable","coordinates":[-0.0022035386827256587,0.662300984064738,0.9344608730740017,0.2854679425557454]},{"name":"laptop","coordinates":[0.2651667382982042,0.368699312210083,0.313362185160319,0.2934384346008301]},{"name":"chair","coordinates":[0.8054912779066299,0.5401040077209472,0.1954369862874349,0.4268166224161784]},{"name":"cup","coordinates":[0.20354042583041723,0.5886998176574707,0.12635539372762045,0.1933359146118164]},{"name":"cup","coordinates":[0.40182340410020617,0.5995361487070718,0.12954037984212238,0.16949459711710613]}]}
