{"src":"https://a0.muscache.com/im/pictures/686b7538-d4cb-4822-b24d-b8040bec4785.jpg?aki_policy=xx_large","name":"Locals路客·汴西湖阳光瞰景房","listingId":21816793,"photoId":"1329-20","tags":[{"name":"sofa","coordinates":[0.5901015811496311,0.5097423712412517,0.3826288011338976,0.29552825291951496]},{"name":"chair","coordinates":[0.20951111051771376,0.5037741978963215,0.17978827158610025,0.40907135009765627]},{"name":"pottedplant","coordinates":[0.8797218958536784,0.431057627995809,0.11926799350314671,0.22555271784464517]},{"name":"vase","coordinates":[0.9185813294516669,0.5683173656463624,0.051967657936943905,0.13451267878214518]},{"name":"cup","coordinates":[0.5315216951900058,0.5855324327945709,0.02051577303144667,0.03707239230473836]},{"name":"apple","coordinates":[0.16883505119217765,0.5080238312482833,0.019006762239668105,0.023077080647150677]},{"name":"orange","coordinates":[0.16883505119217765,0.5080238312482833,0.019006762239668105,0.023077080647150677]},{"name":"orange","coordinates":[0.13409796886973913,0.5098304251829784,0.01869644456439548,0.02335418462753296]},{"name":"orange","coordinates":[0.15504387749565973,0.5077284753322601,0.01731972164577908,0.02453264792760213]}]}
