{"src":"https://a0.muscache.com/im/pictures/e7da509a-0c0e-49d3-86d8-9f4cb99dfb0b.jpg?aki_policy=xx_large","name":"Locals路客·汴西湖阳光瞰景房","listingId":21816793,"photoId":"1329-8","tags":[{"name":"oven","coordinates":[0.07608995437622068,0.602757438023885,0.8575031280517578,0.39553213119506836]},{"name":"bowl","coordinates":[0.734302854537964,0.7425936857859293,0.23325624465942382,0.09831279118855794]},{"name":"cup","coordinates":[0.6870284199714661,0.839974574247996,0.22012717723846437,0.1024728536605835]},{"name":"bowl","coordinates":[0.6870284199714661,0.839974574247996,0.22012717723846437,0.1024728536605835]},{"name":"bowl","coordinates":[0.5404206097126008,0.7713678161303202,0.16265166997909547,0.08045556545257568]},{"name":"bowl","coordinates":[0.8841311454772949,0.7984758734703064,0.11533641815185547,0.10520559151967367]},{"name":"cup","coordinates":[0.8877958357334137,0.9369997143745422,0.11742628812789917,0.06057762304941813]},{"name":"bottle","coordinates":[0.34377362579107285,0.5012508312861125,0.04931736290454865,0.06729865074157715]},{"name":"bottle","coordinates":[0.3009273305535316,0.5018187204996745,0.042118880152702334,0.0671966552734375]}]}
