{"src":"https://a0.muscache.com/im/pictures/686b7538-d4cb-4822-b24d-b8040bec4785.jpg?aki_policy=xx_large","name":"Locals路客·汴西湖阳光瞰景房","listingId":21816793,"photoId":"1329-20","tags":[{"name":"sofa","coordinates":[0.7814159817165799,0.6575064977010091,0.3826288011338976,0.29552825291951496]},{"name":"chair","coordinates":[0.2994052463107639,0.7083098729451497,0.17978827158610025,0.40907135009765627]},{"name":"pottedplant","coordinates":[0.9393558926052518,0.5438339869181316,0.11926799350314671,0.22555271784464517]},{"name":"vase","coordinates":[0.9445651584201389,0.6355737050374349,0.051967657936943905,0.13451267878214518]},{"name":"cup","coordinates":[0.5417795817057292,0.6040686289469401,0.02051577303144667,0.03707239230473836]},{"name":"apple","coordinates":[0.1783384323120117,0.5195623715718587,0.019006762239668105,0.023077080647150677]},{"name":"orange","coordinates":[0.1783384323120117,0.5195623715718587,0.019006762239668105,0.023077080647150677]},{"name":"orange","coordinates":[0.14344619115193685,0.5215075174967448,0.01869644456439548,0.02335418462753296]},{"name":"orange","coordinates":[0.16370373831854926,0.5199947992960612,0.01731972164577908,0.02453264792760213]}]}
