{"src":"https://a0.muscache.com/im/pictures/43707e87-70ee-43e8-b855-f680d282202c.jpg?aki_policy=xx_large","name":"5 beds in a dormitory room(charges per bed)","listingId":12876537,"photoId":"133-4","tags":[{"name":"diningtable","coordinates":[0.30620237986246746,0.7767085393269857,0.6287929111056858,0.43582792282104493]},{"name":"diningtable","coordinates":[0.7257948133680555,0.49156376520792644,0.281596925523546,0.27822481791178383]},{"name":"bed","coordinates":[0.11634008619520399,0.39692983627319334,0.2368642807006836,0.3031116167704264]},{"name":"diningtable","coordinates":[0.3882015652126736,0.40428368250528973,0.24629751841227213,0.277522341410319]},{"name":"chair","coordinates":[0.7961647033691406,0.7273786544799805,0.18685152265760635,0.2951583544413249]},{"name":"chair","coordinates":[0.34924909803602433,0.4625462532043457,0.13628751966688368,0.283242925008138]},{"name":"person","coordinates":[0.22734285990397135,0.09702000617980958,0.03632626003689236,0.08060921827952067]}]}
