{"src":"https://a0.muscache.com/im/pictures/43707e87-70ee-43e8-b855-f680d282202c.jpg?aki_policy=xx_large","name":"5 beds in a dormitory room(charges per bed)","listingId":12876537,"photoId":"133-4","tags":[{"name":"diningtable","coordinates":[0.3444776773452759,0.7767085393269857,0.7073920249938965,0.43582792282104493]},{"name":"diningtable","coordinates":[0.8165191650390625,0.49156376520792644,0.31679654121398926,0.27822481791178383]},{"name":"bed","coordinates":[0.1308825969696045,0.39692983627319334,0.266472315788269,0.3031116167704264]},{"name":"diningtable","coordinates":[0.4367267608642578,0.40428368250528973,0.27708470821380615,0.277522341410319]},{"name":"chair","coordinates":[0.8956852912902832,0.7273786544799805,0.21020796298980712,0.2951583544413249]},{"name":"chair","coordinates":[0.39290523529052734,0.4625462532043457,0.15332345962524413,0.283242925008138]},{"name":"person","coordinates":[0.25576071739196776,0.09702000617980958,0.040867042541503903,0.08060921827952067]}]}
