{"src":"https://a0.muscache.com/im/pictures/99781381/0fad946e_original.jpg?aki_policy=xx_large","name":"Specious,light,private, near beach","listingId":7836186,"photoId":"1331-2","tags":[{"name":"diningtable","coordinates":[0.7077022128634982,0.8460388819376627,0.5904847886827257,0.3279875755310059]},{"name":"pottedplant","coordinates":[0.8511994255913629,0.7553621927897135,0.28682725694444444,0.43448006312052406]},{"name":"pottedplant","coordinates":[0.11150954564412435,0.6224973678588868,0.20897630055745442,0.3457890192667643]},{"name":"sofa","coordinates":[0.3621813456217448,0.5969114303588867,0.17123324076334637,0.22682021458943685]},{"name":"chair","coordinates":[0.44301096598307294,0.8373537063598633,0.12056597603691949,0.2908337593078613]},{"name":"chair","coordinates":[0.5339592827690972,0.6439795811971029,0.1675821198357476,0.15953736305236815]},{"name":"chair","coordinates":[0.5220146603054471,0.5873635609944662,0.1360618061489529,0.18621918360392253]}]}
