{"src":"https://a0.muscache.com/im/pictures/4912aeb7-539d-41da-a1de-6a7a5a7ba597.jpg?aki_policy=xx_large","name":"GREAT APARTMENT NEAR THE BEACH!","listingId":7850909,"photoId":"1333-1","tags":[{"name":"diningtable","coordinates":[0.79495849609375,0.8887135823567708,0.4506643507215712,0.2140454610188802]},{"name":"diningtable","coordinates":[0.564519034491645,0.7993924458821614,0.13871640099419488,0.31470375061035155]},{"name":"chair","coordinates":[0.49291453891330295,0.9392896016438802,0.1707694795396593,0.09720836480458578]},{"name":"chair","coordinates":[0.6426743401421441,0.8656515121459961,0.09059133529663085,0.1781834125518799]},{"name":"clock","coordinates":[0.599362309773763,0.43850269317626955,0.07754155264960395,0.13660863240559895]},{"name":"vase","coordinates":[0.06884659661187066,0.6551300048828125,0.01763945950402154,0.05431440273920695]},{"name":"bottle","coordinates":[0.26234393649631077,0.6211974461873372,0.014038495222727458,0.06820263067881266]},{"name":"bottle","coordinates":[0.2774386935763889,0.5246012687683106,0.012043223116132947,0.039218803246816]},{"name":"bottle","coordinates":[0.2984909481472439,0.5353562672932942,0.010178153382407294,0.04284980297088623]}]}
