{"src":"https://a0.muscache.com/im/pictures/f3ae716f-0111-4cca-aaa6-a356e6c4610f.jpg?aki_policy=xx_large","name":"Open！ Azure RIO 1410. Free Parking❤ Memorable Stay","listingId":21847843,"photoId":"1337-27","tags":[{"name":"chair","coordinates":[0.7221188306808473,0.5289925893147787,0.206412935256958,0.4179985046386719]},{"name":"refrigerator","coordinates":[0.5469806611537934,0.3885823567708333,0.14803410768508912,0.3010481516520182]},{"name":"microwave","coordinates":[0.5409192264080047,0.31828014850616454,0.13702141046524047,0.09742801984151205]},{"name":"sink","coordinates":[0.4180843591690064,0.4018994629383087,0.11491093635559083,0.03353354533513387]},{"name":"bottle","coordinates":[0.47629943042993544,0.30552355051040647,0.02503938376903534,0.0941649834314982]}]}
