{"src":"https://a0.muscache.com/im/pictures/f3ae716f-0111-4cca-aaa6-a356e6c4610f.jpg?aki_policy=xx_large","name":"Open！ Azure RIO 1410. Free Parking❤ Memorable Stay","listingId":21847843,"photoId":"1337-27","tags":[{"name":"chair","coordinates":[0.8253252983093262,0.7379918416341146,0.206412935256958,0.4179985046386719]},{"name":"refrigerator","coordinates":[0.6209977149963379,0.5391064325968424,0.14803410768508912,0.3010481516520182]},{"name":"microwave","coordinates":[0.609429931640625,0.36699415842692057,0.13702141046524047,0.09742801984151205]},{"name":"sink","coordinates":[0.4755398273468018,0.4186662356058756,0.11491093635559083,0.03353354533513387]},{"name":"bottle","coordinates":[0.4888191223144531,0.3526060422261556,0.02503938376903534,0.0941649834314982]}]}
