{"src":"https://a0.muscache.com/im/pictures/f6e30dee-0d32-4b81-a30a-bada71ee47ce.jpg?aki_policy=xx_large","name":"Welcome in The Hague!!","listingId":8007399,"photoId":"1338-3","tags":[{"name":"sofa","coordinates":[0.8334003448486328,0.8025747934977213,0.5107280731201171,0.36692660649617515]},{"name":"chair","coordinates":[0.161038601398468,0.7461158752441406,0.2174116849899292,0.2599328994750977]},{"name":"chair","coordinates":[0.416123104095459,0.6863191604614258,0.1758408546447754,0.20005408922831217]},{"name":"pottedplant","coordinates":[0.031727340817451474,0.644267463684082,0.06543498039245606,0.19146862030029296]},{"name":"pottedplant","coordinates":[0.5790516853332519,0.5788288752237956,0.07938382625579835,0.14475903511047364]},{"name":"vase","coordinates":[0.6381733417510986,0.45796178181966146,0.01771620213985443,0.09344701766967774]}]}
