{"src":"https://a0.muscache.com/im/pictures/14756614/f9c21cbf_original.jpg?aki_policy=xx_large","name":"Amazing Apartment on 38th floor 767","listingId":800960,"photoId":"1339-10","tags":[{"name":"diningtable","coordinates":[0.3157631069172724,0.7065259933471679,0.5199011162463005,0.47228240966796875]},{"name":"chair","coordinates":[0.2839306802138645,0.7928433100382487,0.21329721434866816,0.3824154853820801]},{"name":"chair","coordinates":[0.43558572328190287,0.7490649541219075,0.16516151534481632,0.37410850524902345]},{"name":"chair","coordinates":[0.5251789571182973,0.6256434122721354,0.0881049068525309,0.38659865061442056]},{"name":"bowl","coordinates":[0.21989358035966877,0.5857224782307943,0.16260126905520977,0.14429504076639812]},{"name":"laptop","coordinates":[0.3892925549350409,0.5384381612141927,0.11991425410618689,0.1296648661295573]},{"name":"chair","coordinates":[0.17848764488624,0.4968025843302409,0.13238078040332849,0.11141707897186279]},{"name":"chair","coordinates":[0.5343205018960002,0.4848989168802897,0.08702649512330801,0.10420339107513428]}]}
