{"src":"https://a0.muscache.com/im/pictures/14756576/927f2c63_original.jpg?aki_policy=xx_large","name":"Amazing Apartment on 38th floor 767","listingId":800960,"photoId":"1339-29","tags":[{"name":"pottedplant","coordinates":[0.6537535190582275,0.8255861282348633,0.23368282318115235,0.310659122467041]},{"name":"pottedplant","coordinates":[0.4330153465270996,0.7291669845581055,0.16172124147415162,0.33682594299316404]},{"name":"oven","coordinates":[0.3342012882232666,0.27874635060628256,0.1341871738433838,0.1913500150044759]},{"name":"bottle","coordinates":[0.33404085636138914,0.07298012574513753,0.024994787573814393,0.08978857199350992]},{"name":"bottle","coordinates":[0.30431067943573,0.0692001183827718,0.02282445728778839,0.08908828099568684]},{"name":"bowl","coordinates":[0.45274667739868163,0.42728007634480797,0.03754088878631592,0.03242314259211222]},{"name":"bowl","coordinates":[0.41312761306762696,0.4277473449707031,0.036769405007362366,0.029408735036849976]}]}
