{"src":"https://a0.muscache.com/im/pictures/14756590/9fb262ca_original.jpg?aki_policy=xx_large","name":"Amazing Apartment on 38th floor 767","listingId":800960,"photoId":"1339-32","tags":[{"name":"sofa","coordinates":[0.6441973686218262,0.48090054194132487,0.5593039512634277,0.3128464698791504]},{"name":"chair","coordinates":[0.46855931282043456,0.7766592661539714,0.33468308448791506,0.4012072245279948]},{"name":"sofa","coordinates":[0.4049710750579834,0.471986198425293,0.2756361484527588,0.2565228303273519]},{"name":"book","coordinates":[0.6000636577606201,0.5394738515218099,0.051098603010177615,0.02901370127995809]},{"name":"remote","coordinates":[0.6185332298278808,0.6089534123738607,0.06781044006347656,0.017861237128575642]}]}
