{"src":"https://a0.muscache.com/im/pictures/3fc09e22-8602-4f45-9bd9-30458bee5193.jpg?aki_policy=xx_large","name":"Apartment for 2 in Prague","listingId":21860814,"photoId":"1341-2","tags":[{"name":"diningtable","coordinates":[0.4787751939561632,0.643553352355957,0.9408148871527777,0.6777854919433594]},{"name":"chair","coordinates":[0.16167556974622938,0.5579728444417318,0.19237810770670574,0.4346854527791341]},{"name":"chair","coordinates":[0.843607160780165,0.47940680185953777,0.15615996254814996,0.3422158559163411]},{"name":"pottedplant","coordinates":[0.5585714128282335,0.29288962682088215,0.17811010148790146,0.12433180809020997]},{"name":"chair","coordinates":[0.40639529758029513,0.3252158800760905,0.14514854219224718,0.10854895114898681]},{"name":"cup","coordinates":[0.48711751302083334,0.39045918782552086,0.0645595179663764,0.08565197785695394]}]}
