{"src":"https://a0.muscache.com/im/pictures/807215ab-466f-404b-9dbc-d9a51dc4c905.jpg?aki_policy=xx_large","name":"Apartment for 2 in Prague","listingId":21860814,"photoId":"1341-4","tags":[{"name":"chair","coordinates":[0.7153296348036289,0.5711746056874594,0.19372876706100156,0.40755847295125325]},{"name":"refrigerator","coordinates":[0.7600896754473593,0.3408266385396322,0.1911425984841904,0.3366857528686523]},{"name":"chair","coordinates":[0.39883066035543074,0.4842904090881348,0.1474454666360374,0.3418820063273112]},{"name":"chair","coordinates":[0.2801048167469271,0.463047726949056,0.11953139421093208,0.31389846801757815]},{"name":"chair","coordinates":[0.8989380497829711,0.6560568014780681,0.09950832131010033,0.3410759925842285]},{"name":"pottedplant","coordinates":[0.806194021769743,0.15090135733286542,0.12098681123162244,0.1786554495493571]},{"name":"chair","coordinates":[0.5319803780031502,0.45222826798756915,0.044535829757467754,0.25811365445454915]},{"name":"pottedplant","coordinates":[0.4137179657682269,0.38786780834198,0.0732887538461904,0.12987058957417805]},{"name":"vase","coordinates":[0.8427616514374267,0.2537004987398783,0.06202986175770392,0.07711050510406495]}]}
