{"src":"https://a0.muscache.com/im/pictures/7d6b343e-2fdb-4235-8476-3094bf5db0b1.jpg?aki_policy=xx_large","name":"spacious city apartment at the Canals of The hague","listingId":8038739,"photoId":"1341-5","tags":[{"name":"sofa","coordinates":[0.7351290384928385,0.805151621500651,0.4207286410861545,0.3635965983072917]},{"name":"chair","coordinates":[0.31799269782172307,0.8400697708129883,0.303524292839898,0.27670583724975584]},{"name":"chair","coordinates":[0.22453233930799696,0.7393972396850585,0.17748906877305773,0.22945904731750488]},{"name":"sofa","coordinates":[0.6660129970974392,0.6289574305216471,0.2520382987128364,0.15218032201131185]},{"name":"tvmonitor","coordinates":[0.40778524610731337,0.5657457987467448,0.10459168752034505,0.09109880924224853]},{"name":"bowl","coordinates":[0.5172184838189019,0.6837481816609701,0.0490038341946072,0.03864120244979859]}]}
