{"src":"https://a0.muscache.com/im/pictures/104554083/cdd11623_original.jpg?aki_policy=xx_large","name":"spacious city apartment at the Canals of The hague","listingId":8038739,"photoId":"1341-16","tags":[{"name":"sofa","coordinates":[0.5894456860311994,0.7740702946980794,1.068161530085089,0.4332791646321615]},{"name":"sofa","coordinates":[1.809612651311791,0.5405044555664062,0.5371361829859704,0.14245567321777344]},{"name":"person","coordinates":[0.6724650724587217,0.3846796989440918,0.17221146000842028,0.41998844146728515]},{"name":"cup","coordinates":[0.09886087822566349,0.6862911860148112,0.1971435546875,0.265600856145223]},{"name":"chair","coordinates":[1.4187893117845929,0.5092043240865072,0.18381871203356082,0.1411160151163737]},{"name":"tvmonitor","coordinates":[1.7614706524767019,0.42685715357462567,0.24196551800547,0.08353835741678874]}]}
