{"src":"https://a0.muscache.com/im/pictures/3fc09e22-8602-4f45-9bd9-30458bee5193.jpg?aki_policy=xx_large","name":"Apartment for 2 in Prague","listingId":21860814,"photoId":"1341-2","tags":[{"name":"diningtable","coordinates":[0.00836775037977433,0.30466060638427733,0.9408148871527777,0.6777854919433594]},{"name":"chair","coordinates":[0.0654865158928765,0.3406301180521647,0.19237810770670574,0.4346854527791341]},{"name":"chair","coordinates":[0.76552717950609,0.30829887390136723,0.15615996254814996,0.3422158559163411]},{"name":"pottedplant","coordinates":[0.4695163620842828,0.23072372277577718,0.17811010148790146,0.12433180809020997]},{"name":"chair","coordinates":[0.33382102648417156,0.2709414045015971,0.14514854219224718,0.10854895114898681]},{"name":"cup","coordinates":[0.45483775403764515,0.3476331988970439,0.0645595179663764,0.08565197785695394]}]}
