{"src":"https://a0.muscache.com/im/pictures/7fd98364-fb90-410e-845f-2efa64d99c41.jpg?aki_policy=xx_large","name":"A Rider's Home","listingId":21871768,"photoId":"1343-1","tags":[{"name":"motorbike","coordinates":[0.44610302428349147,0.4906840642293294,0.5571948293191809,0.562661870320638]},{"name":"person","coordinates":[0.8687483168578082,0.575462277730306,0.2478624094163475,0.8370841344197592]},{"name":"person","coordinates":[0.937612039465094,0.471375306447347,0.1258674132790738,1.097689437866211]},{"name":"bottle","coordinates":[0.3936459002056494,0.8775071461995443,0.0470826406664835,0.24412684440612792]},{"name":"book","coordinates":[0.07059010688973004,0.69382750193278,0.12906839057263558,0.03206945260365804]},{"name":"book","coordinates":[0.0658329296909003,0.8279465357462565,0.12171622571174813,0.030774901310602825]},{"name":"book","coordinates":[0.06689971137511697,0.8018508911132812,0.12799704506536713,0.02610343098640442]},{"name":"book","coordinates":[0.06699667800435781,0.7144191106160481,0.12831741588029358,0.025718055168787637]},{"name":"book","coordinates":[0.06457388301413704,0.745339838663737,0.1319567858342673,0.023219269514083863]},{"name":"book","coordinates":[0.06520906198655663,0.7742211023966471,0.12917680660662212,0.022363473971684773]}]}
