{"src":"https://a0.muscache.com/im/pictures/7fd98364-fb90-410e-845f-2efa64d99c41.jpg?aki_policy=xx_large","name":"A Rider's Home","listingId":21871768,"photoId":"1343-1","tags":[{"name":"motorbike","coordinates":[0.16750560962390104,0.20935312906901044,0.5571948293191809,0.562661870320638]},{"name":"person","coordinates":[0.7448171121496344,0.15692021052042643,0.2478624094163475,0.8370841344197592]},{"name":"person","coordinates":[0.8746783328255571,-0.0774694124857585,0.1258674132790738,1.097689437866211]},{"name":"bottle","coordinates":[0.37010457987240764,0.7554437239964803,0.0470826406664835,0.24412684440612792]},{"name":"book","coordinates":[0.006055911603412248,0.677792775630951,0.12906839057263558,0.03206945260365804]},{"name":"book","coordinates":[0.004974816835026229,0.8125590850909551,0.12171622571174813,0.030774901310602825]},{"name":"book","coordinates":[0.0029011888424334,0.7887991756200791,0.12799704506536713,0.02610343098640442]},{"name":"book","coordinates":[0.0028379700642110206,0.7015600830316543,0.12831741588029358,0.025718055168787637]},{"name":"book","coordinates":[-0.0014045099029966063,0.7337302039066951,0.1319567858342673,0.023219269514083863]},{"name":"book","coordinates":[0.0006206586832455674,0.7630393654108047,0.12917680660662212,0.022363473971684773]}]}
