{"src":"https://a0.muscache.com/im/pictures/7fd98364-fb90-410e-845f-2efa64d99c41.jpg?aki_policy=xx_large","name":"A Rider's Home","listingId":21871768,"photoId":"1343-0","tags":[{"name":"motorbike","coordinates":[0.5008631296881109,0.4906840642293294,0.6255916926523407,0.562661870320638]},{"name":"person","coordinates":[0.9753890406628714,0.575462277730306,0.27828805310545346,0.8370841344197592]},{"name":"person","coordinates":[1.0527059332852815,0.471375306447347,0.1413179088887803,1.097689437866211]},{"name":"bottle","coordinates":[0.4419667808407447,0.8775071461995443,0.0528621360414936,0.24412684440612792]},{"name":"book","coordinates":[0.07925519428745297,0.69382750193278,0.14491181302760336,0.03206945260365804]},{"name":"book","coordinates":[0.07391406335897796,0.8279465357462565,0.13665715412202525,0.030774901310602825]},{"name":"book","coordinates":[0.07511179478863797,0.8018508911132812,0.1437089575557992,0.02610343098640442]},{"name":"book","coordinates":[0.07522066428010775,0.7144191106160481,0.1440686545770927,0.025718055168787637]},{"name":"book","coordinates":[0.07250046599554401,0.745339838663737,0.1481547650179889,0.023219269514083863]},{"name":"book","coordinates":[0.07321361455253739,0.7742211023966471,0.14503353736286895,0.022363473971684773]}]}
