{"src":"https://a0.muscache.com/im/pictures/83411af9-3cc1-49ed-a786-9f1e1d7cdf13.jpg?aki_policy=xx_large","name":"Winter Garden Studio","listingId":21906055,"photoId":"1347-15","tags":[{"name":"pottedplant","coordinates":[0.5778673976595958,0.5271165847778321,0.9718087500627343,0.7348050435384115]},{"name":"pottedplant","coordinates":[0.29247164675204096,0.7741077423095704,0.49446452302136307,0.42038160959879556]},{"name":"chair","coordinates":[0.9706903821140591,0.8290703455607097,0.3508893815557247,0.1757183074951172]},{"name":"bench","coordinates":[2.603077792508699,0.8795976003011068,0.26720962687784394,0.22545987764994305]},{"name":"bench","coordinates":[1.3321483538543897,0.9472365061442057,0.48986630164070866,0.10406582355499268]},{"name":"person","coordinates":[2.193448248460921,0.7746222178141277,0.17900644175756156,0.21503702799479166]},{"name":"pottedplant","coordinates":[2.0318309449026364,0.7282342910766602,0.16547421571784662,0.16644439697265626]},{"name":"pottedplant","coordinates":[1.7625071098768736,0.6223616282145182,0.19379374404025027,0.13435107866923016]},{"name":"pottedplant","coordinates":[2.173910463647618,0.6082098642985027,0.11932044672506524,0.07912109692891439]},{"name":"pottedplant","coordinates":[2.308383851796708,0.5904925664265951,0.16175479603017934,0.05703845818837484]}]}
