{"src":"https://a0.muscache.com/im/pictures/12be1326-6ea2-40b1-a5b2-3292e1c60884.jpg?aki_policy=xx_large","name":"Winter Garden Studio","listingId":21906055,"photoId":"1347-8","tags":[{"name":"toilet","coordinates":[0.6180261611938477,0.8278531392415365,0.37623474597930906,0.20702667236328126]},{"name":"pottedplant","coordinates":[0.6422301292419433,0.2971627871195475,0.20792994499206544,0.19885746637980142]},{"name":"pottedplant","coordinates":[0.8348154067993164,0.8712291717529297,0.17338297367095948,0.21926940282185872]},{"name":"sink","coordinates":[0.17480902671813964,0.6031254450480144,0.2674417018890381,0.07126611868540446]},{"name":"bottle","coordinates":[0.22358925342559816,0.5408802668253581,0.04030851125717163,0.06515045563379923]}]}
