{"src":"https://a0.muscache.com/im/pictures/110741095/7ea385bb_original.jpg?aki_policy=xx_large","name":"City Center Palice Appartment","listingId":8202537,"photoId":"1347-0","tags":[{"name":"sofa","coordinates":[0.5936536153157552,0.8016592025756836,0.24782157474093966,0.33506383895874026]},{"name":"chair","coordinates":[0.42947904798719616,0.821649678548177,0.1699046982659234,0.345342763264974]},{"name":"sofa","coordinates":[0.8733955383300781,0.7121419906616211,0.2214801788330078,0.2311342716217041]},{"name":"pottedplant","coordinates":[0.5510621812608507,0.4719571113586426,0.0826356569925944,0.25578961372375486]},{"name":"pottedplant","coordinates":[0.06827684508429634,0.5813863754272461,0.11841314103868272,0.15594412485758463]},{"name":"tvmonitor","coordinates":[0.6770531548394098,0.47679545084635416,0.12317983839246961,0.12481408913930257]}]}
