{"src":"https://a0.muscache.com/im/pictures/12be1326-6ea2-40b1-a5b2-3292e1c60884.jpg?aki_policy=xx_large","name":"Winter Garden Studio","listingId":21906055,"photoId":"1347-8","tags":[{"name":"toilet","coordinates":[0.846973754098635,0.8278531392415365,0.515610786781066,0.20702667236328126]},{"name":"pottedplant","coordinates":[0.8801440743358538,0.2971627871195475,0.28495752632745586,0.19885746637980142]},{"name":"pottedplant","coordinates":[1.1440725061061296,0.8712291717529297,0.23761264057690376,0.21926940282185872]},{"name":"sink","coordinates":[0.23956697451736483,0.6031254450480144,0.36651539445178666,0.07126611868540446]},{"name":"bottle","coordinates":[0.30641782054043426,0.5408802668253581,0.05524078630533157,0.06515045563379923]}]}
