{"src":"https://a0.muscache.com/im/pictures/e0196cae-decb-4277-b53b-756d9975fffc.jpg?aki_policy=xx_large","name":"Winter Garden Studio","listingId":21906055,"photoId":"1347-14","tags":[{"name":"bowl","coordinates":[0.017682753668891063,0.6340410550435384,0.24960339864095052,0.33667341868082684]},{"name":"bowl","coordinates":[0.2983577516343858,0.6157650470733643,0.2533169640435113,0.2951008160909017]},{"name":"spoon","coordinates":[-0.00811710357666015,0.5474192460378011,0.17796412573920356,0.3123909950256348]},{"name":"toothbrush","coordinates":[-0.00811710357666015,0.5474192460378011,0.17796412573920356,0.3123909950256348]},{"name":"cup","coordinates":[0.7669018851386176,0.3474671204884847,0.12804501851399738,0.241748841603597]},{"name":"bottle","coordinates":[0.4797305425008138,0.07316479682922365,0.11168895297580295,0.24795478185017902]},{"name":"cup","coordinates":[0.6634115113152398,0.3355122963587443,0.11045301225450303,0.24682316780090333]},{"name":"cup","coordinates":[0.6102892080942789,0.2764274835586548,0.10242641237046983,0.23854053815205892]},{"name":"bottle","coordinates":[0.5855327553219265,0.04428219795227051,0.09246759414672852,0.24652525583902996]}]}
