{"src":"https://a0.muscache.com/im/pictures/03aa5d12-f714-4ec7-aea5-c2a8d8dceb4f.jpg?aki_policy=xx_large","name":"新宿、渋谷より 30−40分、静かな、ベッドタウンです","listingId":21913477,"photoId":"1348-0","tags":[{"name":"bed","coordinates":[0.47366036309136283,0.5036333243052165,0.5423968844943576,0.48795951207478844]},{"name":"sofa","coordinates":[0.04611125522189671,0.3655514081319173,0.3922746022542318,0.5481990178426107]},{"name":"chair","coordinates":[0.04611125522189671,0.3655514081319173,0.3922746022542318,0.5481990178426107]},{"name":"sofa","coordinates":[0.5970568339029948,0.32376608848571775,0.38466356065538193,0.40989929835001626]},{"name":"tvmonitor","coordinates":[0.26446937984890406,0.17265206972757974,0.19700143602159287,0.17212915420532227]},{"name":"chair","coordinates":[0.10695466465420192,0.277853266398112,0.11877482732137044,0.1375588099161784]}]}
