{"src":"https://a0.muscache.com/im/pictures/03aa5d12-f714-4ec7-aea5-c2a8d8dceb4f.jpg?aki_policy=xx_large","name":"新宿、渋谷より 30−40分、静かな、ベッドタウンです","listingId":21913477,"photoId":"1348-0","tags":[{"name":"bed","coordinates":[0.7448588053385417,0.7476130803426106,0.5423968844943576,0.48795951207478844]},{"name":"sofa","coordinates":[0.2422485563490126,0.6396509170532226,0.3922746022542318,0.5481990178426107]},{"name":"chair","coordinates":[0.2422485563490126,0.6396509170532226,0.3922746022542318,0.5481990178426107]},{"name":"sofa","coordinates":[0.7893886142306857,0.5287157376607259,0.38466356065538193,0.40989929835001626]},{"name":"tvmonitor","coordinates":[0.3629700978597005,0.25871664683024087,0.19700143602159287,0.17212915420532227]},{"name":"chair","coordinates":[0.16634207831488715,0.3466326713562012,0.11877482732137044,0.1375588099161784]}]}
