{"src":"https://a0.muscache.com/im/pictures/03aa5d12-f714-4ec7-aea5-c2a8d8dceb4f.jpg?aki_policy=xx_large","name":"新宿、渋谷より 30−40分、静かな、ベッドタウンです","listingId":21913477,"photoId":"1348-0","tags":[{"name":"bed","coordinates":[0.8379661560058593,0.7476130803426106,0.6101964950561524,0.48795951207478844]},{"name":"sofa","coordinates":[0.2725296258926392,0.6396509170532226,0.44130892753601075,0.5481990178426107]},{"name":"chair","coordinates":[0.2725296258926392,0.6396509170532226,0.44130892753601075,0.5481990178426107]},{"name":"sofa","coordinates":[0.8880621910095214,0.5287157376607259,0.43274650573730467,0.40989929835001626]},{"name":"tvmonitor","coordinates":[0.4083413600921631,0.25871664683024087,0.221626615524292,0.17212915420532227]},{"name":"chair","coordinates":[0.18713483810424805,0.3466326713562012,0.13362168073654174,0.1375588099161784]}]}
