{"src":"https://a0.muscache.com/im/pictures/104624596/37b9c475_original.jpg?aki_policy=xx_large","name":"Peaceful in City Center The Hague","listingId":8219599,"photoId":"1350-3","tags":[{"name":"diningtable","coordinates":[0.9769134521484375,0.850121815999349,1.1534391615125867,0.28548297882080076]},{"name":"pottedplant","coordinates":[1.4185396830240886,0.30102151234944663,0.3202959060668945,0.43822603225708007]},{"name":"chair","coordinates":[0.5271937900119358,0.6796849568684896,0.22106378343370225,0.21305599212646484]},{"name":"tvmonitor","coordinates":[0.9432471381293402,0.4246257146199544,0.22465387980143228,0.1742352803548177]},{"name":"vase","coordinates":[0.7956958346896701,0.45858964920043943,0.03583675225575765,0.0706934928894043]}]}
