{"src":"https://a0.muscache.com/im/pictures/105114999/a17cfff5_original.jpg?aki_policy=xx_large","name":"Sunny Room in a Spacious Apartment","listingId":8259835,"photoId":"1352-2","tags":[{"name":"diningtable","coordinates":[0.48465389675564235,0.6373008092244467,0.6670169406467014,0.5157504717508952]},{"name":"chair","coordinates":[0.3780352274576823,0.8151088714599609,0.2824938244289822,0.3418871561686198]},{"name":"chair","coordinates":[0.7227290683322483,0.6954850514729818,0.16122345394558377,0.5477757771809896]},{"name":"chair","coordinates":[0.2052197774251302,0.650723393758138,0.1427127308315701,0.3821419715881348]},{"name":"chair","coordinates":[0.6206250932481554,0.4551644007364909,0.07532449298434787,0.08437259991963704]},{"name":"chair","coordinates":[0.5607952541775174,0.4346331596374512,0.07629994286431206,0.0671436627705892]},{"name":"pottedplant","coordinates":[0.295369635687934,0.28963982264200844,0.04115945763058133,0.10473207632700603]},{"name":"book","coordinates":[0.3379662831624349,0.39847688674926757,0.06344488991631402,0.01636191407839457]},{"name":"book","coordinates":[0.33871209886338977,0.3756828308105469,0.05645501878526476,0.017837154865264892]}]}
