{"src":"https://a0.muscache.com/im/pictures/c58cdd4d-82f5-489c-83eb-37b4ed1b93aa.jpg?aki_policy=xx_large","name":"扬州晓苑—民宿—田园风格","listingId":21955251,"photoId":"1356-29","tags":[{"name":"toilet","coordinates":[0.008162009716033924,0.4652069727579752,0.23965072631835938,0.41283772786458334]},{"name":"sink","coordinates":[0.3694311141967773,0.48496217727661134,0.46469879150390625,0.16373488108317058]},{"name":"pottedplant","coordinates":[0.3251763999462127,0.20042249361673994,0.1651194214820862,0.33192288080851234]},{"name":"bottle","coordinates":[0.9068252623081208,0.35870127677917485,0.06373900175094604,0.14735530217488607]},{"name":"pottedplant","coordinates":[0.11093041598796845,0.36025548378626504,0.057518774271011354,0.10624976952870686]},{"name":"bottle","coordinates":[0.9709455400705338,0.36871203581492107,0.02953760027885437,0.14705716768900554]}]}
