{"src":"https://a0.muscache.com/im/pictures/12001156/20dafa93_original.jpg?aki_policy=xx_large","name":"Stylish city retreat, ","listingId":834415,"photoId":"1356-3","tags":[{"name":"diningtable","coordinates":[0.6017042371961806,0.8078400293986002,0.32718450758192275,0.39188222885131835]},{"name":"chair","coordinates":[0.7827958001030816,0.8334176381429036,0.17513118320041232,0.3524148941040039]},{"name":"pottedplant","coordinates":[0.904669443766276,0.6095218022664388,0.1762173334757487,0.3497398058573405]},{"name":"chair","coordinates":[0.5163402133517795,0.7701536178588867,0.1298662609524197,0.37486998240152997]},{"name":"pottedplant","coordinates":[0.8388172573513455,0.5121469497680664,0.07749386893378364,0.09065303802490235]},{"name":"pottedplant","coordinates":[0.6678833431667752,0.5428088506062826,0.05304658148023817,0.1018429676691691]},{"name":"chair","coordinates":[0.7060972001817492,0.5717292785644531,0.04355448087056478,0.09126868247985839]},{"name":"bowl","coordinates":[0.6584443834092882,0.6267336527506511,0.06093037923177083,0.05282806952794393]}]}
