{"src":"https://a0.muscache.com/im/pictures/c58cdd4d-82f5-489c-83eb-37b4ed1b93aa.jpg?aki_policy=xx_large","name":"扬州晓苑—民宿—田园风格","listingId":21955251,"photoId":"1356-29","tags":[{"name":"toilet","coordinates":[0.1279873728752136,0.6716258366902669,0.23965072631835938,0.41283772786458334]},{"name":"sink","coordinates":[0.6017805099487304,0.5668296178181966,0.46469879150390625,0.16373488108317058]},{"name":"pottedplant","coordinates":[0.40773611068725585,0.3663839340209961,0.1651194214820862,0.33192288080851234]},{"name":"bottle","coordinates":[0.9386947631835938,0.43237892786661786,0.06373900175094604,0.14735530217488607]},{"name":"pottedplant","coordinates":[0.13968980312347412,0.4133803685506185,0.057518774271011354,0.10624976952870686]},{"name":"bottle","coordinates":[0.985714340209961,0.44224061965942385,0.02953760027885437,0.14705716768900554]}]}
