{"src":"https://a0.muscache.com/im/pictures/648863cb-63a8-40a2-aad1-9cd62dd19f21.jpg?aki_policy=xx_large","name":"扬州晓苑—民宿—田园风格","listingId":21955251,"photoId":"1356-31","tags":[{"name":"diningtable","coordinates":[0.3528568744659424,0.6794391632080078,0.4366602897644043,0.22363370259602863]},{"name":"chair","coordinates":[0.2888241767883301,0.7735681215922038,0.21233830451965333,0.22505003611246746]},{"name":"chair","coordinates":[0.5523327827453614,0.7968846003214518,0.2340390205383301,0.2024598439534505]},{"name":"sofa","coordinates":[0.47715110778808595,0.5722278197606404,0.22058544158935547,0.12396299044291179]},{"name":"pottedplant","coordinates":[0.5921341300010682,0.3529623826344808,0.08073360919952392,0.16910607020060223]},{"name":"vase","coordinates":[0.6884836912155151,0.639037040869395,0.029294538497924804,0.10406169096628824]},{"name":"book","coordinates":[0.7194939911365509,0.7236541152000426,0.06690305471420288,0.042328508694966634]},{"name":"book","coordinates":[0.721223896741867,0.7584922989209493,0.0698255181312561,0.017705241839090984]}]}
