{"src":"https://a0.muscache.com/im/pictures/8febba02-8fc2-4eff-98df-03dc3a151001.jpg?aki_policy=xx_large","name":"Plum Condo Rama 2 Room","listingId":12898357,"photoId":"136-2","tags":[{"name":"refrigerator","coordinates":[0.6133884218004015,0.46810897191365564,0.2532651689317491,0.5165671666463216]},{"name":"sink","coordinates":[0.496251360575358,0.6751414736111959,0.21707623799641926,0.08004173437754313]},{"name":"sink","coordinates":[0.508080169889662,0.6872214754422505,0.11680585013495551,0.06553355058034262]},{"name":"bowl","coordinates":[0.15960240893893773,0.7553673346837362,0.08688992394341363,0.07434236208597819]},{"name":"bowl","coordinates":[0.35888930956522624,0.20333520174026487,0.07627053790622287,0.05277707576751709]},{"name":"cup","coordinates":[0.44087858332528007,0.31430486440658567,0.01880266136593289,0.05257567564646403]},{"name":"cup","coordinates":[0.4248174203766717,0.31330500841140746,0.018941632906595864,0.05080856482187907]},{"name":"cup","coordinates":[0.4032994654443529,0.3116349995136261,0.018343085712856717,0.05017462174097697]},{"name":"cup","coordinates":[0.4527299404144287,0.44085272749265036,0.027982891930474176,0.03274595340092977]}]}
