{"src":"https://a0.muscache.com/im/pictures/8febba02-8fc2-4eff-98df-03dc3a151001.jpg?aki_policy=xx_large","name":"Plum Condo Rama 2 Room","listingId":12898357,"photoId":"136-2","tags":[{"name":"refrigerator","coordinates":[0.7410502427144906,0.7263925552368165,0.25361741534194626,0.5165671666463216]},{"name":"sink","coordinates":[0.6056306332308328,0.7151623407999674,0.21737815209655337,0.08004173437754313]},{"name":"sink","coordinates":[0.5672709713061761,0.7199882507324219,0.11696830611567172,0.06553355058034262]},{"name":"bowl","coordinates":[0.2033297733736635,0.7925385157267253,0.08701077223818889,0.07434236208597819]},{"name":"bowl","coordinates":[0.3975767684745523,0.22972373962402343,0.07637661654030663,0.05277707576751709]},{"name":"cup","coordinates":[0.4509061725812761,0.3405927022298177,0.01882881249439733,0.05257567564646403]},{"name":"cup","coordinates":[0.4348922538492046,0.338709290822347,0.01896797731953967,0.05080856482187907]},{"name":"cup","coordinates":[0.41304468146948886,0.3367223103841146,0.018368597654042886,0.05017462174097697]},{"name":"cup","coordinates":[0.4673705120909032,0.45722570419311526,0.028021811112574974,0.03274595340092977]}]}
