{"src":"https://a0.muscache.com/im/pictures/8febba02-8fc2-4eff-98df-03dc3a151001.jpg?aki_policy=xx_large","name":"Plum Condo Rama 2 Room","listingId":12898357,"photoId":"136-2","tags":[{"name":"refrigerator","coordinates":[0.7400210062662761,0.7263925552368165,0.2532651689317491,0.5165671666463216]},{"name":"sink","coordinates":[0.6047894795735677,0.7151623407999674,0.21707623799641926,0.08004173437754313]},{"name":"sink","coordinates":[0.5664830949571398,0.7199882507324219,0.11680585013495551,0.06553355058034262]},{"name":"bowl","coordinates":[0.20304737091064454,0.7925385157267253,0.08688992394341363,0.07434236208597819]},{"name":"bowl","coordinates":[0.39702457851833767,0.22972373962402343,0.07627053790622287,0.05277707576751709]},{"name":"cup","coordinates":[0.4502799140082465,0.3405927022298177,0.01880266136593289,0.05257567564646403]},{"name":"cup","coordinates":[0.43428823682996964,0.338709290822347,0.018941632906595864,0.05080856482187907]},{"name":"cup","coordinates":[0.41247100830078126,0.3367223103841146,0.018343085712856717,0.05017462174097697]},{"name":"cup","coordinates":[0.4667213863796658,0.45722570419311526,0.027982891930474176,0.03274595340092977]}]}
