{"src":"https://a0.muscache.com/im/pictures/d8f5833d-3052-430d-8757-c117025611c3.jpg?aki_policy=xx_large","name":"Beautiful family house near beach &amp; city center.","listingId":8374175,"photoId":"1360-7","tags":[{"name":"refrigerator","coordinates":[0.6490020751953125,0.669024658203125,0.12644073963165284,0.540826161702474]},{"name":"vase","coordinates":[0.7784607410430908,0.41078802744547527,0.06346716880798339,0.06462117830912271]},{"name":"bowl","coordinates":[0.5072198390960694,0.38248980840047203,0.059426283836364745,0.030045467615127563]},{"name":"bottle","coordinates":[0.795108413696289,0.5121721585591634,0.017325685918331148,0.06075153350830078]},{"name":"bottle","coordinates":[0.77322998046875,0.520225715637207,0.018364161252975464,0.049583299954732256]}]}
