{"src":"https://a0.muscache.com/im/pictures/106587349/529d6d62_original.jpg?aki_policy=xx_large","name":"Beautiful family house near beach &amp; city center.","listingId":8374175,"photoId":"1360-1","tags":[{"name":"diningtable","coordinates":[0.5613202559262004,0.8891150792439778,0.8302739500814055,0.1916430950164795]},{"name":"sofa","coordinates":[0.6653468486495189,0.5050417264302571,0.5326899265983427,0.22097427050272625]},{"name":"chair","coordinates":[0.675945893045903,0.7414751688639323,0.30452046016141376,0.24947884877522786]},{"name":"pottedplant","coordinates":[0.10976132263848051,0.8374953587849935,0.2129062397483719,0.3347968101501465]},{"name":"chair","coordinates":[0.3149678184307567,0.7044533411661784,0.23907629698283195,0.2610347588857015]},{"name":"chair","coordinates":[0.9465873089400272,0.7748957951863606,0.10800606355325987,0.34732176462809244]},{"name":"pottedplant","coordinates":[0.619206548664099,0.5714001337687175,0.08387732617035625,0.06702162424723307]}]}
