{"src":"https://a0.muscache.com/im/pictures/14153591/532e3940_original.jpg?aki_policy=xx_large","name":"Amazing Apartment on 38th floor 769","listingId":857470,"photoId":"1363-3","tags":[{"name":"sofa","coordinates":[0.18139739820220013,0.8255728403727214,0.357830206995887,0.32925389607747396]},{"name":"sofa","coordinates":[0.7240005535667653,0.9206621170043945,0.5258465610174747,0.13600951830546062]},{"name":"tvmonitor","coordinates":[0.5985773878177229,0.6297864278157552,0.09390773082510011,0.0970091978708903]},{"name":"vase","coordinates":[0.06749207329285178,0.6858277638753255,0.03306240889355333,0.13395568529764812]},{"name":"vase","coordinates":[0.9206011673866208,0.6537453333536783,0.024674242917541674,0.10568300882975261]},{"name":"book","coordinates":[0.5119176668044917,0.7825963973999024,0.06198876149807136,0.02396345535914103]},{"name":"vase","coordinates":[0.31714198715507486,0.6530284881591797,0.022909961371036625,0.04197700023651123]}]}
