{"src":"https://a0.muscache.com/im/pictures/109245002/7bbfe768_original.jpg?aki_policy=xx_large","name":"☆Fully equipped apartment in central The Hague☆","listingId":8600215,"photoId":"1364-3","tags":[{"name":"sofa","coordinates":[0.5530053880479601,0.7437869389851888,0.5635060204399956,0.49900153477986653]},{"name":"diningtable","coordinates":[0.2212066862318251,0.8538585662841797,0.39326693216959635,0.27044445673624673]},{"name":"book","coordinates":[0.8956434461805556,0.9185277938842773,0.11640178892347548,0.06795383294423421]},{"name":"book","coordinates":[0.8956507364908854,0.8855649312337239,0.10957884258694119,0.06705472469329835]},{"name":"cup","coordinates":[0.08020047081841362,0.7457513173421224,0.05143060154385037,0.12278083165486654]},{"name":"bottle","coordinates":[0.014523839950561524,0.5233327865600585,0.02260759671529134,0.10834425290425619]}]}
