{"src":"https://a0.muscache.com/im/pictures/54b93200-2dea-4cfa-86d1-f9fad921e888.jpg?aki_policy=xx_large","name":"Cherry Inn wood room Tiger leap (2 *1.5m beds)","listingId":22020102,"photoId":"1370-1","tags":[{"name":"person","coordinates":[0.6370289325714111,0.7012665430704753,0.4284517765045166,0.6096632639567058]},{"name":"diningtable","coordinates":[0.3377709865570068,0.7853037516276041,0.42332043647766116,0.4162313461303711]},{"name":"person","coordinates":[0.5209680080413819,0.6368373235066732,0.19553883075714112,0.5117199579874675]},{"name":"pottedplant","coordinates":[0.9092532157897949,0.6860714594523112,0.1896155595779419,0.47737242380777994]},{"name":"bench","coordinates":[0.7427084922790528,0.8388498306274415,0.23016805648803712,0.3304351488749186]},{"name":"person","coordinates":[0.13482869863510133,0.6267290115356445,0.1860520839691162,0.3590906461079915]},{"name":"chair","coordinates":[0.06781803369522095,0.8268599192301432,0.13452515602111817,0.3288600921630859]},{"name":"handbag","coordinates":[0.6681934356689453,0.6647041320800782,0.10284069776535035,0.14204452832539877]},{"name":"person","coordinates":[0.27725517749786377,0.5136859893798829,0.10419076681137085,0.13304628531138102]}]}
