{"src":"https://a0.muscache.com/im/pictures/111340549/7c34c7bd_original.jpg?aki_policy=xx_large","name":"4 bedroom floor in guesthouse","listingId":8795353,"photoId":"1371-2","tags":[{"name":"chair","coordinates":[0.2412263553452376,0.8228048960367839,0.1900171169893372,0.2870838165283203]},{"name":"chair","coordinates":[0.48161929874804554,0.8207956314086914,0.16694218023855542,0.30942055384318035]},{"name":"diningtable","coordinates":[0.35470405032520413,0.698536745707194,0.2887551186397889,0.11315278212229411]},{"name":"chair","coordinates":[0.16297522379840057,0.7755643208821614,0.08979495156548602,0.23229061762491862]},{"name":"chair","coordinates":[0.5078647128404057,0.6783445994059245,0.08806753788166696,0.07592480977376302]},{"name":"pottedplant","coordinates":[0.30120170969694665,0.5916069666544597,0.041771009284808785,0.06411124070485433]},{"name":"cup","coordinates":[0.299930744820622,0.6614075978597005,0.02463240421340232,0.04246748685836792]}]}
