{"src":"https://a0.muscache.com/im/pictures/8baef3ac-9a1b-4c33-9fbf-3f073e7edda7.jpg?aki_policy=xx_large","name":"Room in apart. by the Agneta park","listingId":8836721,"photoId":"1373-12","tags":[{"name":"diningtable","coordinates":[0.28909451961517335,0.7375905354817708,0.5283195018768311,0.49733734130859375]},{"name":"chair","coordinates":[0.06752294898033143,0.5590023676554362,0.14735989570617675,0.3883228619893392]},{"name":"wine-glass","coordinates":[0.22874114513397217,0.6987848281860352,0.05385228395462036,0.1695568084716797]},{"name":"vase","coordinates":[0.307407808303833,0.5640965143839518,0.05596768856048584,0.11878413359324137]},{"name":"chair","coordinates":[0.5445468902587891,0.6732399622599284,0.03668195605278015,0.1727774779001872]},{"name":"wine-glass","coordinates":[0.3822009801864624,0.6036106745402018,0.04362230896949768,0.1385424296061198]}]}
