{"src":"https://a0.muscache.com/im/pictures/96464dbc-5b33-4517-a328-67c57b1f1592.jpg?aki_policy=xx_large","name":"Room in apart. by the Agneta park","listingId":8836721,"photoId":"1373-3","tags":[{"name":"sink","coordinates":[1.4678349494934082,0.7939992268880208,0.3636492093404134,0.3508174260457357]},{"name":"oven","coordinates":[0.3990965684254964,0.2547993342081706,0.26275773843129474,0.43989156087239584]},{"name":"diningtable","coordinates":[1.0656484762827556,0.5257526079813639,0.4052528142929077,0.2766525904337565]},{"name":"chair","coordinates":[1.3236656188964844,0.5708320617675782,0.45358065764109295,0.21139659881591796]},{"name":"chair","coordinates":[0.9206169446309408,0.48325827916463215,0.18312819798787436,0.27486352920532225]},{"name":"vase","coordinates":[1.0823981761932373,0.3640673001607259,0.07588570813337962,0.07624254226684571]}]}
