{"src":"https://a0.muscache.com/im/pictures/42a9cce1-fa18-47f9-9366-a8cee3169c9e.jpg?aki_policy=xx_large","name":"Casa  Giusy","listingId":22042640,"photoId":"1378-4","tags":[{"name":"chair","coordinates":[0.017074980559172448,0.5820061683654786,0.5277477123119213,0.4329292933146159]},{"name":"diningtable","coordinates":[0.5059111842402706,0.5783998330434164,0.47203089396158854,0.4187197685241699]},{"name":"chair","coordinates":[0.2273506553084762,0.3861502806345622,0.07934856414794922,0.09172163009643555]},{"name":"tvmonitor","coordinates":[0.40252243324562353,0.3201994876066844,0.13570005628797743,0.046583497524261476]},{"name":"vase","coordinates":[0.3412066759886565,0.3346725265185038,0.03220711107607241,0.03693578243255615]}]}
