{"src":"https://a0.muscache.com/im/pictures/42a9cce1-fa18-47f9-9366-a8cee3169c9e.jpg?aki_policy=xx_large","name":"Casa  Giusy","listingId":22042640,"photoId":"1378-4","tags":[{"name":"chair","coordinates":[0.2809488367151331,0.7984708150227865,0.5277477123119213,0.4329292933146159]},{"name":"diningtable","coordinates":[0.7419266312210648,0.7877597173055013,0.47203089396158854,0.4187197685241699]},{"name":"chair","coordinates":[0.2670249373824508,0.43201109568277996,0.07934856414794922,0.09172163009643555]},{"name":"tvmonitor","coordinates":[0.47037246138961225,0.3434912363688151,0.13570005628797743,0.046583497524261476]},{"name":"vase","coordinates":[0.3573102315266927,0.3531404177347819,0.03220711107607241,0.03693578243255615]}]}
