{"src":"https://a0.muscache.com/im/pictures/33885022-651e-4ee3-ba0a-008fa2327f9f.jpg?aki_policy=xx_large","name":"Lotus Homes Room no. 203 vasant kunj new delhi","listingId":22053966,"photoId":"1380-3","tags":[{"name":"sofa","coordinates":[0.7292676744070046,0.604710578918457,0.2616214712433222,0.3834162394205729]},{"name":"chair","coordinates":[0.5310787707256558,0.5729011456171672,0.18053274572185546,0.18643660545349122]},{"name":"sofa","coordinates":[0.5310787707256558,0.5729011456171672,0.18053274572185546,0.18643660545349122]},{"name":"tvmonitor","coordinates":[0.1496535639865602,0.4442450046539307,0.13030631547176316,0.17409270604451496]},{"name":"pottedplant","coordinates":[0.7270607752796675,0.5512848973274231,0.10341318221950464,0.11652212937672933]},{"name":"pottedplant","coordinates":[0.31390862004304615,0.6911520838737487,0.07600747983931169,0.12037794589996338]},{"name":"book","coordinates":[0.6181625726738268,0.7646614521741867,0.042376477822733884,0.02188317577044169]}]}
