{"src":"https://a0.muscache.com/im/pictures/957488a8-7d83-4cff-aed4-0819a0a259c6.jpg?aki_policy=xx_large","name":"Complete house for rent (9p) (12 w sofa+airbed)","listingId":8980948,"photoId":"1380-4","tags":[{"name":"diningtable","coordinates":[0.4307188245985243,0.7498258590698242,0.3116023593478733,0.43065595626831055]},{"name":"chair","coordinates":[0.4923598395453559,0.7104789098103841,0.12635645336574977,0.42550923029581705]},{"name":"pottedplant","coordinates":[0.12197950151231554,0.5656046549479167,0.14082395765516492,0.36150617599487306]},{"name":"chair","coordinates":[0.552677493625217,0.7181086222330729,0.1271216286553277,0.3998480161031087]},{"name":"vase","coordinates":[0.12209480073716905,0.7063963572184245,0.05684045155843099,0.07542784214019775]}]}
