{"src":"https://a0.muscache.com/im/pictures/a7adc22f-b380-48a0-ac4f-968e284b8a53.jpg?aki_policy=xx_large","name":"Апартаменты на Набережной Кубани","listingId":22057986,"photoId":"1381-6","tags":[{"name":"sofa","coordinates":[0.7937426884969075,0.6002089341481527,0.19988509284125433,0.40091396967569987]},{"name":"refrigerator","coordinates":[0.01081301901075575,0.2703280448913575,0.11350340313381618,0.646348508199056]},{"name":"chair","coordinates":[0.2272174729241265,0.6781188646952311,0.10756473541259766,0.3145205815633138]},{"name":"tvmonitor","coordinates":[0.4250424279106988,0.3736575206120809,0.12418000962999132,0.2649567127227783]},{"name":"oven","coordinates":[0.1736899322933621,0.6330103238423666,0.08449235492282443,0.16942017873128254]},{"name":"pottedplant","coordinates":[0.8059238089455498,0.5234333038330079,0.05004745589362251,0.15721549987792968]},{"name":"microwave","coordinates":[0.1003960132598877,0.5616361459096272,0.054379007551405165,0.06470874150594076]},{"name":"clock","coordinates":[0.4732246319452922,0.22611941496531168,0.02800599733988444,0.09576767285664876]}]}
