{"src":"https://a0.muscache.com/im/pictures/2504fe22-8e37-4f2e-ad41-c49ccec5ad70.jpg?aki_policy=xx_large","name":"Beach &amp; patiohouse with parking","listingId":8990359,"photoId":"1381-6","tags":[{"name":"sofa","coordinates":[0.8594017028808594,0.7365643183390299,0.28174215952555337,0.39796040852864584]},{"name":"bench","coordinates":[0.8594017028808594,0.7365643183390299,0.28174215952555337,0.39796040852864584]},{"name":"chair","coordinates":[0.36216612921820746,0.7335471471150716,0.2760597440931532,0.2395734945933024]},{"name":"pottedplant","coordinates":[0.6991097344292535,0.5975598017374675,0.06899474461873373,0.15191397666931153]},{"name":"pottedplant","coordinates":[0.6441989474826388,0.5913350423177083,0.05663561291164822,0.12478036085764567]},{"name":"pottedplant","coordinates":[0.6954447428385416,0.6248561859130859,0.0435964134004381,0.08450884819030761]}]}
