{"src":"https://a0.muscache.com/im/pictures/a7adc22f-b380-48a0-ac4f-968e284b8a53.jpg?aki_policy=xx_large","name":"Апартаменты на Набережной Кубани","listingId":22057986,"photoId":"1381-6","tags":[{"name":"sofa","coordinates":[0.8936852349175347,0.8006659189860026,0.19988509284125433,0.40091396967569987]},{"name":"refrigerator","coordinates":[0.06756472057766384,0.5935022989908855,0.11350340313381618,0.646348508199056]},{"name":"chair","coordinates":[0.2809998406304253,0.835379155476888,0.10756473541259766,0.3145205815633138]},{"name":"tvmonitor","coordinates":[0.48713243272569445,0.5061358769734701,0.12418000962999132,0.2649567127227783]},{"name":"oven","coordinates":[0.2159361097547743,0.7177204132080078,0.08449235492282443,0.16942017873128254]},{"name":"pottedplant","coordinates":[0.8309475368923611,0.6020410537719727,0.05004745589362251,0.15721549987792968]},{"name":"microwave","coordinates":[0.1275855170355903,0.5939905166625976,0.054379007551405165,0.06470874150594076]},{"name":"clock","coordinates":[0.4872276306152344,0.27400325139363607,0.02800599733988444,0.09576767285664876]}]}
