{"src":"https://a0.muscache.com/im/pictures/60dd28f3-fcd0-466b-894c-fe280932879f.jpg?aki_policy=xx_large","name":"Апартаменты на Набережной Кубани","listingId":22057986,"photoId":"1381-2","tags":[{"name":"refrigerator","coordinates":[0.00003241433037651231,0.0635048548380534,0.285567135281033,0.9087748845418294]},{"name":"oven","coordinates":[0.41227897538079156,0.6518583774566651,0.13413582907782662,0.3261553764343262]},{"name":"microwave","coordinates":[0.2719147205352783,0.5647865215937296,0.09041772418551974,0.12666436831156414]},{"name":"bowl","coordinates":[0.8663826041751437,0.7353241185347239,0.09642773734198676,0.06111776431401571]},{"name":"bowl","coordinates":[0.7364388889736599,0.7982703884442648,0.06003153059217665,0.05390795866648356]},{"name":"bowl","coordinates":[0.858548100789388,0.8371830503145854,0.048527103000217016,0.03996711572011312]},{"name":"bowl","coordinates":[0.8178490969869826,0.755522080262502,0.036822252803378634,0.0413738489151001]},{"name":"bottle","coordinates":[0.5005291879177093,0.4902713179588317,0.015470961729685465,0.04782485167185466]},{"name":"bottle","coordinates":[0.4886830064985487,0.4922744452953339,0.012947199079725477,0.049147284030914305]}]}
