{"src":"https://a0.muscache.com/im/pictures/5cb30aff-d028-43f2-873c-4b0688a6772a.jpg?aki_policy=xx_large","name":"Beach &amp; patiohouse with parking","listingId":8990359,"photoId":"1381-2","tags":[{"name":"tvmonitor","coordinates":[0.10400630103217232,0.7685598373413086,0.20454082489013672,0.4313769022623698]},{"name":"chair","coordinates":[0.8522370232476129,0.6341696421305338,0.13790578842163087,0.2958132108052572]},{"name":"chair","coordinates":[0.4348856184217665,0.5895000457763672,0.21081600189208985,0.1758488655090332]},{"name":"pottedplant","coordinates":[0.5719770219590928,0.7968977610270183,0.2789986928304036,0.1107163111368815]},{"name":"pottedplant","coordinates":[0.9513565063476562,0.8305889765421549,0.09833148320515951,0.24563252131144206]},{"name":"bench","coordinates":[0.24852458106146919,0.6898230870564779,0.09786755243937174,0.17329991658528646]},{"name":"pottedplant","coordinates":[0.6666879442003039,0.5356025695800781,0.04969078169928657,0.09451144536336263]}]}
