{"src":"https://a0.muscache.com/im/pictures/7c682e5d-cd89-4c16-8c13-14d7d0d479f4.jpg?aki_policy=xx_large","name":"휴휴당(REST GUEST HOUSE)","listingId":22070958,"photoId":"1384-8","tags":[{"name":"sofa","coordinates":[0.24700259698439672,0.6278772989908854,0.37326510007220726,0.2716138521830241]},{"name":"sofa","coordinates":[0.281968149234223,0.7382399876912434,0.32794174607881993,0.3014789581298828]},{"name":"pottedplant","coordinates":[0.42893539757427035,0.5068733851114909,0.0780275462815296,0.12557789484659831]},{"name":"chair","coordinates":[0.8542057167249392,0.5550635655721029,0.044754399451387684,0.13589830398559571]},{"name":"chair","coordinates":[0.7754208244657749,0.5464380900065104,0.03993882264752948,0.1187541643778483]},{"name":"vase","coordinates":[0.4174267289703136,0.545065180460612,0.03726957107766624,0.08544104894002279]},{"name":"vase","coordinates":[0.5910697974124827,0.5404826482137044,0.016781350322031496,0.04098278284072876]}]}
