{"src":"https://a0.muscache.com/im/pictures/f3c9ec50-2168-4862-9e7d-79f1b2fbf16c.jpg?aki_policy=xx_large","name":"휴휴당(REST GUEST HOUSE)","listingId":22070958,"photoId":"1384-7","tags":[{"name":"sofa","coordinates":[0.4967728138301338,0.6930519104003906,0.5319528586339255,0.3576926867167155]},{"name":"sofa","coordinates":[0.1277400501243268,0.7524077097574869,0.25164109919947664,0.43699951171875]},{"name":"diningtable","coordinates":[0.8185761155479065,0.8432767232259114,0.26968186559405405,0.30410973230997723]},{"name":"pottedplant","coordinates":[0.8255320026114055,0.5354098002115886,0.14573815765274822,0.15463770230611165]},{"name":"pottedplant","coordinates":[0.04803905791918216,0.4872402826944987,0.09366845720090992,0.21231942176818847]},{"name":"pottedplant","coordinates":[0.20333603573309372,0.4042308807373047,0.09054358656659899,0.2008864720662435]},{"name":"chair","coordinates":[0.7554213130863446,0.6241035461425781,0.10623365114595096,0.15119393666585287]},{"name":"vase","coordinates":[0.20410514656581177,0.4560258865356445,0.07899282639684406,0.10454084078470866]},{"name":"remote","coordinates":[0.8898291253148888,0.7080748240152995,0.052377447641252066,0.028635329008102416]}]}
