{"src":"https://a0.muscache.com/im/pictures/40dea836-aa73-46ac-9fca-c2319c2b14a3.jpg?aki_policy=xx_large","name":"휴휴당(REST GUEST HOUSE)","listingId":22070958,"photoId":"1384-12","tags":[{"name":"tvmonitor","coordinates":[0.6265628011463581,0.34830473264058437,0.3061527254848202,0.3049588839213053]},{"name":"diningtable","coordinates":[0.18403328583421102,0.5533450762430827,0.07218637260983105,0.14495004018147786]},{"name":"chair","coordinates":[0.13625492098598202,0.5459157387415567,0.06160101449845813,0.15853409767150878]},{"name":"chair","coordinates":[0.23567411914478167,0.5534565607706706,0.0386034188128081,0.13646163940429687]},{"name":"wine-glass","coordinates":[0.8168507099482979,0.6292320013046264,0.028460549678630178,0.11527803738911947]},{"name":"clock","coordinates":[0.41530499382098574,0.34478496909141537,0.02000351959504213,0.04668157498041789]}]}
