{"src":"https://a0.muscache.com/im/pictures/f3c9ec50-2168-4862-9e7d-79f1b2fbf16c.jpg?aki_policy=xx_large","name":"휴휴당(REST GUEST HOUSE)","listingId":22070958,"photoId":"1384-7","tags":[{"name":"sofa","coordinates":[0.23079638451317103,0.5142055670420329,0.5319528586339255,0.3576926867167155]},{"name":"sofa","coordinates":[0.0019195005245884744,0.533907953898112,0.25164109919947664,0.43699951171875]},{"name":"diningtable","coordinates":[0.6837351827508795,0.6912218570709228,0.26968186559405405,0.30410973230997723]},{"name":"pottedplant","coordinates":[0.7526629237850313,0.45809094905853276,0.14573815765274822,0.15463770230611165]},{"name":"pottedplant","coordinates":[0.001204829318727195,0.38108057181040444,0.09366845720090992,0.21231942176818847]},{"name":"pottedplant","coordinates":[0.15806424244979422,0.30378764470418296,0.09054358656659899,0.2008864720662435]},{"name":"chair","coordinates":[0.7023044875133692,0.5485065778096517,0.10623365114595096,0.15119393666585287]},{"name":"vase","coordinates":[0.16460873336738974,0.40375546614329016,0.07899282639684406,0.10454084078470866]},{"name":"remote","coordinates":[0.8636404014942628,0.6937571595112483,0.052377447641252066,0.028635329008102416]}]}
