{"src":"https://a0.muscache.com/im/pictures/d38bb0eb-382e-4bae-982e-9eb804b0bba8.jpg?aki_policy=xx_large","name":"휴휴당(REST GUEST HOUSE)","listingId":22070958,"photoId":"1384-5","tags":[{"name":"sofa","coordinates":[0.858911149778492,0.7488112767537435,0.2873649040471356,0.42836694717407225]},{"name":"chair","coordinates":[0.6034168405115314,0.7991341908772787,0.2639133646887487,0.4047557512919108]},{"name":"tvmonitor","coordinates":[0.2731195148947837,0.4852754275004069,0.16433071112616182,0.16043515205383302]},{"name":"chair","coordinates":[0.6835531164491401,0.5683389663696289,0.10495023747299013,0.10455495516459147]},{"name":"pottedplant","coordinates":[0.7650216893241835,0.5176031748453777,0.07092659998635935,0.09119867483774821]},{"name":"vase","coordinates":[0.8610654914437109,0.46168572107950845,0.06372857640566637,0.09325091044108073]}]}
