{"src":"https://a0.muscache.com/im/pictures/1898076c-77e8-4419-942f-93f607c7e5db.jpg?aki_policy=xx_large","name":"휴휴당(REST GUEST HOUSE)","listingId":22070958,"photoId":"1384-16","tags":[{"name":"diningtable","coordinates":[0.3289070686091144,0.8101801554361979,0.3064497787973962,0.37589686711629233]},{"name":"microwave","coordinates":[0.7842316882655056,0.37739375432332356,0.33677214197685024,0.25850691795349123]},{"name":"chair","coordinates":[0.19835401459482496,0.8001530329386394,0.2016300204066952,0.42458585103352864]},{"name":"chair","coordinates":[0.4731182763773671,0.80301513671875,0.20159091379511596,0.3715418815612793]},{"name":"chair","coordinates":[0.5691550800251911,0.7710118611653646,0.04946453526585031,0.4018811543782552]},{"name":"chair","coordinates":[0.45505420295126825,0.6087866465250651,0.08796620319252464,0.08966118494669596]},{"name":"bowl","coordinates":[0.35354156176028273,0.6594789505004883,0.08655237936161722,0.051391351222991946]},{"name":"clock","coordinates":[0.45522471117095203,0.3186858495076497,0.033197491760465984,0.08210393587748209]}]}
