{"src":"https://a0.muscache.com/im/pictures/7ae5699b-e8b2-42d6-85da-0e1f05bf86b2.jpg?aki_policy=xx_large","name":"휴휴당(REST GUEST HOUSE)","listingId":22070958,"photoId":"1384-11","tags":[{"name":"chair","coordinates":[0.009909867743305892,0.600964085261027,0.19874276909420605,0.4059295972188314]},{"name":"diningtable","coordinates":[0.17971280053558242,0.6692865212758382,0.23682098706784224,0.31875956853230797]},{"name":"pottedplant","coordinates":[0.0011750805121150676,0.4759536107381185,0.13691030665351916,0.1928436279296875]},{"name":"chair","coordinates":[0.593713395872242,0.5199580033620199,0.06804245026928422,0.14471610387166342]},{"name":"chair","coordinates":[0.5494951429758079,0.5095027128855387,0.037650759804986104,0.14222288131713867]},{"name":"clock","coordinates":[0.831235397847847,0.28029131293296816,0.027084294916276223,0.05807092587153117]}]}
