{"src":"https://a0.muscache.com/im/pictures/20e0bfcf-c064-4b2e-a694-dad5588741dc.jpg?aki_policy=xx_large","name":"휴휴당(REST GUEST HOUSE)","listingId":22070958,"photoId":"1384-5","tags":[{"name":"chair","coordinates":[0.6871859276766907,0.5378994146982828,0.2629737880513269,0.4410497983296712]},{"name":"chair","coordinates":[0.8875574054943347,0.5359802722930908,0.10891974941569124,0.45098816553751625]},{"name":"pottedplant","coordinates":[0.7789604552840921,0.4098842302958171,0.10536420767799362,0.14627768198649088]},{"name":"tvmonitor","coordinates":[0.3995315572965302,0.39312026103337605,0.11749423453176576,0.12879408995310465]},{"name":"clock","coordinates":[0.00009434947212012476,0.2255055149396261,0.04261308448690768,0.07865472634633382]},{"name":"vase","coordinates":[0.20849818003682977,0.4285214106241862,0.015859199614057615,0.0492038091023763]}]}
