{"src":"https://a0.muscache.com/im/pictures/7ae5699b-e8b2-42d6-85da-0e1f05bf86b2.jpg?aki_policy=xx_large","name":"휴휴당(REST GUEST HOUSE)","listingId":22070958,"photoId":"1384-11","tags":[{"name":"chair","coordinates":[0.10928125229040891,0.8039288838704427,0.19874276909420605,0.4059295972188314]},{"name":"diningtable","coordinates":[0.29812329406950355,0.8286663055419922,0.23682098706784224,0.31875956853230797]},{"name":"pottedplant","coordinates":[0.06963023383887465,0.5723754247029622,0.13691030665351916,0.1928436279296875]},{"name":"chair","coordinates":[0.6277346210068842,0.5923160552978516,0.06804245026928422,0.14471610387166342]},{"name":"chair","coordinates":[0.5683205228783009,0.5806141535441081,0.037650759804986104,0.14222288131713867]},{"name":"clock","coordinates":[0.844777545305985,0.30932677586873375,0.027084294916276223,0.05807092587153117]}]}
