{"src":"https://a0.muscache.com/im/pictures/81f0b052-d196-4cae-bf9e-3e1a17920c30.jpg?aki_policy=xx_large","name":"BR for Solo Traveler w/ Parking near Sheridan","listingId":22083134,"photoId":"1387-2","tags":[{"name":"diningtable","coordinates":[0.45489908854166666,0.7359013239542643,0.5813894483778211,0.2770199457804362]},{"name":"chair","coordinates":[0.8018903096516927,0.7650606791178386,0.18031656477186414,0.4125722249348958]},{"name":"pottedplant","coordinates":[0.46804851955837673,0.4257679303487142,0.1658224211798774,0.4448337237040202]},{"name":"chair","coordinates":[0.3885987599690755,0.576376469930013,0.10463645723130968,0.10370115439097087]},{"name":"chair","coordinates":[0.5256259494357639,0.5774853388468425,0.10474141438802083,0.09845273494720459]},{"name":"vase","coordinates":[0.45884564717610676,0.5796316146850586,0.05216286447313097,0.12570084730784098]}]}
