{"src":"https://a0.muscache.com/im/pictures/81f0b052-d196-4cae-bf9e-3e1a17920c30.jpg?aki_policy=xx_large","name":"BR for Solo Traveler w/ Parking near Sheridan","listingId":22083134,"photoId":"1387-2","tags":[{"name":"diningtable","coordinates":[0.1642043643527561,0.5973913510640463,0.5813894483778211,0.2770199457804362]},{"name":"chair","coordinates":[0.7117320272657607,0.5587745666503907,0.18031656477186414,0.4125722249348958]},{"name":"pottedplant","coordinates":[0.385137308968438,0.2033510684967041,0.1658224211798774,0.4448337237040202]},{"name":"chair","coordinates":[0.3362805313534207,0.5245258927345275,0.10463645723130968,0.10370115439097087]},{"name":"chair","coordinates":[0.47325524224175347,0.5282589713732402,0.10474141438802083,0.09845273494720459]},{"name":"vase","coordinates":[0.43276421493954126,0.5167811910311382,0.05216286447313097,0.12570084730784098]}]}
