{"src":"https://a0.muscache.com/im/pictures/5209c634-f544-4164-bb15-dd7c4dc46e01.jpg?aki_policy=xx_large","name":"Cozy private room near BWI","listingId":22104981,"photoId":"1393-1","tags":[{"name":"oven","coordinates":[0.6223172982533772,0.4916469891866048,0.3356832186381022,0.4641146977742513]},{"name":"chair","coordinates":[0.608682370185852,0.8263169447580974,0.1359806219736735,0.16998268763224283]},{"name":"sink","coordinates":[0.004286392529805519,0.6236367781956991,0.24862519900004068,0.08631396293640137]},{"name":"toaster","coordinates":[0.5823091427485148,0.507452929019928,0.1276144822438558,0.07455985546112061]},{"name":"microwave","coordinates":[0.9433782974878947,0.3608520825703939,0.05882840156555176,0.14749215443929037]},{"name":"bottle","coordinates":[0.16903730034828185,0.5438583652178446,0.028032163778940838,0.08736935456593832]},{"name":"bowl","coordinates":[0.22151379783948266,0.5852146148681641,0.060228057702382404,0.03016802469889323]},{"name":"cup","coordinates":[0.07549825708071391,0.6117635240157445,0.03616766532262166,0.03191385467847188]},{"name":"bottle","coordinates":[0.3783482690652212,0.5264493465423584,0.023083849747975668,0.04817463556925456]}]}
