{"src":"https://a0.muscache.com/im/pictures/ba021e97-d357-4339-8f5f-7e093eaa4c5b.jpg?aki_policy=xx_large","name":"Rustige kamer in idyllische herberg","listingId":9251351,"photoId":"1393-1","tags":[{"name":"pottedplant","coordinates":[0.6818601053845401,0.5184337615966796,0.16196608244958274,0.5364586512247721]},{"name":"chair","coordinates":[0.2429247393230072,0.824250602722168,0.18792387175792116,0.2870924949645996]},{"name":"chair","coordinates":[0.47996994251999303,0.823954709370931,0.16841955277783816,0.3047869364420573]},{"name":"diningtable","coordinates":[0.35389195894498654,0.6998611450195312,0.28929144550265123,0.11117893854777018]},{"name":"chair","coordinates":[0.16359481493189867,0.7760754267374674,0.08775600173377195,0.23308424949645995]},{"name":"chair","coordinates":[0.5078896216125913,0.6783068339029948,0.08904754468893972,0.07754950523376465]},{"name":"pottedplant","coordinates":[0.30163395951951494,0.592096455891927,0.041899425098063714,0.0656779170036316]},{"name":"cup","coordinates":[0.3000691165844489,0.6618682861328125,0.025105159372215642,0.04144341945648193]}]}
