{"src":"https://a0.muscache.com/im/pictures/5209c634-f544-4164-bb15-dd7c4dc46e01.jpg?aki_policy=xx_large","name":"Cozy private room near BWI","listingId":22104981,"photoId":"1393-1","tags":[{"name":"oven","coordinates":[0.7901589075724283,0.7237043380737305,0.3356832186381022,0.4641146977742513]},{"name":"chair","coordinates":[0.6766726811726888,0.9113082885742188,0.1359806219736735,0.16998268763224283]},{"name":"sink","coordinates":[0.12859899202982586,0.6667937596638998,0.24862519900004068,0.08631396293640137]},{"name":"toaster","coordinates":[0.6461163838704427,0.5447328567504883,0.1276144822438558,0.07455985546112061]},{"name":"microwave","coordinates":[0.9727924982706706,0.4345981597900391,0.05882840156555176,0.14749215443929037]},{"name":"bottle","coordinates":[0.18305338223775228,0.5875430425008138,0.028032163778940838,0.08736935456593832]},{"name":"bowl","coordinates":[0.25162782669067385,0.6002986272176106,0.060228057702382404,0.03016802469889323]},{"name":"cup","coordinates":[0.09358208974202474,0.6277204513549804,0.03616766532262166,0.03191385467847188]},{"name":"bottle","coordinates":[0.389890193939209,0.5505366643269857,0.023083849747975668,0.04817463556925456]}]}
