{"src":"https://a0.muscache.com/im/pictures/13735173/d1d2c289_original.jpg?aki_policy=xx_large","name":"Spacious house close to the beach","listingId":929702,"photoId":"1395-1","tags":[{"name":"sofa","coordinates":[0.6537569681803386,0.6580716451009114,0.27089390224880644,0.3338321685791016]},{"name":"sofa","coordinates":[0.07438318464491102,0.8151930491129558,0.15026810963948567,0.3507151285807292]},{"name":"tvmonitor","coordinates":[0.9802103678385417,0.6454744338989258,0.039515611860487194,0.4572382609049479]},{"name":"chair","coordinates":[0.46837810940212676,0.5480510711669921,0.040201361974080405,0.12000299294789632]},{"name":"clock","coordinates":[0.217007933722602,0.11710065205891927,0.05271730422973633,0.08225191434224446]}]}
