{"src":"https://a0.muscache.com/im/pictures/13735292/606f5748_original.jpg?aki_policy=xx_large","name":"Spacious house close to the beach","listingId":929702,"photoId":"1395-3","tags":[{"name":"chair","coordinates":[0.47136667039659286,0.9208969751993815,0.13226772944132487,0.15431029001871746]},{"name":"tvmonitor","coordinates":[0.964913092719184,0.4619804700215658,0.07058891720241971,0.2367539882659912]},{"name":"microwave","coordinates":[0.0334287510977851,0.4501309076944987,0.06651738484700521,0.22092947959899903]},{"name":"sink","coordinates":[0.6438528696695963,0.7743501663208008,0.14943380355834962,0.06000109910964966]},{"name":"book","coordinates":[0.413108147515191,0.5974450429280599,0.009293150901794434,0.04369015296300252]},{"name":"book","coordinates":[0.39504436916775176,0.5953387578328451,0.008388015296724107,0.04603676398595174]},{"name":"book","coordinates":[0.4331646389431424,0.5970641454060872,0.007351407077577379,0.04933734734853109]}]}
