{"src":"https://a0.muscache.com/im/pictures/473e65a2-87eb-4f24-b6ea-191be06e2d10.jpg?aki_policy=xx_large","name":"Spacious apartment, 2nd &amp; 3rd floor","listingId":9297548,"photoId":"1396-27","tags":[{"name":"chair","coordinates":[0.39513871669769285,0.6740638732910156,0.7978099822998047,0.5215468406677246]},{"name":"diningtable","coordinates":[1.5140646934509276,0.7691755294799805,0.8624908447265625,0.4504514694213867]},{"name":"sofa","coordinates":[1.6305061340332032,0.6076910018920898,0.7116650581359864,0.4883768081665039]},{"name":"pottedplant","coordinates":[1.278231143951416,0.266102933883667,0.3291815757751465,0.3071772893269857]},{"name":"tvmonitor","coordinates":[1.0200072288513184,0.37498785654703776,0.23514192104339598,0.1449973742167155]},{"name":"vase","coordinates":[1.5679856300354005,0.6163758595784505,0.08368349075317383,0.06808348496754964]}]}
