{"src":"https://a0.muscache.com/im/pictures/a07cbdf1-aa24-4ef2-a2fe-73dd212be8b8.jpg?aki_policy=xx_large","name":"Spacious apartment, 2nd &amp; 3rd floor","listingId":9297548,"photoId":"1396-9","tags":[{"name":"sofa","coordinates":[0.2688837687174479,0.768591562906901,0.5676586574978298,0.46130510965983074]},{"name":"diningtable","coordinates":[0.587494617038303,0.8571043014526367,0.3803018781873915,0.2960347811381022]},{"name":"chair","coordinates":[0.9388316684299045,0.6354941050211589,0.07668572001987034,0.17057015101114908]},{"name":"tvmonitor","coordinates":[0.7786281161838108,0.5608633677164714,0.08992516199747722,0.1227199157079061]},{"name":"pottedplant","coordinates":[0.6511383480495877,0.5500052134195964,0.046363517973158096,0.09679633776346842]},{"name":"chair","coordinates":[0.9687661912706164,0.6066176732381184,0.035616442892286514,0.124245818456014]},{"name":"vase","coordinates":[0.6253188239203559,0.7458539326985677,0.03347464667426215,0.05409750541051229]},{"name":"vase","coordinates":[0.5852899339463976,0.7433764775594075,0.02647736602359348,0.06075150966644287]},{"name":"vase","coordinates":[0.6486501057942708,0.5769448598225911,0.022437593672010633,0.04631169239679973]}]}
