{"src":"https://a0.muscache.com/im/pictures/f1d531df-593b-433b-83e5-5c9eeeed6e91.jpg?aki_policy=xx_large","name":"Serene Sleep Space: near NRG/MED CTR/Rice univ!!!!","listingId":22118356,"photoId":"1396-2","tags":[{"name":"diningtable","coordinates":[0.5550150394439697,0.7017290751139323,1.079188060760498,0.5421942392985026]},{"name":"chair","coordinates":[0.556825828552246,0.3497254053751628,0.3334906578063965,0.2742388407389323]},{"name":"chair","coordinates":[0.07643464803695679,0.5883600234985351,0.14394327402114868,0.3682392120361328]},{"name":"chair","coordinates":[1.0764892578125,0.5310559272766113,0.0965047836303711,0.3161471366882324]},{"name":"wine-glass","coordinates":[0.3321819305419922,0.6435141881306966,0.08876515030860901,0.26120600700378416]},{"name":"cup","coordinates":[0.48665385246276854,0.8915287017822265,0.10294675827026367,0.1909840742746989]},{"name":"wine-glass","coordinates":[0.48665385246276854,0.8915287017822265,0.10294675827026367,0.1909840742746989]},{"name":"cup","coordinates":[0.46771821975708006,0.7521783828735351,0.12736225128173828,0.1525209903717041]},{"name":"bottle","coordinates":[0.5696236610412597,0.41902443567911785,0.07035617232322693,0.2615614891052246]},{"name":"wine-glass","coordinates":[0.7746173858642578,0.5093860626220703,0.07557557225227356,0.23762950897216797]},{"name":"chair","coordinates":[0.037551742792129514,0.7043926239013671,0.0649949848651886,0.26997677485148114]},{"name":"fork","coordinates":[0.9875336647033691,0.7752046585083008,0.16742947101593017,0.04435628652572632]},{"name":"bottle","coordinates":[0.6611572742462158,0.6254427591959636,0.04446100890636444,0.15060537656148273]},{"name":"cup","coordinates":[0.46731128692626955,0.5081144014994303,0.05623878836631775,0.09853869279225667]}]}
