{"src":"https://a0.muscache.com/im/pictures/f370cf24-ee6f-4928-b592-95f15779cd4e.jpg?aki_policy=xx_large","name":"Serene Sleep Space: near NRG/MED CTR/Rice univ!!!!","listingId":22118356,"photoId":"1396-7","tags":[{"name":"diningtable","coordinates":[-0.026064451623520113,0.6285970052083334,1.0679516481444111,0.3570453643798828]},{"name":"wine-glass","coordinates":[0.32883364218774025,0.5549785931905111,0.17242517975716867,0.3909104029337565]},{"name":"chair","coordinates":[0.837926599518986,0.46214586893717446,0.1567378026532951,0.33380330403645836]},{"name":"cup","coordinates":[0.0872527118978465,0.834303077061971,0.26808545627570535,0.16155563990275065]},{"name":"cup","coordinates":[0.011830004965393895,0.7160921255747477,0.13190936924933214,0.21881786982218424]},{"name":"bottle","coordinates":[0.6398224027101111,0.8865853468577067,0.15313814545616158,0.10949926376342774]}]}
