{"src":"https://a0.muscache.com/im/pictures/ee3046b8-f24b-4ca8-ac2f-99e25cbca0e6.jpg?aki_policy=xx_large","name":"Spacious apartment, 2nd &amp; 3rd floor","listingId":9297548,"photoId":"1396-12","tags":[{"name":"diningtable","coordinates":[0.4098982916937934,0.8220689773559571,0.7379029168023004,0.31836328506469724]},{"name":"chair","coordinates":[0.5980177985297309,0.8796302159627278,0.2583268059624566,0.2579874356587728]},{"name":"chair","coordinates":[0.7191514756944445,0.8557011286417643,0.12655827204386394,0.2738768259684245]},{"name":"pottedplant","coordinates":[0.5673582712809245,0.6113604863484701,0.12305238511827257,0.23821889559427897]},{"name":"vase","coordinates":[0.5627568986680772,0.6684033075968424,0.036708050303988986,0.09690372943878174]}]}
