{"src":"https://a0.muscache.com/im/pictures/c70979d4-a05a-48ce-b9bc-6b7c1f4c6108.jpg?aki_policy=xx_large","name":"Spacious, central with unique view","listingId":9309979,"photoId":"1398-0","tags":[{"name":"sofa","coordinates":[0.17983921898735894,0.755948003133138,0.38862266540527346,0.43773282368977867]},{"name":"sofa","coordinates":[0.7782831827799479,0.6576101938883464,0.25520729488796656,0.29053516387939454]},{"name":"chair","coordinates":[0.7782831827799479,0.6576101938883464,0.25520729488796656,0.29053516387939454]},{"name":"pottedplant","coordinates":[0.2343282487657335,0.5379039764404296,0.047197749879625106,0.07850879033406576]},{"name":"vase","coordinates":[0.7005119747585721,0.4456715265909831,0.021629259321424697,0.07685027917226156]},{"name":"vase","coordinates":[0.4091963873969184,0.5444785435994466,0.029853336016337075,0.036541835467020674]}]}
