{"src":"https://a0.muscache.com/im/pictures/5585b24d-5d60-486c-aed3-be91a1992190.jpg?aki_policy=xx_large","name":"Spacious, central with unique view","listingId":9309979,"photoId":"1398-13","tags":[{"name":"oven","coordinates":[0.8318817414752957,0.7726470311482747,0.2387466165201483,0.4650112152099609]},{"name":"sink","coordinates":[0.5145197412415188,0.6500331242879231,0.3011349735777662,0.12069974740346273]},{"name":"pottedplant","coordinates":[0.29788193141908054,0.5450262069702149,0.12760000421342205,0.22680857976277669]},{"name":"pottedplant","coordinates":[0.556019654934325,0.49406668345133464,0.140935272662774,0.1945606549580892]},{"name":"vase","coordinates":[0.2989766353854058,0.6071848551432292,0.0774790286685994,0.08912988503774007]},{"name":"cup","coordinates":[0.6672780376054714,0.5639734903971354,0.03695368119719631,0.04468741019566854]},{"name":"cup","coordinates":[0.6383779123581028,0.5666842142740885,0.03529833619098491,0.042159016927083334]}]}
