{"src":"https://a0.muscache.com/im/pictures/57bafef2-1fda-4db5-89aa-c28e96d51515.jpg?aki_policy=xx_large","name":"комфортная квартира с 2-мя спальнями Мега-Икея","listingId":22145056,"photoId":"1399-5","tags":[{"name":"microwave","coordinates":[0.41360313627454964,0.11549342473347982,0.3219468646579319,0.19737173716227213]},{"name":"microwave","coordinates":[0.21117545233832463,0.5021758874257405,0.22934773763020833,0.1413831392923991]},{"name":"chair","coordinates":[0.8976945135328505,0.8013150930404663,0.10782786475287544,0.19466621081034344]},{"name":"sink","coordinates":[0.8153569115532769,0.5690099438031514,0.20204883151584202,0.04135989348093669]},{"name":"cup","coordinates":[0.8144600921207004,0.31113441089789073,0.04429572423299154,0.02618012229601542]},{"name":"knife","coordinates":[0.6340472088919745,0.4946241637070974,0.01578534973992242,0.032856635252634686]},{"name":"knife","coordinates":[0.6338794734742906,0.5159477204084396,0.013303200403849283,0.024405676126480102]}]}
