{"src":"https://a0.muscache.com/im/pictures/9342ffd6-5e5b-47ee-b9f8-9ab08cb1dad2.jpg?aki_policy=xx_large","name":"The Hague hotspot","listingId":9322390,"photoId":"1399-8","tags":[{"name":"diningtable","coordinates":[1.1568093781893953,0.6938407262166341,1.1160552646286936,0.5744678497314453]},{"name":"diningtable","coordinates":[1.123097563605657,0.497812016805013,1.1021459884999514,0.26362675031026206]},{"name":"chair","coordinates":[0.9876431810726088,0.7670433680216472,0.48871419144270023,0.45308618545532225]},{"name":"chair","coordinates":[1.4271906590202177,0.777060063680013,0.5053623608816097,0.4238597869873047]},{"name":"chair","coordinates":[0.10779602383009938,0.5372755050659179,0.21568521407677635,0.44413407643636066]},{"name":"sofa","coordinates":[0.10779602383009938,0.5372755050659179,0.21568521407677635,0.44413407643636066]},{"name":"pottedplant","coordinates":[0.3498145262153115,0.3354723612467448,0.4029680077061868,0.16561099688212078]},{"name":"chair","coordinates":[1.0977372188775758,0.35787073771158856,0.33352117701600165,0.12825536727905273]},{"name":"chair","coordinates":[0.7030527639908145,0.39121802647908527,0.29613916091562986,0.12821153004964192]},{"name":"bottle","coordinates":[1.0768492418351479,0.4311514854431152,0.0704087039360177,0.15198510487874348]},{"name":"vase","coordinates":[0.3768878183320373,0.3847172419230143,0.12340203933359861,0.07609736919403076]}]}
