{"src":"https://a0.muscache.com/im/pictures/57bafef2-1fda-4db5-89aa-c28e96d51515.jpg?aki_policy=xx_large","name":"комфортная квартира с 2-мя спальнями Мега-Икея","listingId":22145056,"photoId":"1399-5","tags":[{"name":"microwave","coordinates":[0.5745765686035156,0.21417929331461588,0.3219468646579319,0.19737173716227213]},{"name":"microwave","coordinates":[0.3258493211534288,0.5728674570719401,0.22934773763020833,0.1413831392923991]},{"name":"chair","coordinates":[0.9516084459092882,0.898648198445638,0.10782786475287544,0.19466621081034344]},{"name":"sink","coordinates":[0.9163813273111979,0.5896898905436198,0.20204883151584202,0.04135989348093669]},{"name":"cup","coordinates":[0.8366079542371961,0.32422447204589844,0.04429572423299154,0.02618012229601542]},{"name":"knife","coordinates":[0.6419398837619358,0.5110524813334147,0.01578534973992242,0.032856635252634686]},{"name":"knife","coordinates":[0.6405310736762153,0.5281505584716797,0.013303200403849283,0.024405676126480102]}]}
