{"src":"https://a0.muscache.com/im/pictures/b9a9ee86-0818-4d02-9a9f-a6cde3b06144.jpg?aki_policy=xx_large","name":"Authentic &amp; Cozy Dutch home","listingId":9354479,"photoId":"1400-4","tags":[{"name":"chair","coordinates":[0.13649332523345947,0.621165911356608,0.17809349298477173,0.3531806945800781]},{"name":"chair","coordinates":[0.3751869201660156,0.6367649714152018,0.17274386882781984,0.3407716433207194]},{"name":"pottedplant","coordinates":[0.6432519912719726,0.4623884201049805,0.18413193225860597,0.25484228134155273]},{"name":"chair","coordinates":[0.4873076915740967,0.5770619074503581,0.12814679145812988,0.2954278310139974]},{"name":"teddy-bear","coordinates":[0.946923828125,0.5086304982503255,0.07085826396942138,0.11157378355662027]},{"name":"book","coordinates":[0.7048804283142089,0.6841365814208984,0.038507527112960814,0.07666948636372885]}]}
