{"src":"https://a0.muscache.com/im/pictures/0e054fcc-ac6a-4c09-85d4-bbe53fffe8e4.jpg?aki_policy=xx_large","name":"Spacious;Comfort room next to Metro station &amp; DC.","listingId":22147166,"photoId":"1400-3","tags":[{"name":"oven","coordinates":[0.2438958485921224,0.833145014444987,0.4763428158230252,0.31629823048909506]},{"name":"sink","coordinates":[0.9419162326388889,0.9406729380289713,0.11913857989841037,0.11057114601135254]},{"name":"wine-glass","coordinates":[0.7396676805284288,0.29372943242390953,0.052246650060017906,0.1317330757776896]},{"name":"vase","coordinates":[0.8113335503472222,0.7842394510904948,0.04086987707349989,0.15596184730529786]},{"name":"wine-glass","coordinates":[0.6954227871365017,0.30088551839192706,0.04547165234883626,0.12927285035451253]},{"name":"vase","coordinates":[0.0723433706495497,0.8037881851196289,0.04124383926391602,0.13954521814982096]},{"name":"wine-glass","coordinates":[0.6022711435953776,0.308062744140625,0.042676070001390246,0.11210955778757731]},{"name":"wine-glass","coordinates":[0.645451651679145,0.3023433049519857,0.03880620797475179,0.1229183038075765]},{"name":"bowl","coordinates":[0.7329937405056424,0.5024504661560059,0.07974244753519694,0.04738537470499674]},{"name":"bowl","coordinates":[0.6205955081515842,0.5101914405822754,0.0997960090637207,0.037802267074584964]},{"name":"spoon","coordinates":[0.6490464952256945,0.7106656392415365,0.031195569038391113,0.11756776968638102]},{"name":"cup","coordinates":[0.5207668728298611,0.329050350189209,0.0511872132619222,0.05831067562103272]},{"name":"spoon","coordinates":[0.6239718967013889,0.6936330795288086,0.029300067159864638,0.09393436908721924]},{"name":"cup","coordinates":[0.5635223388671875,0.3303150494893392,0.040027271376715766,0.062315738201141356]},{"name":"spoon","coordinates":[0.5858108520507812,0.7671719868977864,0.02146842744615343,0.07565401395161947]},{"name":"spoon","coordinates":[0.6459747738308377,0.7769883473714193,0.021501431200239392,0.0563339630762736]}]}
