{"src":"https://a0.muscache.com/im/pictures/a9f80513-4378-4c1d-a9bc-2ba17fc0ad5d.jpg?aki_policy=xx_large","name":"Authentic &amp; Cozy Dutch home","listingId":9354479,"photoId":"1400-3","tags":[{"name":"bed","coordinates":[0.565836673312717,0.7527809143066406,1.07614017062717,0.46270697911580405]},{"name":"chair","coordinates":[1.452864244249132,0.6221508026123047,0.2612745073106554,0.24848766326904298]},{"name":"chair","coordinates":[1.1397655910915798,0.569507090250651,0.21377056969536676,0.24086737632751465]},{"name":"pottedplant","coordinates":[1.828681437174479,0.48017390569051105,0.27201658884684243,0.16570029258728028]},{"name":"chair","coordinates":[1.6289967854817708,0.5691495259602865,0.16526206334431967,0.24393731753031414]},{"name":"vase","coordinates":[1.4783203125,0.4355577150980631,0.03612242274814182,0.05665414333343506]}]}
