{"src":"https://a0.muscache.com/im/pictures/0e054fcc-ac6a-4c09-85d4-bbe53fffe8e4.jpg?aki_policy=xx_large","name":"Spacious;Comfort room next to Metro station &amp; DC.","listingId":22147166,"photoId":"1400-3","tags":[{"name":"oven","coordinates":[0.005724440680609816,0.6749958992004395,0.4763428158230252,0.31629823048909506]},{"name":"sink","coordinates":[0.8823469426896837,0.8853873650232951,0.11913857989841037,0.11057114601135254]},{"name":"wine-glass","coordinates":[0.7135443554984199,0.22786289453506473,0.052246650060017906,0.1317330757776896]},{"name":"vase","coordinates":[0.7908986118104723,0.7062585274378458,0.04086987707349989,0.15596184730529786]},{"name":"wine-glass","coordinates":[0.6726869609620836,0.2362490932146708,0.04547165234883626,0.12927285035451253]},{"name":"vase","coordinates":[0.05172145101759169,0.7340155760447185,0.04124383926391602,0.13954521814982096]},{"name":"wine-glass","coordinates":[0.5809331085946825,0.25200796524683633,0.042676070001390246,0.11210955778757731]},{"name":"wine-glass","coordinates":[0.6260485476917691,0.24088415304819744,0.03880620797475179,0.1229183038075765]},{"name":"bowl","coordinates":[0.6931225167380439,0.4787577788035075,0.07974244753519694,0.04738537470499674]},{"name":"bowl","coordinates":[0.5706975036197238,0.4912903070449829,0.0997960090637207,0.037802267074584964]},{"name":"spoon","coordinates":[0.6334487107064989,0.651881754398346,0.031195569038391113,0.11756776968638102]},{"name":"cup","coordinates":[0.4951732661989,0.2998950123786926,0.0511872132619222,0.05831067562103272]},{"name":"spoon","coordinates":[0.6093218631214565,0.646665894985199,0.029300067159864638,0.09393436908721924]},{"name":"cup","coordinates":[0.5435087031788296,0.29915718038876854,0.040027271376715766,0.062315738201141356]},{"name":"spoon","coordinates":[0.5750766383277045,0.7293449799219767,0.02146842744615343,0.07565401395161947]},{"name":"spoon","coordinates":[0.635224058230718,0.7488213658332825,0.021501431200239392,0.0563339630762736]}]}
