{"src":"https://a0.muscache.com/im/pictures/2753b32e-3c04-41fe-9fc0-64e03ab41bae.jpg?aki_policy=xx_large","name":"Lar de Irene","listingId":22151136,"photoId":"1401-2","tags":[{"name":"diningtable","coordinates":[0.015001466539170977,0.6570530891418457,0.49113006591796876,0.34804515838623046]},{"name":"chair","coordinates":[0.33326325946384006,0.6201967716217041,0.31236726972791884,0.36241903305053713]},{"name":"pottedplant","coordinates":[0.2138546731736925,0.5981971025466919,0.16947697533501518,0.13809205691019694]},{"name":"chair","coordinates":[-0.0036683930291069866,0.8180606285730998,0.0997365845574273,0.18098867734273275]},{"name":"vase","coordinates":[0.25666947894626196,0.6739490846792857,0.0886482450697157,0.05148715575536092]}]}
