{"src":"https://a0.muscache.com/im/pictures/2d6124dd-45ac-46dd-b036-22f4d5cc6a8c.jpg?aki_policy=xx_large","name":"Cozy house in Leidschendam/TheHague","listingId":9364541,"photoId":"1401-3","tags":[{"name":"refrigerator","coordinates":[0.22009246349334716,0.7685439427693684,0.20552175045013427,0.49828529357910156]},{"name":"oven","coordinates":[0.22244105339050294,0.4154905001322428,0.2131669044494629,0.31034615834554036]},{"name":"chair","coordinates":[0.9859567642211914,0.9014949162801107,0.028191712498664857,0.17663785616556804]},{"name":"bottle","coordinates":[0.8333014488220215,0.562908681233724,0.02959001958370209,0.1178013563156128]},{"name":"bottle","coordinates":[0.5251771926879882,0.5615681966145833,0.021479764580726625,0.09680041472117105]},{"name":"bottle","coordinates":[0.7444768428802491,0.545118776957194,0.025049924850463867,0.08268580436706544]}]}
