{"src":"https://a0.muscache.com/im/pictures/b5b8a7a2-7caa-429f-a350-f7ff6d502b1f.jpg?aki_policy=xx_large","name":"Lar de Irene","listingId":22151136,"photoId":"1401-3","tags":[{"name":"diningtable","coordinates":[0.2597121556599935,0.5702226797739665,0.33359353807237413,0.30999511082967124]},{"name":"chair","coordinates":[0.6148228963216146,0.5609109878540038,0.26868760850694445,0.3150670369466146]},{"name":"chair","coordinates":[0.0668285263909234,0.5278529485066732,0.24043793148464626,0.2943098704020182]},{"name":"pottedplant","coordinates":[0.43134093814426,0.4911906480789185,0.16602931552463107,0.11639533042907715]},{"name":"vase","coordinates":[0.48490672111511235,0.5605603555838267,0.06120326783921984,0.04427680571873983]}]}
