{"src":"https://a0.muscache.com/im/pictures/cc77ad2f-09bb-4cf3-b2be-6fdac949e1d0.jpg?aki_policy=xx_large","name":"Cozy house in Leidschendam/TheHague","listingId":9364541,"photoId":"1401-2","tags":[{"name":"sofa","coordinates":[0.7003112316131592,0.7679266611735026,0.4385064125061035,0.4562172253926595]},{"name":"chair","coordinates":[0.11540446281433106,0.707599957784017,0.22467927932739257,0.4117994944254557]},{"name":"diningtable","coordinates":[0.6093993186950684,0.5684842427571615,0.30147385597229004,0.24178123474121094]},{"name":"pottedplant","coordinates":[0.6281999588012696,0.32542327245076497,0.07695946097373962,0.12044586340586344]},{"name":"tvmonitor","coordinates":[0.43632068634033205,0.4062211354573568,0.07816821336746216,0.10232796669006347]},{"name":"pottedplant","coordinates":[0.5743905067443847,0.3248578707377116,0.044883325695991516,0.09418877760569254]},{"name":"vase","coordinates":[0.1048139214515686,0.2925044377644857,0.04969528913497925,0.07242410977681478]},{"name":"clock","coordinates":[0.1953219771385193,0.016361495852470397,0.07429042458534241,0.03696518341700236]},{"name":"bottle","coordinates":[0.31367878913879393,0.2621645927429199,0.022746621072292326,0.08917482693990071]},{"name":"bottle","coordinates":[0.2912014961242676,0.26213574409484863,0.02045910954475403,0.09213724931081137]}]}
