{"src":"https://a0.muscache.com/im/pictures/2753b32e-3c04-41fe-9fc0-64e03ab41bae.jpg?aki_policy=xx_large","name":"Lar de Irene","listingId":22151136,"photoId":"1401-2","tags":[{"name":"diningtable","coordinates":[0.26056649949815536,0.8310756683349609,0.49113006591796876,0.34804515838623046]},{"name":"chair","coordinates":[0.4894468943277995,0.8014062881469727,0.31236726972791884,0.36241903305053713]},{"name":"pottedplant","coordinates":[0.2985931608412001,0.6672431310017903,0.16947697533501518,0.13809205691019694]},{"name":"chair","coordinates":[0.046199899249606664,0.9085549672444662,0.0997365845574273,0.18098867734273275]},{"name":"vase","coordinates":[0.3009936014811198,0.6996926625569662,0.0886482450697157,0.05148715575536092]}]}
