{"src":"https://a0.muscache.com/im/pictures/b5b8a7a2-7caa-429f-a350-f7ff6d502b1f.jpg?aki_policy=xx_large","name":"Lar de Irene","listingId":22151136,"photoId":"1401-3","tags":[{"name":"diningtable","coordinates":[0.42650892469618057,0.7252202351888021,0.33359353807237413,0.30999511082967124]},{"name":"chair","coordinates":[0.7491667005750868,0.7184445063273112,0.26868760850694445,0.3150670369466146]},{"name":"chair","coordinates":[0.18704749213324653,0.6750078837076823,0.24043793148464626,0.2943098704020182]},{"name":"pottedplant","coordinates":[0.5143555959065755,0.549388313293457,0.16602931552463107,0.11639533042907715]},{"name":"vase","coordinates":[0.5155083550347223,0.5826987584431966,0.06120326783921984,0.04427680571873983]}]}
