{"src":"https://a0.muscache.com/im/pictures/8c2b1062-0fb5-4f3a-a7b4-ff3585f41c73.jpg?aki_policy=xx_large","name":"Apartment in design quarter","listingId":9409000,"photoId":"1403-2","tags":[{"name":"diningtable","coordinates":[0.447772216796875,0.6333942413330078,0.7220049381256104,0.20394299825032552]},{"name":"chair","coordinates":[0.31966161727905273,0.8172245661417643,0.21879875659942627,0.37933692932128904]},{"name":"chair","coordinates":[0.5089436054229737,0.8305497487386068,0.20446374416351318,0.33877588907877604]},{"name":"chair","coordinates":[0.7547327995300293,0.8209195454915365,0.19683969020843506,0.34503329594930016]},{"name":"pottedplant","coordinates":[0.10363200902938843,0.11464319229125977,0.1372849702835083,0.1622626781463623]},{"name":"chair","coordinates":[0.6235575199127197,0.5796546300252279,0.11982511281967163,0.040803945064544676]},{"name":"vase","coordinates":[0.320474648475647,0.5657046000162761,0.03722638189792633,0.10363554954528809]},{"name":"chair","coordinates":[0.4835233211517334,0.5659481684366862,0.09340349435806275,0.03656682968139648]},{"name":"book","coordinates":[0.17993587255477905,0.5909314473470052,0.07084845900535583,0.046340020497639973]}]}
