{"src":"https://a0.muscache.com/im/pictures/9981fd18-2cdb-42a5-9a4e-f3f8b397e530.jpg?aki_policy=xx_large","name":"[SALE] Best location to Seoul &amp; Airport (1)","listingId":22167546,"photoId":"1405-1","tags":[{"name":"sofa","coordinates":[0.743676257133484,0.603608226776123,0.24288811683654785,0.40064881642659506]},{"name":"tvmonitor","coordinates":[0.3344637930393219,0.24757246971130376,0.1624719500541687,0.18878761927286783]},{"name":"clock","coordinates":[0.16481106281280516,0.12052046855290731,0.06182861328125,0.0848541498184204]},{"name":"person","coordinates":[0.3966016277670861,0.28828657468159996,0.04059067070484161,0.12475557327270508]},{"name":"book","coordinates":[0.4949248939752579,0.7134288668632507,0.07504641413688659,0.05055391788482666]},{"name":"person","coordinates":[0.381825003027916,0.313371213277181,0.025996190309524537,0.0917751948038737]},{"name":"remote","coordinates":[0.6001094371080398,0.6809536665678024,0.05216235518455505,0.02735378543535868]}]}
