{"src":"https://a0.muscache.com/im/pictures/9981fd18-2cdb-42a5-9a4e-f3f8b397e530.jpg?aki_policy=xx_large","name":"[SALE] Best location to Seoul &amp; Airport (1)","listingId":22167546,"photoId":"1405-1","tags":[{"name":"sofa","coordinates":[0.8651203155517578,0.8039326349894206,0.24288811683654785,0.40064881642659506]},{"name":"tvmonitor","coordinates":[0.41569976806640624,0.34196627934773766,0.1624719500541687,0.18878761927286783]},{"name":"clock","coordinates":[0.19572536945343016,0.1629475434621175,0.06182861328125,0.0848541498184204]},{"name":"person","coordinates":[0.41689696311950686,0.3506643613179525,0.04059067070484161,0.12475557327270508]},{"name":"book","coordinates":[0.5324481010437012,0.738705825805664,0.07504641413688659,0.05055391788482666]},{"name":"person","coordinates":[0.39482309818267824,0.35925881067911786,0.025996190309524537,0.0917751948038737]},{"name":"remote","coordinates":[0.6261906147003173,0.6946305592854818,0.05216235518455505,0.02735378543535868]}]}
