{"src":"https://a0.muscache.com/im/pictures/9f9accd8-fa87-4148-8a5a-92ba7a980d3a.jpg?aki_policy=xx_large","name":"Historic apartment near the Beach","listingId":9592951,"photoId":"1408-5","tags":[{"name":"sofa","coordinates":[0.8589703030056424,0.8281909942626953,0.26052996317545574,0.3138065020243327]},{"name":"chair","coordinates":[0.07297473483615452,0.8934240341186523,0.1376830948723687,0.21260959307352703]},{"name":"vase","coordinates":[0.10720903608534071,0.5123578389485677,0.06315810945298937,0.08571958541870117]},{"name":"book","coordinates":[0.16348232693142362,0.5155219395955404,0.0512446403503418,0.015392609437306722]},{"name":"book","coordinates":[0.9330981784396701,0.4074491182963053,0.010931212372250027,0.06303422053654989]},{"name":"book","coordinates":[0.9324290805392795,0.4954935073852539,0.01027915080388387,0.05234120686848958]}]}
