{"src":"https://a0.muscache.com/im/pictures/a07d428a-25fb-4a2f-8a81-03f5d793d772.jpg?aki_policy=xx_large","name":"Historic apartment near the Beach","listingId":9592951,"photoId":"1408-6","tags":[{"name":"diningtable","coordinates":[0.353659545050727,0.816351318359375,0.26176668802897135,0.37700525919596356]},{"name":"chair","coordinates":[0.36311293707953557,0.8514809290568034,0.1543424606323242,0.27830479939778646]},{"name":"pottedplant","coordinates":[0.6872343275282118,0.56736634572347,0.06868331697252061,0.15382482210795084]},{"name":"pottedplant","coordinates":[0.6274905734592013,0.5671640396118164,0.04177777237362332,0.11441974639892578]},{"name":"cup","coordinates":[0.29795862833658854,0.6348130544026692,0.029495064417521158,0.055966325600941974]}]}
