{"src":"https://a0.muscache.com/im/pictures/7ca19433-8391-4d11-8514-130c91cbf1e1.jpg?aki_policy=xx_large","name":"Cosi Downtown (Centre ville)","listingId":22182588,"photoId":"1409-5","tags":[{"name":"bed","coordinates":[0.28649880886077883,0.42027571996053065,0.7290168285369873,0.585923703511556]},{"name":"sofa","coordinates":[0.16315785646438596,0.26163805325826006,0.3577807188034058,0.43513606389363607]},{"name":"sofa","coordinates":[0.004987537860870361,0.30212251345316565,0.22613198757171632,0.36469863255818685]},{"name":"chair","coordinates":[0.004987537860870361,0.30212251345316565,0.22613198757171632,0.36469863255818685]},{"name":"remote","coordinates":[0.07535293102264405,0.6538955688476563,0.10428681373596191,0.06170387268066406]},{"name":"bottle","coordinates":[0.38521019369363785,0.1158692161242167,0.01957666575908661,0.05931114355723063]},{"name":"bottle","coordinates":[0.4064339339733124,0.11888015468915304,0.019138014316558837,0.055138790607452394]},{"name":"bottle","coordinates":[0.4818828396499157,0.11281615495681764,0.01953987032175064,0.04359484513600667]},{"name":"bottle","coordinates":[0.5020661391317844,0.11267498731613158,0.01779469698667526,0.040148043632507326]},{"name":"bottle","coordinates":[0.5221297003328801,0.11348907152811688,0.01537490338087082,0.03610355059305827]}]}
