{"src":"https://a0.muscache.com/im/pictures/7ca19433-8391-4d11-8514-130c91cbf1e1.jpg?aki_policy=xx_large","name":"Cosi Downtown (Centre ville)","listingId":22182588,"photoId":"1409-5","tags":[{"name":"bed","coordinates":[0.6510072231292725,0.7132375717163086,0.7290168285369873,0.585923703511556]},{"name":"sofa","coordinates":[0.34204821586608886,0.4792060852050781,0.3577807188034058,0.43513606389363607]},{"name":"sofa","coordinates":[0.11805353164672852,0.4844718297322591,0.22613198757171632,0.36469863255818685]},{"name":"chair","coordinates":[0.11805353164672852,0.4844718297322591,0.22613198757171632,0.36469863255818685]},{"name":"remote","coordinates":[0.127496337890625,0.6847475051879883,0.10428681373596191,0.06170387268066406]},{"name":"bottle","coordinates":[0.39499852657318113,0.14552478790283202,0.01957666575908661,0.05931114355723063]},{"name":"bottle","coordinates":[0.4160029411315918,0.14644954999287924,0.019138014316558837,0.055138790607452394]},{"name":"bottle","coordinates":[0.491652774810791,0.13461357752482098,0.01953987032175064,0.04359484513600667]},{"name":"bottle","coordinates":[0.5109634876251221,0.13274900913238524,0.01779469698667526,0.040148043632507326]},{"name":"bottle","coordinates":[0.5298171520233155,0.131540846824646,0.01537490338087082,0.03610355059305827]}]}
