{"src":"https://a0.muscache.com/im/pictures/30a3fc73-b786-4b56-bd8f-4da5304f391c.jpg?aki_policy=xx_large","name":"Phoenician Private Resort,Pool/Spa,Dining &amp; Garage","listingId":12999919,"photoId":"141-19","tags":[{"name":"sofa","coordinates":[0.47794009314643005,0.5605238119761149,0.4460108862982856,0.42301098505655926]},{"name":"chair","coordinates":[0.0919200579325358,0.5649908542633056,0.2934638341267904,0.4292665163675944]},{"name":"sofa","coordinates":[0.0919200579325358,0.5649908542633056,0.2934638341267904,0.4292665163675944]},{"name":"clock","coordinates":[0.07038465076022679,0.25561585823694866,0.08298846350775825,0.13151177565256755]},{"name":"chair","coordinates":[0.4651420831680298,0.5083554824193319,0.05687556266784668,0.17128939628601075]},{"name":"pottedplant","coordinates":[0.8691573672824435,0.3748679598172506,0.047193145751953124,0.11330150763193766]},{"name":"chair","coordinates":[0.591309666633606,0.5083714723587036,0.06539253128899468,0.06191852887471517]},{"name":"chair","coordinates":[0.7251399967405532,0.5433557987213135,0.06901491483052571,0.04921662012736003]},{"name":"chair","coordinates":[0.6647119495603774,0.5162082135677337,0.03265165223015679,0.050090897083282473]}]}
