{"src":"https://a0.muscache.com/im/pictures/8cd16131-f301-4b64-805c-814587020620.jpg?aki_policy=xx_large","name":"Phoenician Private Resort,Pool/Spa,Dining &amp; Garage","listingId":12999919,"photoId":"141-7","tags":[{"name":"diningtable","coordinates":[1.3689654314959492,0.5021985689798991,2.528059669777199,1.1073301951090495]},{"name":"person","coordinates":[2.022262912326389,0.6172325770060222,1.2104590521918404,0.7222384134928386]},{"name":"bowl","coordinates":[0.31741203025535303,0.3802389144897461,0.6035376089590567,0.2591331958770752]},{"name":"bowl","coordinates":[2.1697625054253473,0.2225679874420166,0.7202675148292824,0.20191461245218914]},{"name":"bowl","coordinates":[1.4808407253689235,0.31846440633138023,0.5904388992874711,0.23928874333699543]},{"name":"knife","coordinates":[1.5265613697193288,0.8107234954833984,0.10063707563612197,0.40331796010335286]},{"name":"bowl","coordinates":[1.0060016773365161,0.30236762364705405,0.24169989691840277,0.11854136784871419]},{"name":"cup","coordinates":[1.4798681188512732,0.044041021664937334,0.19921939991138599,0.09214297930399577]}]}
