{"src":"https://a0.muscache.com/im/pictures/8cd16131-f301-4b64-805c-814587020620.jpg?aki_policy=xx_large","name":"Phoenician Private Resort,Pool/Spa,Dining &amp; Garage","listingId":12999919,"photoId":"141-7","tags":[{"name":"diningtable","coordinates":[0.5133620368109809,0.5021985689798991,0.9480223761664497,1.1073301951090495]},{"name":"person","coordinates":[0.7583485921223958,0.6172325770060222,0.4539221445719401,0.7222384134928386]},{"name":"bowl","coordinates":[0.11902951134575737,0.3802389144897461,0.22632660335964627,0.2591331958770752]},{"name":"bowl","coordinates":[0.8136609395345052,0.2225679874420166,0.2701003180609809,0.20191461245218914]},{"name":"bowl","coordinates":[0.5553152720133464,0.31846440633138023,0.22141458723280166,0.23928874333699543]},{"name":"knife","coordinates":[0.5724605136447483,0.8107234954833984,0.03773890336354573,0.40331796010335286]},{"name":"bowl","coordinates":[0.37725062900119355,0.30236762364705405,0.09063746134440104,0.11854136784871419]},{"name":"cup","coordinates":[0.5549505445692274,0.044041021664937334,0.07470727496676975,0.09214297930399577]}]}
