{"src":"https://a0.muscache.com/im/pictures/0f28ce37-1c6e-4d3b-bd10-ee1a2260f971.jpg?aki_policy=xx_large","name":"Bizstay Maziestraat","listingId":9602140,"photoId":"1410-4","tags":[{"name":"diningtable","coordinates":[0.16269421577453613,0.8403224309285482,0.2815056800842285,0.2755624771118164]},{"name":"chair","coordinates":[0.2823272943496704,0.8826758702596028,0.1919163465499878,0.25864410400390625]},{"name":"chair","coordinates":[0.05837489366531372,0.9268736521402995,0.11197539567947387,0.14778372446695964]},{"name":"chair","coordinates":[0.21645948886871338,0.6981980005900065,0.07912827134132386,0.032426536083221436]},{"name":"bowl","coordinates":[0.5149435043334961,0.6470081965128581,0.05574367046356201,0.02429079016049703]},{"name":"bowl","coordinates":[0.5154157638549804,0.6585807800292969,0.05445950031280518,0.022483205795288085]},{"name":"cup","coordinates":[0.5509753704071045,0.5329487482706706,0.021344706416130066,0.04960612058639526]},{"name":"cup","coordinates":[0.530005931854248,0.5362221399943033,0.02004216015338898,0.04374188979466756]},{"name":"cup","coordinates":[0.5088048458099366,0.5381331125895182,0.0200909286737442,0.04008609056472778]},{"name":"cup","coordinates":[0.49660472869873046,0.5366587956746419,0.01841428577899933,0.0389508326848348]}]}
