{"src":"https://a0.muscache.com/im/pictures/38107946/83aea4a4_original.jpg?aki_policy=xx_large","name":"Design apartment Scheveningen Beach","listingId":966979,"photoId":"1414-4","tags":[{"name":"pottedplant","coordinates":[1.6427803152078724,0.8661110560099284,0.5183103218191141,0.28381112416585286]},{"name":"tvmonitor","coordinates":[0.6004209715356518,0.835269037882487,0.4772477951724972,0.3077975908915202]},{"name":"sofa","coordinates":[0.9833545065910767,0.7238679885864258,0.4926160964290653,0.24568131764729817]},{"name":"vase","coordinates":[1.6376848699068953,0.9595780690511068,0.14722906242078032,0.09122709433237712]},{"name":"book","coordinates":[1.4127454729558444,0.5116279602050782,0.019356751512285532,0.06084907054901123]},{"name":"book","coordinates":[1.440418884817478,0.5998374938964843,0.019014611708379425,0.06067847808202108]},{"name":"book","coordinates":[1.4147053496324207,0.6004881540934245,0.018594563183179647,0.05998427867889404]},{"name":"book","coordinates":[1.441025455441095,0.510617733001709,0.015570319859327468,0.057907517751057944]}]}
