{"src":"https://a0.muscache.com/im/pictures/479585cd-c651-4251-9292-875afeacf7d7.jpg?aki_policy=xx_large","name":"Picturesque Canal Apartment","listingId":9785899,"photoId":"1415-4","tags":[{"name":"diningtable","coordinates":[0.6915233828730099,0.8291538238525391,1.0641024617442987,0.3275647481282552]},{"name":"oven","coordinates":[1.8940929734563252,0.7209629694620768,0.5022478481167976,0.3431764284769694]},{"name":"chair","coordinates":[1.121398820729346,0.8741026560465495,0.3495851080101657,0.2517885208129883]},{"name":"chair","coordinates":[0.412564827529986,0.9673634847005208,0.43956469012209554,0.052227699756622316]},{"name":"pottedplant","coordinates":[0.6801336554364781,0.6690753300984701,0.1788019649748548,0.11074156761169433]}]}
