{"src":"https://a0.muscache.com/im/pictures/0c8690e2-025a-44bf-9f40-0ce94e17cf11.jpg?aki_policy=xx_large","name":"AMA, RESPIRA, VIVE","listingId":22219391,"photoId":"1416-3","tags":[{"name":"sink","coordinates":[0.10930988523695204,0.6484076380729675,0.2516537348429362,0.08146739800771077]},{"name":"pottedplant","coordinates":[0.20997898313734267,0.4793994983037313,0.10622200436062283,0.13802450497945148]},{"name":"pottedplant","coordinates":[0.32043485641479497,0.49167875448862713,0.08976849450005425,0.1433657169342041]},{"name":"bottle","coordinates":[0.25779938962724475,0.5667653759320578,0.046317995919121634,0.08530952930450439]},{"name":"vase","coordinates":[0.3304100539949205,0.5715294003486633,0.05421870019700792,0.06628313859303793]}]}
