{"src":"https://a0.muscache.com/im/pictures/0c8690e2-025a-44bf-9f40-0ce94e17cf11.jpg?aki_policy=xx_large","name":"AMA, RESPIRA, VIVE","listingId":22219391,"photoId":"1416-3","tags":[{"name":"sink","coordinates":[0.13226442337036132,0.6891413370768229,0.14155522584915162,0.08146739800771077]},{"name":"pottedplant","coordinates":[0.14798811674118043,0.548411750793457,0.05974987745285034,0.13802450497945148]},{"name":"pottedplant","coordinates":[0.2054919958114624,0.5633616129557292,0.05049477815628052,0.1433657169342041]},{"name":"bottle","coordinates":[0.15803909301757812,0.6094201405843099,0.02605387270450592,0.08530952930450439]},{"name":"vase","coordinates":[0.20110466480255126,0.6046709696451823,0.030498018860816954,0.06628313859303793]}]}
