{"src":"https://a0.muscache.com/im/pictures/14724566/22ad2c88_original.jpg?aki_policy=xx_large","name":"apartment close to the beach","listingId":981946,"photoId":"1416-6","tags":[{"name":"diningtable","coordinates":[0.10484047625757889,0.7804581960042317,0.22703276357000826,0.4153713862101237]},{"name":"sofa","coordinates":[0.7245797487558675,0.7986621220906576,0.2346689704396297,0.34231446584065756]},{"name":"chair","coordinates":[0.15963697367152185,0.7373612085978191,0.11534112285672375,0.38351898193359374]},{"name":"sofa","coordinates":[0.39822540495425507,0.5923505147298177,0.13231271629704885,0.2039125919342041]},{"name":"chair","coordinates":[0.39822540495425507,0.5923505147298177,0.13231271629704885,0.2039125919342041]},{"name":"tvmonitor","coordinates":[0.6821139233500304,0.5369348526000977,0.08716639490883606,0.09473099708557128]},{"name":"vase","coordinates":[0.2284128457017668,0.4113571802775065,0.028064035407691076,0.12308140595753987]}]}
