{"src":"https://a0.muscache.com/im/pictures/28525300/46ed05ac_original.jpg?aki_policy=xx_large","name":"apartment close to the beach","listingId":981946,"photoId":"1416-1","tags":[{"name":"diningtable","coordinates":[0.42581100357755997,0.8725013097127279,0.7434508173787379,0.2231595039367676]},{"name":"refrigerator","coordinates":[0.12609672281108744,0.6374562581380209,0.15122576250651948,0.5865579605102539]},{"name":"oven","coordinates":[0.7630116087339186,0.7488184611002604,0.20393165726323453,0.3276389439900716]},{"name":"chair","coordinates":[0.28125388366953885,0.9372503916422527,0.2720458729708145,0.1336214065551758]},{"name":"chair","coordinates":[0.5726278886012474,0.763667106628418,0.131428184031777,0.15731712977091472]},{"name":"chair","coordinates":[0.3516964335434957,0.7616608301798503,0.1326387323159336,0.12616947491963704]},{"name":"microwave","coordinates":[0.2736190350231441,0.5739788055419922,0.14314556519743132,0.11304225126902262]},{"name":"bottle","coordinates":[0.37430395304079017,0.5961087544759115,0.01592514478447374,0.0813737154006958]}]}
