{"src":"https://a0.muscache.com/im/pictures/28525345/00b894a8_original.jpg?aki_policy=xx_large","name":"apartment close to the beach","listingId":981946,"photoId":"1416-5","tags":[{"name":"diningtable","coordinates":[0.3233817449365438,0.7673023859659831,0.23532741159325019,0.3069772720336914]},{"name":"sofa","coordinates":[0.8883871574561022,0.8535104115804036,0.21646457719869175,0.29268630345662433]},{"name":"chair","coordinates":[0.7799624892700365,0.7130825678507487,0.1537668708302547,0.3002853075663249]},{"name":"chair","coordinates":[0.4104124873006128,0.7177829106648763,0.06733498818685349,0.2542630672454834]},{"name":"tvmonitor","coordinates":[0.9386457461806763,0.6276359558105469,0.09795566394365547,0.11059416135152181]}]}
