{"src":"https://a0.muscache.com/im/pictures/0c8690e2-025a-44bf-9f40-0ce94e17cf11.jpg?aki_policy=xx_large","name":"AMA, RESPIRA, VIVE","listingId":22219391,"photoId":"1416-3","tags":[{"name":"sink","coordinates":[0.23513675265842013,0.6891413370768229,0.2516537348429362,0.08146739800771077]},{"name":"pottedplant","coordinates":[0.2630899853176541,0.548411750793457,0.10622200436062283,0.13802450497945148]},{"name":"pottedplant","coordinates":[0.36531910366482206,0.5633616129557292,0.08976849450005425,0.1433657169342041]},{"name":"bottle","coordinates":[0.2809583875868056,0.6094201405843099,0.046317995919121634,0.08530952930450439]},{"name":"vase","coordinates":[0.3575194040934245,0.6046709696451823,0.05421870019700792,0.06628313859303793]}]}
