{"src":"https://a0.muscache.com/im/pictures/14114de6-3169-474d-90c4-dd42dc6565ea.jpg?aki_policy=xx_large","name":"Townhouse in residential neighborhood !!","listingId":22220223,"photoId":"1417-2","tags":[{"name":"diningtable","coordinates":[0.4742136955261231,0.6593849500020346,0.506600284576416,0.3209096908569336]},{"name":"refrigerator","coordinates":[0.11662122011184692,0.1207437515258789,0.20378506183624268,0.5999188741048177]},{"name":"chair","coordinates":[0.7374299526214599,0.45218464533487956,0.1552363395690918,0.20746339162190755]},{"name":"book","coordinates":[0.10578137040138245,0.6657855967680613,0.10271505117416382,0.049072142442067465]},{"name":"bottle","coordinates":[0.5792038656771183,0.2823780377705892,0.021912626922130585,0.08836657206217448]}]}
