{"src":"https://a0.muscache.com/im/pictures/14114de6-3169-474d-90c4-dd42dc6565ea.jpg?aki_policy=xx_large","name":"Townhouse in residential neighborhood !!","listingId":22220223,"photoId":"1417-2","tags":[{"name":"diningtable","coordinates":[0.7275138378143311,0.8198397954305013,0.506600284576416,0.3209096908569336]},{"name":"refrigerator","coordinates":[0.21851375102996826,0.42070318857828776,0.20378506183624268,0.5999188741048177]},{"name":"chair","coordinates":[0.8150481224060059,0.5559163411458333,0.1552363395690918,0.20746339162190755]},{"name":"book","coordinates":[0.15713889598846437,0.690321667989095,0.10271505117416382,0.049072142442067465]},{"name":"bottle","coordinates":[0.5901601791381836,0.3265613238016764,0.021912626922130585,0.08836657206217448]}]}
