{"src":"https://a0.muscache.com/im/pictures/c7e8fe5e-8ace-4651-a616-587c1dbfac63.jpg?aki_policy=xx_large","name":"Nice spacious appartement","listingId":9965501,"photoId":"1418-2","tags":[{"name":"diningtable","coordinates":[0.49385299356109574,0.8238168080647786,0.697679941392319,0.3392331123352051]},{"name":"chair","coordinates":[0.11004336108154646,0.8659234364827474,0.10120177439037982,0.2384768803914388]},{"name":"pottedplant","coordinates":[0.6117384362322797,0.6260705312093099,0.1311636365599367,0.15716603597005208]},{"name":"chair","coordinates":[0.08829423738444242,0.9185096104939778,0.10749242241134317,0.16114447911580404]},{"name":"chair","coordinates":[0.4724861613013775,0.7137154897054037,0.10078992857232413,0.08448782761891684]},{"name":"book","coordinates":[0.7788630987540122,0.6556804021199544,0.04441457740250396,0.019474836190541585]},{"name":"book","coordinates":[0.7768309153775856,0.7124277114868164,0.0468775685265469,0.015822269519170127]},{"name":"book","coordinates":[0.7794452400588445,0.640725580851237,0.044990433435807387,0.015268757939338684]}]}
