{"src":"https://a0.muscache.com/im/pictures/89aa421a-ed17-43a1-a874-7b1e8ac869cd.jpg?aki_policy=xx_large","name":"Elegant, Cozy 2 B/R T/House , Bridgeview Portmore","listingId":22231364,"photoId":"1419-0","tags":[{"name":"diningtable","coordinates":[0.7530399230050332,0.7012972513834635,0.4320456808297498,0.24367318153381348]},{"name":"chair","coordinates":[0.48861272005106526,0.8058183670043946,0.2777940453357115,0.36294625600179037]},{"name":"chair","coordinates":[0.5142926297400313,0.9083354314168294,0.2474971768257672,0.1814032554626465]},{"name":"chair","coordinates":[0.6449030920152463,0.5834191640218099,0.15282075716425797,0.25625740687052406]},{"name":"tvmonitor","coordinates":[0.5819115657373924,0.14916407267252604,0.13902198010072567,0.25012585322062175]},{"name":"bottle","coordinates":[0.7735440132672009,0.6613259633382161,0.042496977232693696,0.15482288996378582]},{"name":"bottle","coordinates":[0.7378588237270328,0.6459694544474284,0.037538428526543564,0.14511497815450033]}]}
