{"src":"https://a0.muscache.com/im/pictures/89aa421a-ed17-43a1-a874-7b1e8ac869cd.jpg?aki_policy=xx_large","name":"Elegant, Cozy 2 B/R T/House , Bridgeview Portmore","listingId":22231364,"photoId":"1419-0","tags":[{"name":"diningtable","coordinates":[0.7524516105651855,0.7012972513834635,0.43170814514160155,0.24367318153381348]},{"name":"chair","coordinates":[0.4882309913635254,0.8058183670043946,0.27757701873779295,0.36294625600179037]},{"name":"chair","coordinates":[0.5138908386230469,0.9083354314168294,0.24730381965637208,0.1814032554626465]},{"name":"chair","coordinates":[0.6443992614746094,0.5834191640218099,0.15270136594772338,0.25625740687052406]},{"name":"tvmonitor","coordinates":[0.5814569473266602,0.14916407267252604,0.13891336917877198,0.25012585322062175]},{"name":"bottle","coordinates":[0.7729396820068359,0.6613259633382161,0.04246377646923065,0.15482288996378582]},{"name":"bottle","coordinates":[0.7372823715209961,0.6459694544474284,0.037509101629257205,0.14511497815450033]}]}
