{"src":"https://a0.muscache.com/im/pictures/89aa421a-ed17-43a1-a874-7b1e8ac869cd.jpg?aki_policy=xx_large","name":"Elegant, Cozy 2 B/R T/House , Bridgeview Portmore","listingId":22231364,"photoId":"1419-0","tags":[{"name":"diningtable","coordinates":[0.5365975379943847,0.5794606606165568,0.43170814514160155,0.24367318153381348]},{"name":"chair","coordinates":[0.3494424819946289,0.6243452390034994,0.27757701873779295,0.36294625600179037]},{"name":"chair","coordinates":[0.39023892879486083,0.8176338036855061,0.24730381965637208,0.1814032554626465]},{"name":"chair","coordinates":[0.5680485785007476,0.4552904605865479,0.15270136594772338,0.25625740687052406]},{"name":"tvmonitor","coordinates":[0.5120002627372742,0.024101146062215167,0.13891336917877198,0.25012585322062175]},{"name":"bottle","coordinates":[0.7517077937722206,0.5839145183563232,0.04246377646923065,0.15482288996378582]},{"name":"bottle","coordinates":[0.7185278207063674,0.5734119653701782,0.037509101629257205,0.14511497815450033]}]}
