{"src":"https://a0.muscache.com/im/pictures/cd9a5cf8-aca5-4abf-bc0b-ecd5c8cb19bb.jpg?aki_policy=xx_large","name":"Baiti Jannati Homestay","listingId":22327573,"photoId":"1439-8","tags":[{"name":"chair","coordinates":[0.021636533737182634,0.5191086292266845,0.21652071475982665,0.24832665125528972]},{"name":"pottedplant","coordinates":[0.17524152398109435,0.5425028443336487,0.08328427076339721,0.10786553223927815]},{"name":"bottle","coordinates":[0.6767882674932479,0.21668535073598227,0.0390735924243927,0.14481870333353677]},{"name":"pottedplant","coordinates":[0.6004875659942627,0.11702500184377035,0.04460058212280273,0.07123154004414876]},{"name":"vase","coordinates":[0.2764295965433121,0.6372910360495249,0.021304291486740113,0.058835184574127196]}]}
