{"src":"https://a0.muscache.com/im/pictures/98182994-a8b0-43b4-9935-c4fb5747351e.jpg?aki_policy=xx_large","name":"PLACER Y CONFORT, la mejor vista de PUEBLA.","listingId":22339916,"photoId":"1443-0","tags":[{"name":"diningtable","coordinates":[0.4830926418304443,0.7824125289916992,0.6850585460662841,0.3460109710693359]},{"name":"refrigerator","coordinates":[0.6348854064941406,0.4132187525431315,0.15775710344314575,0.5831595738728841]},{"name":"chair","coordinates":[0.23976538181304932,0.8688262303670248,0.2465240478515625,0.25127073923746746]},{"name":"chair","coordinates":[0.7948185920715332,0.572286860148112,0.1644200086593628,0.2566459496815999]},{"name":"chair","coordinates":[0.9105767250061035,0.5670171101888021,0.12026019096374511,0.2915687561035156]},{"name":"chair","coordinates":[0.63289475440979,0.9519061406453451,0.3571229219436646,0.09200981458028158]},{"name":"sink","coordinates":[0.39530918598175047,0.4201788902282715,0.10416741371154785,0.02541221777598063]}]}
