{"src":"https://a0.muscache.com/im/pictures/98182994-a8b0-43b4-9935-c4fb5747351e.jpg?aki_policy=xx_large","name":"PLACER Y CONFORT, la mejor vista de PUEBLA.","listingId":22339916,"photoId":"1443-0","tags":[{"name":"diningtable","coordinates":[0.14056336879730225,0.6094070434570312,0.6850585460662841,0.3460109710693359]},{"name":"refrigerator","coordinates":[0.5560068547725677,0.12163896560668946,0.15775710344314575,0.5831595738728841]},{"name":"chair","coordinates":[0.11650335788726807,0.7431908607482911,0.2465240478515625,0.25127073923746746]},{"name":"chair","coordinates":[0.7126085877418518,0.44396388530731207,0.1644200086593628,0.2566459496815999]},{"name":"chair","coordinates":[0.850446629524231,0.42123273213704426,0.12026019096374511,0.2915687561035156]},{"name":"chair","coordinates":[0.45433329343795775,0.9059012333552042,0.3571229219436646,0.09200981458028158]},{"name":"sink","coordinates":[0.34322547912597656,0.40747278134028114,0.10416741371154785,0.02541221777598063]}]}
