{"src":"https://a0.muscache.com/im/pictures/dfbbd87a-b9e4-4272-a22f-792c801453f8.jpg?aki_policy=xx_large","name":"Cozy 2 BHK Flat","listingId":22385972,"photoId":"1453-0","tags":[{"name":"bench","coordinates":[0.2798642158508301,0.8074691136678059,0.5239809036254883,0.3697695732116699]},{"name":"sofa","coordinates":[0.12013803720474243,0.5969953536987305,0.24304006099700928,0.31594422658284504]},{"name":"chair","coordinates":[0.3887767314910889,0.5629741668701171,0.23172595500946044,0.2906003952026367]},{"name":"pottedplant","coordinates":[0.9572144508361816,0.5372763315836588,0.09019733667373657,0.15826629002888998]},{"name":"pottedplant","coordinates":[0.6580278873443604,0.4904117266337077,0.07378517389297486,0.1212343454360962]}]}
