{"src":"https://a0.muscache.com/im/pictures/dfbbd87a-b9e4-4272-a22f-792c801453f8.jpg?aki_policy=xx_large","name":"Cozy 2 BHK Flat","listingId":22385972,"photoId":"1453-0","tags":[{"name":"bench","coordinates":[0.017873764038085938,0.622584327061971,0.5239809036254883,0.3697695732116699]},{"name":"sofa","coordinates":[-0.001381993293762207,0.43902324040730795,0.24304006099700928,0.31594422658284504]},{"name":"chair","coordinates":[0.27291375398635864,0.4176739692687988,0.23172595500946044,0.2906003952026367]},{"name":"pottedplant","coordinates":[0.9121157824993134,0.4581431865692138,0.09019733667373657,0.15826629002888998]},{"name":"pottedplant","coordinates":[0.6211353003978729,0.42979455391565957,0.07378517389297486,0.1212343454360962]}]}
