{"src":"https://a0.muscache.com/im/pictures/940614a5-083d-45ec-bb4e-e247a3453c65.jpg?aki_policy=xx_large","name":"Cozy 2 BHK Flat","listingId":22385972,"photoId":"1453-1","tags":[{"name":"refrigerator","coordinates":[0.09898113012313843,0.6763648351033529,0.18079835176467896,0.5062503178914388]},{"name":"diningtable","coordinates":[0.2912010192871094,0.5006469408671061,0.1855400323867798,0.18064514795939127]},{"name":"chair","coordinates":[0.29941377639770506,0.5864824295043946,0.096864515542984,0.23252278963724773]},{"name":"diningtable","coordinates":[0.29617350101470946,0.4750905672709147,0.16611641645431519,0.08416357835133871]},{"name":"chair","coordinates":[0.3914085865020752,0.5170930544535319,0.03955369889736175,0.20717965761820475]},{"name":"chair","coordinates":[0.25825507640838624,0.4078059196472168,0.04619061350822449,0.04952847162882487]},{"name":"pottedplant","coordinates":[0.4756810665130615,0.4068213144938151,0.029138973355293273,0.04659495751063029]}]}
