{"src":"https://a0.muscache.com/im/pictures/8b1b72b8-d70f-4d19-9036-fa76fb62f9a4.jpg?aki_policy=xx_large","name":"Room 100% seafront - beach - amazing breakfast","listingId":22394322,"photoId":"1456-3","tags":[{"name":"diningtable","coordinates":[0.017919301986694336,0.24944302241007493,0.9870762825012207,0.7674109776814778]},{"name":"bowl","coordinates":[0.3221770405769348,0.44184511502583823,0.22673795223236085,0.155622132619222]},{"name":"bowl","coordinates":[-0.0033945918083190876,0.44428141911824537,0.12445385456085205,0.27351067860921224]},{"name":"spoon","coordinates":[0.5782675743103027,0.7028712749481202,0.1681375503540039,0.19551337560017903]},{"name":"bottle","coordinates":[-0.0025649547576904325,0.23426609039306642,0.11297087669372559,0.2708604176839193]},{"name":"cup","coordinates":[0.16757320165634154,0.41520654360453285,0.15332362651824952,0.1887883186340332]},{"name":"bottle","coordinates":[0.3873343288898468,0.24168134530385332,0.05678924322128296,0.18804901440938313]},{"name":"bottle","coordinates":[0.34141184091567994,0.24846622149149578,0.058771586418151854,0.16538629531860352]},{"name":"bottle","coordinates":[0.10225615501403809,0.26004844109217323,0.0849146842956543,0.09326358636220296]}]}
