{"src":"https://a0.muscache.com/im/pictures/8b1b72b8-d70f-4d19-9036-fa76fb62f9a4.jpg?aki_policy=xx_large","name":"Room 100% seafront - beach - amazing breakfast","listingId":22394322,"photoId":"1456-3","tags":[{"name":"diningtable","coordinates":[0.4546288384331597,0.6331485112508138,0.877401140001085,0.7674109776814778]},{"name":"bowl","coordinates":[0.3871520148383247,0.5196561813354492,0.2015448464287652,0.155622132619222]},{"name":"bowl","coordinates":[0.052295409308539494,0.5810367584228515,0.11062564849853515,0.27351067860921224]},{"name":"spoon","coordinates":[0.5887434217664931,0.8006279627482097,0.14945560031467015,0.19551337560017903]},{"name":"bottle","coordinates":[0.04792931874593099,0.36969629923502606,0.1004185570610894,0.2708604176839193]},{"name":"cup","coordinates":[0.21709779103597004,0.5096007029215495,0.13628766801622177,0.1887883186340332]},{"name":"bottle","coordinates":[0.3695368448893229,0.3357058525085449,0.050479327307807076,0.18804901440938313]},{"name":"bottle","coordinates":[0.329597896999783,0.3311593691507975,0.052241410149468315,0.16538629531860352]},{"name":"bottle","coordinates":[0.12863421969943575,0.30668023427327473,0.07547971937391493,0.09326358636220296]}]}
