{"src":"https://a0.muscache.com/im/pictures/8b1b72b8-d70f-4d19-9036-fa76fb62f9a4.jpg?aki_policy=xx_large","name":"Room 100% seafront - beach - amazing breakfast","listingId":22394322,"photoId":"1456-3","tags":[{"name":"diningtable","coordinates":[0.5114574432373047,0.6331485112508138,0.9870762825012207,0.7674109776814778]},{"name":"bowl","coordinates":[0.4355460166931152,0.5196561813354492,0.22673795223236085,0.155622132619222]},{"name":"bowl","coordinates":[0.058832335472106936,0.5810367584228515,0.12445385456085205,0.27351067860921224]},{"name":"spoon","coordinates":[0.6623363494873047,0.8006279627482097,0.1681375503540039,0.19551337560017903]},{"name":"bottle","coordinates":[0.05392048358917236,0.36969629923502606,0.11297087669372559,0.2708604176839193]},{"name":"cup","coordinates":[0.24423501491546631,0.5096007029215495,0.15332362651824952,0.1887883186340332]},{"name":"bottle","coordinates":[0.4157289505004883,0.3357058525085449,0.05678924322128296,0.18804901440938313]},{"name":"bottle","coordinates":[0.37079763412475586,0.3311593691507975,0.058771586418151854,0.16538629531860352]},{"name":"bottle","coordinates":[0.14471349716186524,0.30668023427327473,0.0849146842956543,0.09326358636220296]}]}
