{"src":"https://a0.muscache.com/im/pictures/cead25de-6c0e-4b10-a38b-1f2b66961f53.jpg?aki_policy=xx_large","name":"【清风尚苑】碑林公园&amp;和平公园&amp;山西省博物院&amp;太原理工大学精装两居室","listingId":22396202,"photoId":"1457-0","tags":[{"name":"diningtable","coordinates":[0.043333731757269955,0.5722809155782064,0.34475173950195315,0.3719570795694987]},{"name":"chair","coordinates":[0.7833759731716581,0.7235226074854533,0.20464867485894098,0.2566254138946533]},{"name":"chair","coordinates":[0.6245485888587103,0.6938050587972004,0.17712640762329102,0.28710912068684896]},{"name":"chair","coordinates":[0.3048809210459391,0.6705601851145426,0.10757324430677626,0.3265227317810059]},{"name":"pottedplant","coordinates":[0.6687076886494954,0.5436255057652791,0.14378782908121746,0.1993527889251709]},{"name":"chair","coordinates":[0.576128625869751,0.62525900999705,0.12047190136379665,0.1392270565032959]},{"name":"vase","coordinates":[0.5035195185078515,0.6344243745009105,0.018163989649878608,0.05231124957402547]}]}
