{"src":"https://a0.muscache.com/im/pictures/cead25de-6c0e-4b10-a38b-1f2b66961f53.jpg?aki_policy=xx_large","name":"【清风尚苑】碑林公园&amp;和平公园&amp;山西省博物院&amp;太原理工大学精装两居室","listingId":22396202,"photoId":"1457-0","tags":[{"name":"diningtable","coordinates":[0.21570960150824653,0.7582594553629557,0.34475173950195315,0.3719570795694987]},{"name":"chair","coordinates":[0.8857003106011285,0.8518353144327799,0.20464867485894098,0.2566254138946533]},{"name":"chair","coordinates":[0.7131117926703558,0.837359619140625,0.17712640762329102,0.28710912068684896]},{"name":"chair","coordinates":[0.35866754319932725,0.8338215510050456,0.10757324430677626,0.3265227317810059]},{"name":"pottedplant","coordinates":[0.7406016031901042,0.6433019002278646,0.14378782908121746,0.1993527889251709]},{"name":"chair","coordinates":[0.6363645765516494,0.6948725382486979,0.12047190136379665,0.1392270565032959]},{"name":"vase","coordinates":[0.5126015133327908,0.6605799992879232,0.018163989649878608,0.05231124957402547]}]}
