{"src":"https://a0.muscache.com/im/pictures/c1dd089c-872d-4d95-82a2-d212bd95f49a.jpg?aki_policy=xx_large","name":"happy days pyramids inn","listingId":22398848,"photoId":"1458-9","tags":[{"name":"person","coordinates":[0.7225349426269532,0.6362497329711914,0.2887439939710829,0.361221981048584]},{"name":"person","coordinates":[0.15082208845350478,0.6660159428914388,0.15522353914048936,0.5835142135620117]},{"name":"diningtable","coordinates":[0.49609239366319446,0.8737482706705729,0.35399403042263455,0.22962325414021809]},{"name":"person","coordinates":[0.28586707644992404,0.6746831258138021,0.1437538888719347,0.5512323379516602]},{"name":"person","coordinates":[0.43289549085828993,0.6239500681559245,0.17031381395128037,0.359342098236084]},{"name":"person","coordinates":[0.5625502268473307,0.6443304697672526,0.11488973829481337,0.26623617808024086]},{"name":"bottle","coordinates":[0.5034967634412978,0.716991106669108,0.02575568887922499,0.1368994077046712]},{"name":"wine-glass","coordinates":[0.41835882398817276,0.8403664271036784,0.03735774887932671,0.08953803380330404]},{"name":"cup","coordinates":[0.6181218889024522,0.8290247599283854,0.033835119671291776,0.06783217589060465]}]}
