{"src":"https://a0.muscache.com/im/pictures/4dbaf9cd-540c-4ba2-bb2e-02f1ab0013e1.jpg?aki_policy=xx_large","name":"happy days pyramids inn","listingId":22398848,"photoId":"1458-5","tags":[{"name":"person","coordinates":[0.29357147216796875,0.6678564071655273,0.08489141464233399,0.4515148480733236]},{"name":"chair","coordinates":[0.5225285847981771,0.8372213999430339,0.13173692491319444,0.27972647349039714]},{"name":"chair","coordinates":[0.33561058044433595,0.8204102834065755,0.13041890462239583,0.22858303387959797]},{"name":"diningtable","coordinates":[0.4343139224582248,0.8220941543579101,0.09709025488959419,0.21846655209859211]},{"name":"pottedplant","coordinates":[0.4925273895263672,0.7264771779378255,0.06591927210489909,0.17242404619852703]}]}
