{"src":"https://a0.muscache.com/im/pictures/9eb1ef8c-eb76-4b35-8db2-414985ccb5f0.jpg?aki_policy=xx_large","name":"happy days pyramids inn","listingId":22398848,"photoId":"1458-3","tags":[{"name":"pottedplant","coordinates":[0.14034406959111967,0.7569077809651693,0.2784226614027167,0.4246324221293131]},{"name":"pottedplant","coordinates":[0.087935021175212,0.8200153350830078,0.15685133430826004,0.34716053009033204]},{"name":"pottedplant","coordinates":[0.4120331884029523,0.6995693842569987,0.22123971296914258,0.1768181800842285]},{"name":"tvmonitor","coordinates":[1.1204481882066584,0.4594856897989909,0.1418947919529287,0.2064200719197591]},{"name":"person","coordinates":[0.9949678200573179,0.5087145487467448,0.1344355137503926,0.1539342244466146]},{"name":"pottedplant","coordinates":[1.3765745230056532,0.7944386800130209,0.10466736453262405,0.11549138228098552]},{"name":"teddy-bear","coordinates":[0.8099826525204146,0.5378451029459635,0.0942804537825848,0.11077191829681396]}]}
