{"src":"https://a0.muscache.com/im/pictures/c1dd089c-872d-4d95-82a2-d212bd95f49a.jpg?aki_policy=xx_large","name":"happy days pyramids inn","listingId":22398848,"photoId":"1458-9","tags":[{"name":"person","coordinates":[0.8128518104553223,0.6362497329711914,0.3248369932174683,0.361221981048584]},{"name":"person","coordinates":[0.16967484951019288,0.6660159428914388,0.17462648153305055,0.5835142135620117]},{"name":"diningtable","coordinates":[0.5581039428710938,0.8737482706705729,0.39824328422546384,0.22962325414021809]},{"name":"person","coordinates":[0.3216004610061646,0.6746831258138021,0.1617231249809265,0.5512323379516602]},{"name":"person","coordinates":[0.48700742721557616,0.6239500681559245,0.19160304069519044,0.359342098236084]},{"name":"person","coordinates":[0.6328690052032471,0.6443304697672526,0.12925095558166505,0.26623617808024086]},{"name":"bottle","coordinates":[0.5664338588714599,0.716991106669108,0.02897514998912811,0.1368994077046712]},{"name":"wine-glass","coordinates":[0.47065367698669436,0.8403664271036784,0.042027467489242555,0.08953803380330404]},{"name":"cup","coordinates":[0.6953871250152588,0.8290247599283854,0.03806450963020325,0.06783217589060465]}]}
