{"src":"https://a0.muscache.com/im/pictures/2e6d3144-ecc0-4d01-ae25-2543496000bb.jpg?aki_policy=xx_large","name":"Новая судия,центр,метро,рядом ЖД вокзал и Немига","listingId":22399744,"photoId":"1459-2","tags":[{"name":"sofa","coordinates":[0.28731360965304903,0.7284451166788737,0.3324080361260308,0.3519415537516276]},{"name":"refrigerator","coordinates":[0.032663803630405004,0.5761450449625651,0.06822468439737955,0.3096995671590169]},{"name":"tvmonitor","coordinates":[0.7375007629394531,0.45406017303466795,0.08922799428304036,0.18283340136210124]},{"name":"pottedplant","coordinates":[0.29666315714518227,0.4919548988342285,0.04146693017747667,0.06979789733886718]},{"name":"vase","coordinates":[0.2923653496636285,0.5072827339172363,0.01945138374964396,0.03305976390838623]}]}
