{"src":"https://a0.muscache.com/im/pictures/2e6d3144-ecc0-4d01-ae25-2543496000bb.jpg?aki_policy=xx_large","name":"Новая судия,центр,метро,рядом ЖД вокзал и Немига","listingId":22399744,"photoId":"1459-2","tags":[{"name":"sofa","coordinates":[0.12110959159003362,0.5524743398030598,0.3324080361260308,0.3519415537516276]},{"name":"refrigerator","coordinates":[-0.0014485385682847726,0.4212952613830567,0.06822468439737955,0.3096995671590169]},{"name":"tvmonitor","coordinates":[0.692886765797933,0.3626434723536173,0.08922799428304036,0.18283340136210124]},{"name":"pottedplant","coordinates":[0.2759296920564439,0.4570559501647949,0.04146693017747667,0.06979789733886718]},{"name":"vase","coordinates":[0.2826396577888065,0.4907528519630432,0.01945138374964396,0.03305976390838623]}]}
