{"src":"https://a0.muscache.com/im/pictures/73507b7c-7b0e-47c4-9a21-68ac5d9b6ecb.jpg?aki_policy=xx_large","name":"Новая судия,центр,метро,рядом ЖД вокзал и Немига","listingId":22399744,"photoId":"1459-12","tags":[{"name":"bowl","coordinates":[0.4137037701076931,0.03115495840708414,0.18518748813205296,0.14371705055236816]},{"name":"surfboard","coordinates":[0.5670307742224799,0.6396076679229736,0.06645792855156793,0.26178274154663084]},{"name":"surfboard","coordinates":[0.4519720713297526,0.6805280605951946,0.05310024685329861,0.24543356895446777]},{"name":"hot-dog","coordinates":[0.4519720713297526,0.6805280605951946,0.05310024685329861,0.24543356895446777]},{"name":"hot-dog","coordinates":[0.49363560941484247,0.6831088066101074,0.04319761594136556,0.23865845998128254]},{"name":"cup","coordinates":[0.6177871386210124,0.3860337098439534,0.09248943328857422,0.08321701685587565]},{"name":"cup","coordinates":[0.6336888710657755,0.3207180579503377,0.0728824880388048,0.08955779075622558]}]}
