{"src":"https://z0.muscache.cn/im/pictures/2fabfb04-7240-4fb5-9f23-01cd608ee5a3.jpg?aki_policy=xx_large","name":"花果园财富广场/金融中心的景观房/北欧实木/进口电器/智能密码锁独立公寓777","listingId":22407020,"photoId":"1460-14","tags":[{"name":"sofa","coordinates":[0.6278216256035699,0.4653881708780924,0.3398162417941623,0.3670916239420573]},{"name":"sofa","coordinates":[0.4028016090393066,0.4361005306243897,0.3065106497870551,0.21426541010538738]},{"name":"diningtable","coordinates":[0.17587468359205458,0.4097046852111816,0.14152087105645073,0.20689525604248046]},{"name":"chair","coordinates":[0.26040008332994247,0.41483813921610513,0.05825328826904297,0.19875370661417643]},{"name":"pottedplant","coordinates":[0.6213232106632657,0.6390846769014994,0.031077689594692655,0.05339675744374593]}]}
