{"src":"https://z0.muscache.cn/im/pictures/68827935-fdf3-4062-8eb1-089d64a54d9f.jpg?aki_policy=xx_large","name":"花果园财富广场/金融中心的景观房/北欧实木/进口电器/智能密码锁独立公寓777","listingId":22407020,"photoId":"1460-25","tags":[{"name":"bed","coordinates":[0.7585687425401476,0.6373753865559896,0.5165061526828342,0.5363992055257162]},{"name":"tvmonitor","coordinates":[0.23532227410210504,0.20064144134521483,0.29377924601236977,0.36822102864583334]},{"name":"chair","coordinates":[0.8357193840874566,0.872852643330892,0.3086295233832465,0.22975908915201823]},{"name":"chair","coordinates":[0.6479399787055121,0.40598904291788734,0.1375655386182997,0.22494931221008302]},{"name":"pottedplant","coordinates":[0.32005322774251305,0.6570105234781901,0.06548500590854221,0.10091030597686768]},{"name":"pottedplant","coordinates":[0.5141632080078125,0.37165788014729817,0.032985705799526636,0.051363619168599446]}]}
