{"src":"https://z0.muscache.cn/im/pictures/6aa7ff51-d585-4374-8140-b8641b77ba74.jpg?aki_policy=xx_large","name":"花果园财富广场/金融中心的景观房/北欧实木/进口电器/智能密码锁独立公寓777","listingId":22407020,"photoId":"1460-8","tags":[{"name":"sink","coordinates":[0.5487119038899739,0.6447353998819987,0.29785202874077693,0.09530470371246338]},{"name":"pottedplant","coordinates":[0.36179767184787326,0.5319890340169271,0.14793452156914605,0.17044711112976074]},{"name":"bed","coordinates":[0.17208936479356554,0.7022059758504232,0.11409592098659939,0.17223548889160156]},{"name":"bowl","coordinates":[0.5932887607150608,0.232301664352417,0.08412147098117405,0.05238517920176188]},{"name":"cup","coordinates":[0.6958438025580512,0.18674408594767253,0.0359405173195733,0.05312447945276896]},{"name":"bowl","coordinates":[0.46673329671223956,0.2857962608337402,0.05508362452189128,0.03180896838506063]},{"name":"cup","coordinates":[0.7279519822862414,0.17266929944356282,0.031140401628282334,0.055506014823913576]},{"name":"cup","coordinates":[0.682814195421007,0.18916298548380533,0.02956792778438992,0.053316330909729]},{"name":"cup","coordinates":[0.6608142852783203,0.2019807497660319,0.025156860881381565,0.046551783879597984]},{"name":"cup","coordinates":[0.6501681857638889,0.2061794439951579,0.0238638268576728,0.04788989226023356]}]}
