{"src":"https://z0.muscache.cn/im/pictures/6aa7ff51-d585-4374-8140-b8641b77ba74.jpg?aki_policy=xx_large","name":"花果园财富广场/金融中心的景观房/北欧实木/进口电器/智能密码锁独立公寓777","listingId":22407020,"photoId":"1460-8","tags":[{"name":"sink","coordinates":[0.3997858895195855,0.597083048025767,0.29785202874077693,0.09530470371246338]},{"name":"pottedplant","coordinates":[0.2878304110633002,0.4467654784520467,0.14793452156914605,0.17044711112976074]},{"name":"bed","coordinates":[0.11504140430026585,0.6160882314046224,0.11409592098659939,0.17223548889160156]},{"name":"bowl","coordinates":[0.5512280252244738,0.20610907475153606,0.08412147098117405,0.05238517920176188]},{"name":"cup","coordinates":[0.6778735438982646,0.16018184622128806,0.0359405173195733,0.05312447945276896]},{"name":"bowl","coordinates":[0.4391914844512939,0.2698917766412099,0.05508362452189128,0.03180896838506063]},{"name":"cup","coordinates":[0.7123817814721002,0.14491629203160603,0.031140401628282334,0.055506014823913576]},{"name":"cup","coordinates":[0.668030231528812,0.16250482002894084,0.02956792778438992,0.053316330909729]},{"name":"cup","coordinates":[0.6482358548376296,0.1787048578262329,0.025156860881381565,0.046551783879597984]},{"name":"cup","coordinates":[0.6382362723350525,0.18223449786504112,0.0238638268576728,0.04788989226023356]}]}
