{"src":"https://z0.muscache.cn/im/pictures/8943e744-7b83-4369-bf9d-9217c2d06bb4.jpg?aki_policy=xx_large","name":"花果园财富广场/金融中心的景观房/北欧实木/进口电器/智能密码锁独立公寓777","listingId":22407020,"photoId":"1460-24","tags":[{"name":"pottedplant","coordinates":[0.2005616929796007,0.8202648798624674,0.359126705593533,0.3482328097025553]},{"name":"sink","coordinates":[0.7761068556043836,0.8218584060668945,0.33260890112982855,0.2656376043955485]},{"name":"pottedplant","coordinates":[0.6818333943684896,0.07118910948435465,0.14735805723402234,0.15356847445170085]},{"name":"bowl","coordinates":[0.46506936815049915,0.25576353073120117,0.1112863540649414,0.08138051033020019]},{"name":"bowl","coordinates":[0.27169808281792535,0.22268269856770834,0.08428738911946615,0.05611711343129476]},{"name":"cup","coordinates":[0.7408470153808594,0.36007655461629234,0.0728742758433024,0.06469595432281494]}]}
