{"src":"https://z0.muscache.cn/im/pictures/24fc7380-d679-48e9-8585-85a10bf89ee3.jpg?aki_policy=xx_large","name":"花果园财富广场/金融中心的景观房/北欧实木/进口电器/智能密码锁独立公寓777","listingId":22407020,"photoId":"1460-2","tags":[{"name":"sofa","coordinates":[0.712363772922092,0.7123060862223307,0.26800193786621096,0.3031487464904785]},{"name":"sofa","coordinates":[0.5154859330919054,0.6358741124471029,0.2694739023844401,0.2005604108174642]},{"name":"tvmonitor","coordinates":[0.08449411392211914,0.46976022720336913,0.14890321095784506,0.3036786079406738]},{"name":"diningtable","coordinates":[0.22061275906032987,0.6326475143432617,0.1259858767191569,0.18050781885782877]},{"name":"chair","coordinates":[0.2657127380371094,0.6275671005249024,0.04300715658399794,0.1478431224822998]},{"name":"vase","coordinates":[0.5665567609998915,0.6891709009806315,0.0267022795147366,0.04830707311630249]},{"name":"pottedplant","coordinates":[0.5665567609998915,0.6891709009806315,0.0267022795147366,0.04830707311630249]}]}
