{"src":"https://z0.muscache.cn/im/pictures/68827935-fdf3-4062-8eb1-089d64a54d9f.jpg?aki_policy=xx_large","name":"花果园财富广场/金融中心的景观房/北欧实木/进口电器/智能密码锁独立公寓777","listingId":22407020,"photoId":"1460-28","tags":[{"name":"bed","coordinates":[0.5003156661987305,0.3691757837931315,0.5165061526828342,0.5363992055257162]},{"name":"tvmonitor","coordinates":[0.08843265109592016,0.016530927022298164,0.29377924601236977,0.36822102864583334]},{"name":"chair","coordinates":[0.6814046223958333,0.7579730987548828,0.3086295233832465,0.22975908915201823]},{"name":"chair","coordinates":[0.5791572093963623,0.2935143868128458,0.1375655386182997,0.22494931221008302]},{"name":"pottedplant","coordinates":[0.28731072478824193,0.6065553704897563,0.06548500590854221,0.10091030597686768]},{"name":"pottedplant","coordinates":[0.49767035510804913,0.34597607056299845,0.032985705799526636,0.051363619168599446]}]}
