{"src":"https://z0.muscache.cn/im/pictures/969f07a7-2953-41a8-8c28-44b1b0299a12.jpg?aki_policy=xx_large","name":"花果园财富广场/金融中心的景观房/北欧实木/进口电器/智能密码锁独立公寓777","listingId":22407020,"photoId":"1460-9","tags":[{"name":"sofa","coordinates":[0.2547013176812066,0.46622227032979324,0.7541641235351563,0.49253689448038734]},{"name":"bed","coordinates":[0.016510242886013465,0.47138063112894696,0.3954316880967882,0.30548003514607747]},{"name":"sofa","coordinates":[0.016510242886013465,0.47138063112894696,0.3954316880967882,0.30548003514607747]},{"name":"diningtable","coordinates":[0.1806805504692925,0.7488696893056234,0.5258916219075521,0.22624540328979492]},{"name":"pottedplant","coordinates":[0.40015852716233996,0.7203383843104044,0.13617433971828885,0.2323475996653239]},{"name":"bottle","coordinates":[0.1633027341630724,0.6854173183441161,0.07279337777031793,0.1112852414449056]},{"name":"vase","coordinates":[0.42721852991316056,0.8428326487541199,0.07483760515848796,0.10582220554351807]}]}
