{"src":"https://z0.muscache.cn/im/pictures/24fc7380-d679-48e9-8585-85a10bf89ee3.jpg?aki_policy=xx_large","name":"花果园财富广场/金融中心的景观房/北欧实木/进口电器/智能密码锁独立公寓777","listingId":22407020,"photoId":"1460-2","tags":[{"name":"sofa","coordinates":[0.5783628039889865,0.5607317129770915,0.26800193786621096,0.3031487464904785]},{"name":"sofa","coordinates":[0.3807489818996853,0.5355939070383708,0.2694739023844401,0.2005604108174642]},{"name":"tvmonitor","coordinates":[0.01004250844319661,0.3179209232330322,0.14890321095784506,0.3036786079406738]},{"name":"diningtable","coordinates":[0.15761982070075142,0.5423936049143473,0.1259858767191569,0.18050781885782877]},{"name":"chair","coordinates":[0.2442091597451104,0.5536455392837525,0.04300715658399794,0.1478431224822998]},{"name":"vase","coordinates":[0.5532056212425231,0.6650173644224803,0.0267022795147366,0.04830707311630249]},{"name":"pottedplant","coordinates":[0.5532056212425231,0.6650173644224803,0.0267022795147366,0.04830707311630249]}]}
