{"src":"https://z0.muscache.cn/im/pictures/c45d990a-847e-48d5-984d-fc6daeb89da9.jpg?aki_policy=xx_large","name":"花果园财富广场/金融中心的景观房/北欧实木/进口电器/智能密码锁独立公寓777","listingId":22407020,"photoId":"1460-14","tags":[{"name":"sofa","coordinates":[0.7114514668782552,0.6260827382405599,0.47609515719943574,0.30034456253051756]},{"name":"bed","coordinates":[0.7114514668782552,0.6260827382405599,0.47609515719943574,0.30034456253051756]},{"name":"sofa","coordinates":[0.9075961642795138,0.7001152674357096,0.1776558452182346,0.3808282216389974]},{"name":"chair","coordinates":[0.3274717330932617,0.6067948659261068,0.0633582697974311,0.24572965304056804]},{"name":"pottedplant","coordinates":[0.8020651075575087,0.650596809387207,0.04683722390068902,0.08105107943216959]},{"name":"book","coordinates":[0.22409367031521268,0.6955041885375977,0.06212751070658366,0.029001190265019735]},{"name":"book","coordinates":[0.22255465189615886,0.7111731211344401,0.05805705918206109,0.024029703934987386]}]}
