{"src":"https://z0.muscache.cn/im/pictures/3ad59c65-1a48-4476-8c34-021f3042c166.jpg?aki_policy=xx_large","name":"花果园财富广场/金融中心的景观房/北欧实木/进口电器/智能密码锁独立公寓777","listingId":22407020,"photoId":"1460-19","tags":[{"name":"sofa","coordinates":[0.6590399000379774,0.7685780207316081,0.6651989830864801,0.43833878835042317]},{"name":"bed","coordinates":[0.4437527550591363,0.6391539255777995,0.5243813832600911,0.2573465983072917]},{"name":"sofa","coordinates":[0.5575042300754123,0.8144248326619467,0.366573969523112,0.33290332158406577]},{"name":"diningtable","coordinates":[0.17403814527723524,0.8340835571289062,0.32497374216715497,0.3188846906026204]},{"name":"chair","coordinates":[0.17094927893744574,0.5954249064127605,0.1294698715209961,0.18210536638895672]}]}
