{"src":"https://z0.muscache.cn/im/pictures/8943e744-7b83-4369-bf9d-9217c2d06bb4.jpg?aki_policy=xx_large","name":"花果园财富广场/金融中心的景观房/北欧实木/进口电器/智能密码锁独立公寓777","listingId":22407020,"photoId":"1460-24","tags":[{"name":"pottedplant","coordinates":[0.020998340182834196,0.6461484750111898,0.359126705593533,0.3482328097025553]},{"name":"sink","coordinates":[0.6098024050394694,0.6890396038691202,0.33260890112982855,0.2656376043955485]},{"name":"pottedplant","coordinates":[0.6081543657514784,-0.005595127741495773,0.14735805723402234,0.15356847445170085]},{"name":"bowl","coordinates":[0.40942619111802847,0.21507327556610106,0.1112863540649414,0.08138051033020019]},{"name":"bowl","coordinates":[0.22955438825819227,0.19462414185206095,0.08428738911946615,0.05611711343129476]},{"name":"cup","coordinates":[0.7044098774592082,0.3277285774548849,0.0728742758433024,0.06469595432281494]}]}
