{"src":"https://z0.muscache.cn/im/pictures/969f07a7-2953-41a8-8c28-44b1b0299a12.jpg?aki_policy=xx_large","name":"花果园财富广场/金融中心的景观房/北欧实木/进口电器/智能密码锁独立公寓777","listingId":22407020,"photoId":"1460-8","tags":[{"name":"sofa","coordinates":[0.6317833794487847,0.7124907175699869,0.7541641235351563,0.49253689448038734]},{"name":"bed","coordinates":[0.21422608693440756,0.6241206487019857,0.3954316880967882,0.30548003514607747]},{"name":"sofa","coordinates":[0.21422608693440756,0.6241206487019857,0.3954316880967882,0.30548003514607747]},{"name":"diningtable","coordinates":[0.44362636142306855,0.8619923909505208,0.5258916219075521,0.22624540328979492]},{"name":"pottedplant","coordinates":[0.4682456970214844,0.8365121841430664,0.13617433971828885,0.2323475996653239]},{"name":"bottle","coordinates":[0.19969942304823135,0.741059939066569,0.07279337777031793,0.1112852414449056]},{"name":"vase","coordinates":[0.4646373324924045,0.8957437515258789,0.07483760515848796,0.10582220554351807]}]}
