{"src":"https://a0.muscache.com/im/pictures/1160a81c-9969-4d8f-9475-6f328cdf8d1a.jpg?aki_policy=xx_large","name":"烟台海边小平方老年公寓","listingId":13099994,"photoId":"147-8","tags":[{"name":"person","coordinates":[0.27266537547111513,0.3640064875284831,0.12781673669815063,0.2536787033081055]},{"name":"person","coordinates":[0.3995188742876053,0.36563722292582196,0.08003520369529724,0.22758480707804363]},{"name":"chair","coordinates":[0.24368277490139006,0.45889743169148767,0.08947051167488099,0.16236591339111328]},{"name":"chair","coordinates":[0.44294831454753875,0.44996698697408033,0.07579341530799866,0.18311427434285482]},{"name":"laptop","coordinates":[0.36227671504020686,0.3900352120399475,0.036192047595977786,0.04393902619679769]},{"name":"tvmonitor","coordinates":[0.36227671504020686,0.3900352120399475,0.036192047595977786,0.04393902619679769]}]}
