{"src":"https://a0.muscache.com/im/pictures/a1d4042f-b8da-418c-b6e7-34d94938b09d.jpg?aki_policy=xx_large","name":"Modern app, close to Scheveningen","listingId":12939783,"photoId":"147-2","tags":[{"name":"refrigerator","coordinates":[0.13014651404486763,0.4824758847554525,0.2501537534925673,0.9310794830322265]},{"name":"oven","coordinates":[0.5127175649007162,0.8541663487752279,0.07160148620605469,0.2686884562174479]},{"name":"sink","coordinates":[0.29543611738416886,0.7486710866292318,0.10033003489176433,0.05584342082341512]},{"name":"bottle","coordinates":[0.8538795471191406,0.6535626729329427,0.03355192078484429,0.14707037607828777]},{"name":"bottle","coordinates":[0.9078029208713108,0.606272570292155,0.027611335118611652,0.12941336631774902]},{"name":"bottle","coordinates":[0.8985906812879775,0.6235342025756836,0.029999346203274196,0.11599485874176026]},{"name":"bottle","coordinates":[0.49205440945095485,0.6068164825439453,0.028437818421257866,0.10236128171284993]},{"name":"knife","coordinates":[0.7632486979166667,0.5753060022989909,0.025672078132629395,0.04448999166488647]}]}
