{"src":"https://a0.muscache.com/im/pictures/affab079-b575-43f3-8478-860b3524af1e.jpg?aki_policy=xx_large","name":"Квартира-студия на Кавказской","listingId":22439479,"photoId":"1472-1","tags":[{"name":"refrigerator","coordinates":[0.47172532563425523,0.6425727208455404,0.13349889030855291,0.7085176467895508]},{"name":"oven","coordinates":[0.6433401074559015,0.7530560811360677,0.0765649988260834,0.2693031628926595]},{"name":"bed","coordinates":[0.2356002116452526,0.5433210372924805,0.14020659018061302,0.14194941520690918]},{"name":"chair","coordinates":[0.7486180109429442,0.6771702448527018,0.06743969003497931,0.25752530097961424]},{"name":"tvmonitor","coordinates":[0.11356557387508166,0.3709486643473307,0.06708259183770689,0.08449159463246664]}]}
