{"src":"https://a0.muscache.com/im/pictures/affab079-b575-43f3-8478-860b3524af1e.jpg?aki_policy=xx_large","name":"Квартира-студия на Кавказской","listingId":22439479,"photoId":"1472-1","tags":[{"name":"refrigerator","coordinates":[0.4049758804799788,0.288313897450765,0.13349889030855291,0.7085176467895508]},{"name":"oven","coordinates":[0.6050576080428598,0.618404499689738,0.0765649988260834,0.2693031628926595]},{"name":"bed","coordinates":[0.16549691655494608,0.4723463296890259,0.14020659018061302,0.14194941520690918]},{"name":"chair","coordinates":[0.7148981659254545,0.5484075943628948,0.06743969003497931,0.25752530097961424]},{"name":"tvmonitor","coordinates":[0.08002427795622821,0.3287028670310974,0.06708259183770689,0.08449159463246664]}]}
