{"src":"https://a0.muscache.com/im/pictures/6fc1b288-ddb5-4210-8396-68b72f31d340.jpg?aki_policy=xx_large","name":"Красноярск,Киренского,2и","listingId":22461795,"photoId":"1478-7","tags":[{"name":"oven","coordinates":[0.16938195758395724,0.646289316813151,0.3167007022433811,0.7086374282836914]},{"name":"sink","coordinates":[0.8159430609809027,0.65777587890625,0.31589906480577257,0.2618497530619303]},{"name":"bottle","coordinates":[0.6995598687065973,0.4203004519144694,0.061734681659274634,0.2470616340637207]},{"name":"bottle","coordinates":[0.9500866360134549,0.4903393745422363,0.056136062410142684,0.20355669657389322]},{"name":"cup","coordinates":[0.5617263370090061,0.4624093691507975,0.06968064837985569,0.11041680177052816]},{"name":"spoon","coordinates":[0.530532964070638,0.39242375691731773,0.026956717173258465,0.06153998772303263]},{"name":"spoon","coordinates":[0.5659776899549697,0.3929732322692871,0.02277041541205512,0.05235093434651693]}]}
