{"src":"https://a0.muscache.com/im/pictures/6fc1b288-ddb5-4210-8396-68b72f31d340.jpg?aki_policy=xx_large","name":"Красноярск,Киренского,2и","listingId":22461795,"photoId":"1478-7","tags":[{"name":"oven","coordinates":[0.011031606462266697,0.29197060267130537,0.3167007022433811,0.7086374282836914]},{"name":"sink","coordinates":[0.6579935285780165,0.5268510023752848,0.31589906480577257,0.2618497530619303]},{"name":"bottle","coordinates":[0.66869252787696,0.29676963488260905,0.061734681659274634,0.2470616340637207]},{"name":"bottle","coordinates":[0.9220186048083836,0.3885610262552897,0.056136062410142684,0.20355669657389322]},{"name":"cup","coordinates":[0.5268860128190782,0.4072009682655334,0.06968064837985569,0.11041680177052816]},{"name":"spoon","coordinates":[0.5170546054840087,0.36165376305580144,0.026956717173258465,0.06153998772303263]},{"name":"spoon","coordinates":[0.5545924822489421,0.3667977650960286,0.02277041541205512,0.05235093434651693]}]}
