{"src":"https://a0.muscache.com/im/pictures/04a19c5f-f027-4b7f-813f-492102ebff09.jpg?aki_policy=xx_large","name":"Cosy apartment-near beach","listingId":12962082,"photoId":"148-3","tags":[{"name":"book","coordinates":[0.10836067199707031,0.5033692677815755,0.254815936088562,0.8866309483846029]},{"name":"diningtable","coordinates":[0.7009558200836181,0.7801342646280924,0.3082354307174683,0.3878821055094401]},{"name":"chair","coordinates":[0.835882568359375,0.8116865793863932,0.2135643482208252,0.391693115234375]},{"name":"chair","coordinates":[0.5870938777923584,0.79988218943278,0.17268449068069458,0.3853314717610677]},{"name":"chair","coordinates":[0.9450229644775391,0.7259974797566732,0.09655028581619263,0.45883248647054037]},{"name":"chair","coordinates":[0.581716251373291,0.5739520390828451,0.07221388220787048,0.128882098197937]},{"name":"chair","coordinates":[0.6572446823120117,0.5811693827311198,0.08872629404067993,0.10097447236378988]},{"name":"vase","coordinates":[0.7055388450622558,0.6361000061035156,0.024712862074375154,0.05953735113143921]}]}
