{"src":"https://z0.muscache.cn/im/pictures/b49db16e-4037-4ed3-8faf-343ae5cef918.jpg?aki_policy=xx_large","name":"Apartment on the first floor. Near the subway","listingId":22478198,"photoId":"1483-1","tags":[{"name":"oven","coordinates":[1.9230712890625,0.8162842432657877,0.6680452700014468,0.3814565976460775]},{"name":"sink","coordinates":[0.33482414528175636,0.888447125752767,0.5283637717918114,0.11009376843770345]},{"name":"bottle","coordinates":[0.5419501410590277,0.7595523198445638,0.09807075217918114,0.15588111877441407]},{"name":"bottle","coordinates":[1.5198411729600694,0.6861333847045898,0.08624232963279442,0.13542801539103191]},{"name":"cup","coordinates":[0.8363659894024884,0.7987096786499024,0.10639420262089481,0.07273412545522054]},{"name":"cup","coordinates":[0.6519713790328414,0.3413445790608724,0.07002271722864221,0.031137977043787637]},{"name":"cup","coordinates":[0.5760990284107349,0.35003426869710286,0.062082813404224536,0.02936702569325765]},{"name":"cup","coordinates":[0.6600553159360533,0.48526493708292645,0.04089514414469401,0.026280142863591514]},{"name":"cup","coordinates":[0.5789030287000868,0.48821961085001625,0.04198354791711878,0.025327022870381674]},{"name":"cup","coordinates":[0.6164932250976562,0.4856273333231608,0.0358674755802861,0.02450435161590576]}]}
