{"src":"https://z0.muscache.cn/im/pictures/b49db16e-4037-4ed3-8faf-343ae5cef918.jpg?aki_policy=xx_large","name":"Apartment on the first floor. Near the subway","listingId":22478198,"photoId":"1483-1","tags":[{"name":"oven","coordinates":[0.8112957000732421,0.8162842432657877,0.28183159828186033,0.3814565976460775]},{"name":"sink","coordinates":[0.14125393629074096,0.888447125752767,0.22290346622467042,0.11009376843770345]},{"name":"bottle","coordinates":[0.22863521575927734,0.7595523198445638,0.041373598575592044,0.15588111877441407]},{"name":"bottle","coordinates":[0.6411829948425293,0.6861333847045898,0.03638348281383515,0.13542801539103191]},{"name":"cup","coordinates":[0.3528419017791748,0.7987096786499024,0.04488505423069,0.07273412545522054]},{"name":"cup","coordinates":[0.27505042552948,0.3413445790608724,0.029540833830833436,0.031137977043787637]},{"name":"cup","coordinates":[0.2430417776107788,0.35003426869710286,0.026191186904907227,0.02936702569325765]},{"name":"cup","coordinates":[0.27846083641052244,0.48526493708292645,0.017252638936042786,0.026280142863591514]},{"name":"cup","coordinates":[0.2442247152328491,0.48821961085001625,0.017711809277534483,0.025327022870381674]},{"name":"cup","coordinates":[0.26008307933807373,0.4856273333231608,0.015131591260433197,0.02450435161590576]}]}
