{"src":"https://a0.muscache.com/im/pictures/112581b5-f3d5-4e30-9152-3e528532bb44.jpg?aki_policy=xx_large","name":"Komfortowe mieszkanie, Wilda, blisko centrum i A2","listingId":22479939,"photoId":"1484-4","tags":[{"name":"sofa","coordinates":[-0.012147288852267818,0.7284989039103191,0.5140471564398872,0.2629962921142578]},{"name":"pottedplant","coordinates":[0.6855231073167589,0.011317396163940424,0.20517347123887802,0.36192480723063153]},{"name":"sofa","coordinates":[0.26187460157606335,0.7029864947001139,0.27232208251953127,0.26777718861897787]},{"name":"tvmonitor","coordinates":[0.5793478488922119,0.38378176689147947,0.08168253368801541,0.22173096338907877]},{"name":"chair","coordinates":[-0.0006838745541042773,0.6638404448827108,0.09976914723714193,0.08591914176940918]},{"name":"vase","coordinates":[0.7770366085900201,0.2896660884221395,0.07449021869235568,0.10652654965718587]},{"name":"wine-glass","coordinates":[0.8031295471721225,0.4493169665336609,0.029638732804192436,0.09143545627593994]},{"name":"wine-glass","coordinates":[0.8427283843358357,0.454292106628418,0.025878816180759007,0.09858824412027994]},{"name":"wine-glass","coordinates":[0.8611995326148139,0.45680448214213054,0.02478873994615343,0.09922176996866862]}]}
