{"src":"https://a0.muscache.com/im/pictures/112581b5-f3d5-4e30-9152-3e528532bb44.jpg?aki_policy=xx_large","name":"Komfortowe mieszkanie, Wilda, blisko centrum i A2","listingId":22479939,"photoId":"1484-4","tags":[{"name":"sofa","coordinates":[0.24487628936767578,0.859997049967448,0.5140471564398872,0.2629962921142578]},{"name":"pottedplant","coordinates":[0.7881098429361979,0.1922797997792562,0.20517347123887802,0.36192480723063153]},{"name":"sofa","coordinates":[0.398035642835829,0.8368750890096028,0.27232208251953127,0.26777718861897787]},{"name":"tvmonitor","coordinates":[0.6201891157362196,0.4946472485860189,0.08168253368801541,0.22173096338907877]},{"name":"chair","coordinates":[0.04920069906446669,0.7068000157674154,0.09976914723714193,0.08591914176940918]},{"name":"vase","coordinates":[0.814281717936198,0.3429293632507324,0.07449021869235568,0.10652654965718587]},{"name":"wine-glass","coordinates":[0.8179489135742187,0.49503469467163086,0.029638732804192436,0.09143545627593994]},{"name":"wine-glass","coordinates":[0.8556677924262153,0.503586228688558,0.025878816180759007,0.09858824412027994]},{"name":"wine-glass","coordinates":[0.8735939025878906,0.5064153671264648,0.02478873994615343,0.09922176996866862]}]}
