{"src":"https://a0.muscache.com/im/pictures/4600c31d-36f3-432b-a7dc-ae1d6ebc9fcd.jpg?aki_policy=xx_large","name":"Beautiful Home and only 1 exit from Lackland AFB.","listingId":22495023,"photoId":"1488-2","tags":[{"name":"diningtable","coordinates":[0.28284831047058107,0.7180687586466471,0.3130009174346924,0.5682477951049805]},{"name":"sofa","coordinates":[0.10375742912292481,0.6745402018229166,0.21151058673858641,0.6850353876749674]},{"name":"tvmonitor","coordinates":[0.9004636764526367,0.4196279207865397,0.17795954942703246,0.709506607055664]},{"name":"pottedplant","coordinates":[0.09603920578956604,0.17397541999816896,0.19449061155319214,0.3609828313191732]},{"name":"chair","coordinates":[0.4046982765197754,0.33636083602905276,0.16505393981933594,0.23472148577372234]},{"name":"refrigerator","coordinates":[0.5510769367218018,0.17375981012980143,0.09282262325286865,0.26134767532348635]},{"name":"microwave","coordinates":[0.4186864852905273,0.08766694863637288,0.07368950843811035,0.05587738752365112]},{"name":"remote","coordinates":[0.26320078372955324,0.5433190027872722,0.08435287475585937,0.031118430693944297]}]}
