{"src":"https://a0.muscache.com/im/pictures/4d49b961-6d24-4be6-8e0f-2c9ef09bdb58.jpg?aki_policy=xx_large","name":"Beautiful Home and only 1 exit from Lackland AFB.","listingId":22495023,"photoId":"1488-2","tags":[{"name":"chair","coordinates":[0.01710605621337892,0.7085198720296224,0.21874167919158935,0.2850358327229818]},{"name":"chair","coordinates":[0.2612876296043396,0.6835488637288412,0.183310866355896,0.3263860066731771]},{"name":"chair","coordinates":[0.6857477426528931,0.7206138769785563,0.23106188774108888,0.257143497467041]},{"name":"chair","coordinates":[0.46731407642364503,0.6863177458445231,0.1738521099090576,0.31686150232950844]},{"name":"refrigerator","coordinates":[0.6576690435409546,0.29308764139811194,0.16920943260192872,0.2549554189046224]},{"name":"oven","coordinates":[0.438946783542633,0.4169813474019368,0.15348031520843505,0.12175636291503907]},{"name":"microwave","coordinates":[0.4610969305038452,0.28576135635375977,0.12098422050476074,0.07857748667399088]},{"name":"oven","coordinates":[0.3956547200679779,0.4776700814565023,0.07028943300247192,0.07887919743855794]},{"name":"sink","coordinates":[0.25719483494758605,0.4844105879465739,0.08181599378585816,0.04774141311645508]},{"name":"bottle","coordinates":[0.39373720437288284,0.3992311974366506,0.023101457953453065,0.06646508773167928]},{"name":"bottle","coordinates":[0.6233644403517247,0.4083912134170532,0.01820899695158005,0.05992147127787272]},{"name":"bottle","coordinates":[0.5779239661991595,0.4202213247617086,0.016844747960567473,0.04182339509328206]}]}
