{"src":"https://a0.muscache.com/im/pictures/4600c31d-36f3-432b-a7dc-ae1d6ebc9fcd.jpg?aki_policy=xx_large","name":"Beautiful Home and only 1 exit from Lackland AFB.","listingId":22495023,"photoId":"1488-3","tags":[{"name":"diningtable","coordinates":[0.12634785175323487,0.43394486109415686,0.3130009174346924,0.5682477951049805]},{"name":"sofa","coordinates":[-0.0019978642463684,0.3320225079854329,0.21151058673858641,0.6850353876749674]},{"name":"tvmonitor","coordinates":[0.8114839017391204,0.06487461725870769,0.17795954942703246,0.709506607055664]},{"name":"pottedplant","coordinates":[-0.0012060999870300293,-0.0065159956614176395,0.19449061155319214,0.3609828313191732]},{"name":"chair","coordinates":[0.32217130661010746,0.2190000931421916,0.16505393981933594,0.23472148577372234]},{"name":"refrigerator","coordinates":[0.5046656250953675,0.04308597246805826,0.09282262325286865,0.26134767532348635]},{"name":"microwave","coordinates":[0.3818417310714721,0.05972825487454732,0.07368950843811035,0.05587738752365112]},{"name":"remote","coordinates":[0.22102434635162355,0.5277597874403,0.08435287475585937,0.031118430693944297]}]}
