{"src":"https://a0.muscache.com/im/pictures/2659cb34-e0bd-438d-8958-760600ae8089.jpg?aki_policy=xx_large","name":"丹麦风情 简约又不简单  体验住在北极附近的生活 距离长风商务区5分钟","listingId":22499462,"photoId":"1489-12","tags":[{"name":"bed","coordinates":[0.1556709077623155,0.4999433358510335,0.3348863813612196,0.2674560864766439]},{"name":"sofa","coordinates":[0.08075708283318413,0.6398575782775878,0.09931277169121636,0.21001796722412108]},{"name":"pottedplant","coordinates":[0.5741558710734049,0.475371805826823,0.07433620029025607,0.17603747049967447]},{"name":"book","coordinates":[0.2188281668557061,0.7108243962128957,0.08280938996209039,0.05562972625096639]},{"name":"pottedplant","coordinates":[0.41575419372982453,0.4745761652787526,0.04549161593119303,0.06563655138015748]}]}
