{"src":"https://a0.muscache.com/im/pictures/4fc71ea1-916b-4f0a-ab9c-1ff917f12a3c.jpg?aki_policy=xx_large","name":"丹麦风情 简约又不简单  体验住在北极附近的生活 距离长风商务区5分钟","listingId":22499462,"photoId":"1489-12","tags":[{"name":"sink","coordinates":[0.32000401814778645,0.8459465026855468,0.31688878801133896,0.2495104153951009]},{"name":"toilet","coordinates":[0.8088088989257812,0.8809117635091146,0.2326657189263238,0.2249530792236328]},{"name":"vase","coordinates":[0.05504601266649034,0.8846279780069987,0.08632529576619466,0.20173969268798828]},{"name":"bottle","coordinates":[0.5487682766384548,0.6273203531901042,0.02794338862101237,0.1373224417368571]},{"name":"bottle","coordinates":[0.344516118367513,0.6879992167154948,0.030649264653523762,0.10367561976114908]},{"name":"bottle","coordinates":[0.5249375237358941,0.629297383626302,0.025628373357984756,0.11931556065877279]}]}
