{"src":"https://a0.muscache.com/im/pictures/2659cb34-e0bd-438d-8958-760600ae8089.jpg?aki_policy=xx_large","name":"丹麦风情 简约又不简单  体验住在北极附近的生活 距离长风商务区5分钟","listingId":22499462,"photoId":"1489-12","tags":[{"name":"bed","coordinates":[0.3231140984429253,0.6336713790893554,0.3348863813612196,0.2674560864766439]},{"name":"sofa","coordinates":[0.1304134686787923,0.7448665618896484,0.09931277169121636,0.21001796722412108]},{"name":"pottedplant","coordinates":[0.611323971218533,0.5633905410766602,0.07433620029025607,0.17603747049967447]},{"name":"book","coordinates":[0.2602328618367513,0.7386392593383789,0.08280938996209039,0.05562972625096639]},{"name":"pottedplant","coordinates":[0.438500001695421,0.5073944409688314,0.04549161593119303,0.06563655138015748]}]}
