{"src":"https://a0.muscache.com/im/pictures/14fd2482-0ff8-46f9-af10-979cf64eb6d4.jpg?aki_policy=xx_large","name":"丹麦风情 简约又不简单  体验住在北极附近的生活 距离长风商务区5分钟","listingId":22499462,"photoId":"1489-6","tags":[{"name":"bed","coordinates":[0.3654023700290256,0.6672547499338786,0.6262778811984592,0.32367900212605794]},{"name":"bed","coordinates":[0.6395940356784398,0.5577804565429688,0.3617855072021484,0.4136717478434245]},{"name":"sofa","coordinates":[0.6395940356784398,0.5577804565429688,0.3617855072021484,0.4136717478434245]},{"name":"tvmonitor","coordinates":[0.01895217365688749,0.3725497325261434,0.16216224034627277,0.2275363763173421]},{"name":"sofa","coordinates":[0.6087128851148818,0.5516579230626424,0.1940641827053494,0.16616657574971516]},{"name":"pottedplant","coordinates":[0.29859355953004624,0.46777184009552003,0.043097355630662706,0.07944413820902506]}]}
