{"src":"https://a0.muscache.com/im/pictures/f594464c-08be-4e76-92c9-66d22ef89773.jpg?aki_policy=xx_large","name":"丹麦风情 简约又不简单  体验住在北极附近的生活 距离长风商务区5分钟","listingId":22499462,"photoId":"1489-14","tags":[{"name":"pottedplant","coordinates":[0.44250176747639974,0.38462080955505373,0.14273897806803384,0.3251726468404134]},{"name":"pottedplant","coordinates":[0.5809278117285834,0.4803448677062988,0.08243106206258138,0.20525862375895182]},{"name":"cup","coordinates":[0.6046962844000922,0.5630261341730753,0.08031410641140407,0.15102890332539876]},{"name":"vase","coordinates":[0.47555797629886204,0.569785475730896,0.07109118037753635,0.15236515998840333]},{"name":"cup","coordinates":[0.33467151323954264,0.5681810855865478,0.07092415491739909,0.1387960116068522]},{"name":"bottle","coordinates":[0.4161341574456957,0.4685707012812297,0.023094725608825684,0.15322750409444172]}]}
