{"src":"https://a0.muscache.com/im/pictures/fe8eab05-434f-4f81-af7c-9ba5f8d2dafd.jpg?aki_policy=xx_large","name":"Bright beach apartment!","listingId":12968977,"photoId":"149-8","tags":[{"name":"car","coordinates":[0.2328431659274631,0.8175275166829427,0.11721044116550022,0.164679749806722]},{"name":"bus","coordinates":[0.3309094534979926,0.5659756978352865,0.09473827150132921,0.12430745760599772]},{"name":"car","coordinates":[0.08665124045477973,0.6307891209920248,0.06143274307250977,0.06800273259480795]},{"name":"car","coordinates":[0.12510383394029406,0.6087575276692708,0.06462177170647515,0.060066099961598715]},{"name":"car","coordinates":[0.04552361700269911,0.6795220692952474,0.04592538409762913,0.06256302992502848]},{"name":"car","coordinates":[0.4299420250786675,0.5082975069681803,0.03130367596944173,0.03723009427388509]},{"name":"bicycle","coordinates":[0.37101737128363715,0.6423790613810222,0.027027220196194118,0.042382657527923584]},{"name":"car","coordinates":[0.03028119934929742,0.5093968073527019,0.01781226396560669,0.02903074026107788]},{"name":"person","coordinates":[0.16884565353393555,0.530746046702067,0.008904509411917793,0.033915074666341145]},{"name":"person","coordinates":[0.09690773222181533,0.49183085759480794,0.0075596054395039875,0.02553085486094157]}]}
