{"src":"https://a0.muscache.com/im/pictures/9d06e6d6-808f-4f71-89ae-f9eafd600cdf.jpg?aki_policy=xx_large","name":"Studio Apartment near Rosarito Beach","listingId":22507091,"photoId":"1493-1","tags":[{"name":"chair","coordinates":[0.27964296694155094,0.578818925221761,0.32673023365162035,0.26278578440348305]},{"name":"chair","coordinates":[0.5430395620840567,0.5543280522028605,0.28063343189380785,0.22123560905456544]},{"name":"oven","coordinates":[0.3106476960358796,0.35731230974197387,0.33702392578125,0.11319762070973714]},{"name":"chair","coordinates":[0.8799572979962385,0.5896575848261516,0.11901731137876158,0.2473153591156006]},{"name":"sofa","coordinates":[0.8799572979962385,0.5896575848261516,0.11901731137876158,0.2473153591156006]},{"name":"microwave","coordinates":[0.3472742292616102,0.26108664671579995,0.277793460422092,0.08282675743103027]},{"name":"refrigerator","coordinates":[0.9294771406385633,0.2405829906463623,0.08236154626916956,0.2729583422342936]},{"name":"sink","coordinates":[0.6829858426694517,0.40173562864462536,0.20288410893192999,0.023460568984349568]}]}
