{"src":"https://a0.muscache.com/im/pictures/9d06e6d6-808f-4f71-89ae-f9eafd600cdf.jpg?aki_policy=xx_large","name":"Studio Apartment near Rosarito Beach","listingId":22507091,"photoId":"1493-1","tags":[{"name":"chair","coordinates":[0.4430080837673611,0.7102118174235026,0.32673023365162035,0.26278578440348305]},{"name":"chair","coordinates":[0.6833562780309607,0.6649458567301433,0.28063343189380785,0.22123560905456544]},{"name":"oven","coordinates":[0.47915965892650464,0.41391112009684244,0.33702392578125,0.11319762070973714]},{"name":"chair","coordinates":[0.9394659536856192,0.7133152643839519,0.11901731137876158,0.2473153591156006]},{"name":"sofa","coordinates":[0.9394659536856192,0.7133152643839519,0.11901731137876158,0.2473153591156006]},{"name":"microwave","coordinates":[0.48617095947265626,0.3025000254313151,0.277793460422092,0.08282675743103027]},{"name":"refrigerator","coordinates":[0.9706579137731481,0.3770621617635091,0.08236154626916956,0.2729583422342936]},{"name":"sink","coordinates":[0.7844278971354167,0.41346591313680015,0.20288410893192999,0.023460568984349568]}]}
