{"src":"https://a0.muscache.com/im/pictures/c9d2f98e-1189-4289-bbb8-3af86cba5e42.jpg?aki_policy=xx_large","name":"Urocze mieszkanie blisko centrum Poznania","listingId":22512986,"photoId":"1495-6","tags":[{"name":"diningtable","coordinates":[0.5647036658393012,0.38481998443603516,0.4329689025878906,0.25732218424479164]},{"name":"oven","coordinates":[-0.005463335249159068,0.45918173789978023,0.1956174850463867,0.5092815081278483]},{"name":"chair","coordinates":[0.4423363473680284,0.6465762933095296,0.22649928198920355,0.34482603073120116]},{"name":"sink","coordinates":[0.3516166739993625,0.44874763290087377,0.12298421859741211,0.0554129958152771]},{"name":"bottle","coordinates":[0.39813757075203793,0.3289566397666931,0.03220411671532525,0.1255131959915161]}]}
