{"src":"https://a0.muscache.com/im/pictures/4134ff56-330d-4372-8dc3-884a1c32e235.jpg?aki_policy=xx_large","name":"1Room[Pribate House] 3mins Silim stn. Full options","listingId":22524413,"photoId":"1498-1","tags":[{"name":"bed","coordinates":[0.3091079288058811,0.5014746109644572,0.7174096849229601,0.23970812161763508]},{"name":"diningtable","coordinates":[0.018034945593939894,0.6772250970204671,0.31998026106092664,0.3132319450378418]},{"name":"cup","coordinates":[0.12815412945217555,0.6257274707158407,0.11411088307698568,0.15013769467671711]},{"name":"book","coordinates":[0.2666062474250794,0.5260817964871725,0.018284434742397732,0.11679990291595459]},{"name":"book","coordinates":[0.249385142326355,0.5332747260729472,0.018289592530992296,0.11486127376556396]},{"name":"cup","coordinates":[0.121064821879069,0.42088155746459965,0.03320202297634549,0.05419603983561198]},{"name":"book","coordinates":[0.2530297166771359,0.5480928897857665,0.009291671382056343,0.10015796025594076]},{"name":"book","coordinates":[0.23514453834957547,0.5614404201507568,0.010524055692884657,0.07937568028767904]},{"name":"book","coordinates":[0.2744972089926402,0.543508239587148,0.007977958520253499,0.104539688428243]},{"name":"book","coordinates":[0.22178304658995734,0.5623581290245055,0.00774612029393514,0.07041440804799398]}]}
