{"src":"https://a0.muscache.com/im/pictures/4134ff56-330d-4372-8dc3-884a1c32e235.jpg?aki_policy=xx_large","name":"1Room[Pribate House] 3mins Silim stn. Full options","listingId":22524413,"photoId":"1498-1","tags":[{"name":"bed","coordinates":[0.6678127712673612,0.6213286717732748,0.7174096849229601,0.23970812161763508]},{"name":"diningtable","coordinates":[0.17802507612440321,0.833841069539388,0.31998026106092664,0.3132319450378418]},{"name":"cup","coordinates":[0.1852095709906684,0.7007963180541992,0.11411088307698568,0.15013769467671711]},{"name":"book","coordinates":[0.27574846479627824,0.5844817479451497,0.018284434742397732,0.11679990291595459]},{"name":"book","coordinates":[0.25852993859185114,0.5907053629557292,0.018289592530992296,0.11486127376556396]},{"name":"cup","coordinates":[0.13766583336724175,0.4479795773824056,0.03320202297634549,0.05419603983561198]},{"name":"book","coordinates":[0.2576755523681641,0.5981718699137369,0.009291671382056343,0.10015796025594076]},{"name":"book","coordinates":[0.2404065661960178,0.6011282602945963,0.010524055692884657,0.07937568028767904]},{"name":"book","coordinates":[0.27848618825276694,0.5957780838012695,0.007977958520253499,0.104539688428243]},{"name":"book","coordinates":[0.2256561067369249,0.5975653330485026,0.00774612029393514,0.07041440804799398]}]}
