{"src":"https://a0.muscache.com/im/pictures/37bb7b37-ed90-4e7f-9533-cf21f2de752f.jpg?aki_policy=xx_large","name":"NEW YORK STYLE STUDIO APARTMENT- COZY &amp; AFFORDABLE","listingId":22529390,"photoId":"1499-9","tags":[{"name":"diningtable","coordinates":[0.06589192284478082,0.6412806351979574,0.3561065673828125,0.3377274513244629]},{"name":"chair","coordinates":[0.357052575217353,0.7233086903889974,0.09072739283243815,0.2723059336344401]},{"name":"sink","coordinates":[0.7581992361280653,0.6886593580245971,0.13491836123996312,0.1696969191233317]},{"name":"chair","coordinates":[0.016910605960422098,0.9321621616681417,0.25230208502875434,0.07367908954620361]},{"name":"chair","coordinates":[0.09372916751437717,0.6478649616241455,0.10256841447618273,0.15152858098347982]},{"name":"sink","coordinates":[0.630256372027927,0.5426542659600576,0.11468621359931098,0.05029429197311401]},{"name":"bottle","coordinates":[0.7463698354032304,0.5014191230138143,0.01896076864666409,0.08230681419372558]}]}
