{"src":"https://a0.muscache.com/im/pictures/37bb7b37-ed90-4e7f-9533-cf21f2de752f.jpg?aki_policy=xx_large","name":"NEW YORK STYLE STUDIO APARTMENT- COZY &amp; AFFORDABLE","listingId":22529390,"photoId":"1499-8","tags":[{"name":"diningtable","coordinates":[0.24394520653618706,0.8101443608601888,0.3561065673828125,0.3377274513244629]},{"name":"chair","coordinates":[0.4024162716335721,0.8594616572062175,0.09072739283243815,0.2723059336344401]},{"name":"sink","coordinates":[0.8256584167480469,0.773507817586263,0.13491836123996312,0.1696969191233317]},{"name":"chair","coordinates":[0.14306164847479927,0.9690017064412435,0.25230208502875434,0.07367908954620361]},{"name":"chair","coordinates":[0.14501337475246853,0.7236292521158855,0.10256841447618273,0.15152858098347982]},{"name":"sink","coordinates":[0.6875994788275824,0.5678014119466146,0.11468621359931098,0.05029429197311401]},{"name":"bottle","coordinates":[0.7558502197265625,0.5425725301106771,0.01896076864666409,0.08230681419372558]}]}
