{"src":"https://a0.muscache.com/im/pictures/732d4b86-93a3-4724-a47f-a9873103641d.jpg?aki_policy=xx_large","name":"NEW YORK STYLE STUDIO APARTMENT- COZY &amp; AFFORDABLE","listingId":22529390,"photoId":"1499-8","tags":[{"name":"diningtable","coordinates":[0.6211125479804145,0.6236589431762696,0.321174324883355,0.26194966634114586]},{"name":"chair","coordinates":[0.739484691619873,0.8046761274337768,0.19772485097249348,0.17872236569722494]},{"name":"sink","coordinates":[0.12217511071099174,0.6640054941177369,0.20441046820746528,0.1601344585418701]},{"name":"chair","coordinates":[0.5960920757717556,0.6922550439834595,0.07469800313313803,0.2355554739634196]},{"name":"chair","coordinates":[0.5772273619969687,0.6172358194986979,0.05385004149542914,0.27228546142578125]},{"name":"chair","coordinates":[0.804745700624254,0.6199957211812337,0.10762963824801974,0.13394425710042318]},{"name":"sink","coordinates":[0.31612255308363174,0.5260925054550171,0.10650085873074001,0.05457336107889811]},{"name":"spoon","coordinates":[0.12631824943754408,0.351432204246521,0.034160961045159234,0.16038854916890463]},{"name":"chair","coordinates":[0.6297908941904704,0.5677107334136963,0.09545259475708008,0.05291128158569336]},{"name":"spoon","coordinates":[0.10850224362479316,0.3510883887608846,0.03230352666642931,0.14704063733418782]},{"name":"pottedplant","coordinates":[0.40725141101413304,0.2732768734296163,0.04081342485215929,0.06878775755564372]}]}
