{"src":"https://a0.muscache.com/im/pictures/36b21268-9a0b-4654-9bce-15a1a7219e50.jpg?aki_policy=xx_large","name":"聚会做饭二七区万达两室套房","listingId":22554205,"photoId":"1505-1","tags":[{"name":"chair","coordinates":[0.13639814058939614,0.5765162467956543,0.1520880487230089,0.40704034169514974]},{"name":"chair","coordinates":[0.27716634008619523,0.5756116231282552,0.12374628914727105,0.40373675028483075]},{"name":"chair","coordinates":[0.36228502061631945,0.5723584334055583,0.09686940511067708,0.24773918787638347]},{"name":"sofa","coordinates":[0.40979019271002876,0.5718276659647624,0.14969333012898764,0.13928623199462892]},{"name":"chair","coordinates":[0.3463757250044081,0.5478086650371552,0.09049838383992513,0.06445690393447875]},{"name":"chair","coordinates":[0.2695927143096924,0.5528147260348002,0.06863041983710395,0.05199930667877197]},{"name":"vase","coordinates":[0.21017294857237073,0.5260203202565511,0.03389791117774116,0.0812022844950358]},{"name":"tvmonitor","coordinates":[0.6506238142649333,0.5055375893910725,0.032554743025037976,0.07751862208048503]}]}
