{"src":"https://a0.muscache.com/im/pictures/36b21268-9a0b-4654-9bce-15a1a7219e50.jpg?aki_policy=xx_large","name":"聚会做饭二七区万达两室套房","listingId":22554205,"photoId":"1505-1","tags":[{"name":"chair","coordinates":[0.2124421649509006,0.7800364176432292,0.1520880487230089,0.40704034169514974]},{"name":"chair","coordinates":[0.33903948465983075,0.7774799982706706,0.12374628914727105,0.40373675028483075]},{"name":"chair","coordinates":[0.410719723171658,0.69622802734375,0.09686940511067708,0.24773918787638347]},{"name":"sofa","coordinates":[0.4846368577745226,0.6414707819620769,0.14969333012898764,0.13928623199462892]},{"name":"chair","coordinates":[0.3916249169243707,0.5800371170043945,0.09049838383992513,0.06445690393447875]},{"name":"chair","coordinates":[0.30390792422824436,0.5788143793741862,0.06863041983710395,0.05199930667877197]},{"name":"vase","coordinates":[0.2271219041612413,0.566621462504069,0.03389791117774116,0.0812022844950358]},{"name":"tvmonitor","coordinates":[0.6669011857774523,0.5442969004313151,0.032554743025037976,0.07751862208048503]}]}
