{"src":"https://a0.muscache.com/im/pictures/3caee2d9-eff7-4b79-a4e6-246fc55766ad.jpg?aki_policy=xx_large","name":"聚会做饭二七区万达两室套房","listingId":22554205,"photoId":"1505-7","tags":[{"name":"sofa","coordinates":[0.5776782353719077,0.5570160071055095,0.42410418192545574,0.4272235552469889]},{"name":"tvmonitor","coordinates":[0.06678866810268824,0.5010637601216634,0.16082544326782228,0.26027355194091795]},{"name":"chair","coordinates":[0.6055872122446695,0.5279711484909058,0.04680888917711046,0.08932900428771973]},{"name":"chair","coordinates":[0.5653005560239156,0.5228021423021952,0.04131644301944309,0.09244490464528402]},{"name":"chair","coordinates":[0.5345704687966241,0.527434511979421,0.0389658874935574,0.0801374355951945]},{"name":"vase","coordinates":[0.6309028744697571,0.5017224202553432,0.017305392689175077,0.03202090859413147]}]}
