{"src":"https://a0.muscache.com/im/pictures/3caee2d9-eff7-4b79-a4e6-246fc55766ad.jpg?aki_policy=xx_large","name":"聚会做饭二七区万达两室套房","listingId":22554205,"photoId":"1505-7","tags":[{"name":"sofa","coordinates":[0.7897303263346355,0.770627784729004,0.42410418192545574,0.4272235552469889]},{"name":"tvmonitor","coordinates":[0.14720138973659938,0.6312005360921223,0.16082544326782228,0.26027355194091795]},{"name":"chair","coordinates":[0.6289916568332248,0.5726356506347656,0.04680888917711046,0.08932900428771973]},{"name":"chair","coordinates":[0.5859587775336371,0.5690245946248372,0.04131644301944309,0.09244490464528402]},{"name":"chair","coordinates":[0.5540534125434028,0.5675032297770183,0.0389658874935574,0.0801374355951945]},{"name":"vase","coordinates":[0.6395555708143447,0.5177328745524089,0.017305392689175077,0.03202090859413147]}]}
