{"src":"https://a0.muscache.com/im/pictures/88da7856-aca9-4a49-9123-ed120c3c6d36.jpg?aki_policy=xx_large","name":"Comodidad y tranquilidad hidrocalida!!!","listingId":22555566,"photoId":"1506-0","tags":[{"name":"refrigerator","coordinates":[0.7253020226955413,0.32012797991434727,0.1538091778755188,0.43554817835489906]},{"name":"oven","coordinates":[0.4871477246284485,0.42930966218312583,0.16477181911468505,0.2633211612701416]},{"name":"microwave","coordinates":[0.39850943088531493,0.27500135501225786,0.11011347770690919,0.08469062646230062]},{"name":"sink","coordinates":[0.3057084858417511,0.5282537738482157,0.057362353801727294,0.024930898348490396]},{"name":"bowl","coordinates":[0.38682684004306794,0.469012239575386,0.044122904539108276,0.03078433076540629]},{"name":"clock","coordinates":[0.31059314012527467,0.24611963431040446,0.027712559700012206,0.04249062538146973]},{"name":"bowl","coordinates":[0.5893056154251098,0.24466144839922588,0.04138922691345215,0.01711958646774292]},{"name":"bowl","coordinates":[0.5308699883520603,0.29747825960318247,0.023301832377910614,0.02277997930844625]}]}
