{"src":"https://a0.muscache.com/im/pictures/88da7856-aca9-4a49-9123-ed120c3c6d36.jpg?aki_policy=xx_large","name":"Comodidad y tranquilidad hidrocalida!!!","listingId":22555566,"photoId":"1506-0","tags":[{"name":"refrigerator","coordinates":[0.8022066116333008,0.5379020690917968,0.1538091778755188,0.43554817835489906]},{"name":"oven","coordinates":[0.5695336341857911,0.5609702428181966,0.16477181911468505,0.2633211612701416]},{"name":"microwave","coordinates":[0.4535661697387695,0.3173466682434082,0.11011347770690919,0.08469062646230062]},{"name":"sink","coordinates":[0.3343896627426147,0.5407192230224609,0.057362353801727294,0.024930898348490396]},{"name":"bowl","coordinates":[0.4088882923126221,0.4844044049580892,0.044122904539108276,0.03078433076540629]},{"name":"clock","coordinates":[0.32444941997528076,0.26736494700113933,0.027712559700012206,0.04249062538146973]},{"name":"bowl","coordinates":[0.6100002288818359,0.25322124163309734,0.04138922691345215,0.01711958646774292]},{"name":"bowl","coordinates":[0.5425209045410156,0.3088682492574056,0.023301832377910614,0.02277997930844625]}]}
