{"src":"https://a0.muscache.com/im/pictures/c2ce278e-23d4-4c3a-aff1-d51f2d066e28.jpg?aki_policy=xx_large","name":"扬州晓苑-阳光美墅-田园风格","listingId":22560675,"photoId":"1507-16","tags":[{"name":"diningtable","coordinates":[0.5711870193481445,0.7912560145060221,0.4366602897644043,0.22363370259602863]},{"name":"chair","coordinates":[0.39499332904815676,0.8860931396484375,0.21233830451965333,0.22505003611246746]},{"name":"chair","coordinates":[0.6693522930145264,0.8981145222981771,0.2340390205383301,0.2024598439534505]},{"name":"sofa","coordinates":[0.5874438285827637,0.6342093149820963,0.22058544158935547,0.12396299044291179]},{"name":"pottedplant","coordinates":[0.6325009346008301,0.4375154177347819,0.08073360919952392,0.16910607020060223]},{"name":"vase","coordinates":[0.7031309604644775,0.691067886352539,0.029294538497924804,0.10406169096628824]},{"name":"book","coordinates":[0.7529455184936523,0.744818369547526,0.06690305471420288,0.042328508694966634]},{"name":"book","coordinates":[0.7561366558074951,0.7673449198404948,0.0698255181312561,0.017705241839090984]}]}
