{"src":"https://a0.muscache.com/im/pictures/6b071fd8-53d7-40d2-b8fd-598ab9e79030.jpg?aki_policy=xx_large","name":"扬州晓苑-阳光美墅-田园风格","listingId":22560675,"photoId":"1507-16","tags":[{"name":"chair","coordinates":[0.862774403889974,0.6381365458170573,0.17322121726142037,0.20218294461568195]},{"name":"diningtable","coordinates":[0.6782384660508898,0.5966143290201823,0.21436587439643012,0.14295838673909506]},{"name":"sofa","coordinates":[0.49414884779188367,0.5994130452473958,0.20843461354573567,0.14326418240865071]},{"name":"sofa","coordinates":[0.16189183129204643,0.5542255401611328,0.2112115012274848,0.11021004517873129]},{"name":"pottedplant","coordinates":[0.09699523713853624,0.46889899571736654,0.11177243126763238,0.11692216396331787]},{"name":"chair","coordinates":[0.2815404891967773,0.5689229965209961,0.09983636008368599,0.11821835041046143]},{"name":"chair","coordinates":[0.35942806667751737,0.5518004735310872,0.05548488299051921,0.08702298800150553]},{"name":"pottedplant","coordinates":[0.7080089569091796,0.5158579508463542,0.05526266098022461,0.05161825815836588]},{"name":"pottedplant","coordinates":[0.28807411193847654,0.4952871640523275,0.049629592895507814,0.04514170487721761]},{"name":"vase","coordinates":[0.7073351542154948,0.5286582628885905,0.03434317641788059,0.02668197751045227]}]}
