{"src":"https://a0.muscache.com/im/pictures/8aab45c0-97c3-4531-be1b-f0fdda88b39e.jpg?aki_policy=xx_large","name":"扬州晓苑-阳光美墅-田园风格","listingId":22560675,"photoId":"1507-32","tags":[{"name":"chair","coordinates":[0.3045314038559341,0.5114148775736491,0.6311709755345395,0.40767892201741535]},{"name":"diningtable","coordinates":[0.23512566056608158,0.3899654150009155,0.5607257959254891,0.21077561378479004]},{"name":"chair","coordinates":[0.04901618640508679,0.5441094716389974,0.2995716845229722,0.34448572794596355]},{"name":"pottedplant","coordinates":[0.3343523506312489,0.28456740379333495,0.28524215994118984,0.18088045120239257]},{"name":"vase","coordinates":[0.43564241678760984,0.39521586100260414,0.10498812984561656,0.08205210367838542]},{"name":"pottedplant","coordinates":[0.8190973815495288,0.25427809556325276,0.10411717422781229,0.05083088874816895]},{"name":"pottedplant","coordinates":[0.7378665337602187,0.2607588489850362,0.058092244113911555,0.046449589729309085]}]}
