{"src":"https://a0.muscache.com/im/pictures/dabbbfe9-4f1b-4b29-b0a9-eff6fc805c1a.jpg?aki_policy=xx_large","name":"扬州晓苑-阳光美墅-田园风格","listingId":22560675,"photoId":"1507-6","tags":[{"name":"toilet","coordinates":[0.1279873728752136,0.6716258366902669,0.23965072631835938,0.41283772786458334]},{"name":"sink","coordinates":[0.6017805099487304,0.5668296178181966,0.46469879150390625,0.16373488108317058]},{"name":"pottedplant","coordinates":[0.40773611068725585,0.3663839340209961,0.1651194214820862,0.33192288080851234]},{"name":"bottle","coordinates":[0.9386947631835938,0.43237892786661786,0.06373900175094604,0.14735530217488607]},{"name":"pottedplant","coordinates":[0.13968980312347412,0.4133803685506185,0.057518774271011354,0.10624976952870686]},{"name":"bottle","coordinates":[0.985714340209961,0.44224061965942385,0.02953760027885437,0.14705716768900554]}]}
