{"src":"https://a0.muscache.com/im/pictures/a9b6935b-6836-46a0-bf9a-e0a75cc85555.jpg?aki_policy=xx_large","name":"扬州晓苑-阳光美墅-田园风格","listingId":22560675,"photoId":"1507-19","tags":[{"name":"diningtable","coordinates":[0.03704538345336911,0.5443772951761882,0.9563364028930664,0.4504153569539388]},{"name":"sofa","coordinates":[-0.005967783927917469,0.3467628002166748,0.5719446659088134,0.37880449295043944]},{"name":"pottedplant","coordinates":[0.6723792076110839,0.2914753278096517,0.2582509994506836,0.5562665939331055]},{"name":"vase","coordinates":[0.6950946807861328,0.531582768758138,0.2061941146850586,0.2753746032714844]},{"name":"pottedplant","coordinates":[0.06933938860893249,0.01087651252746584,0.1397044539451599,0.2291387875874837]},{"name":"cup","coordinates":[0.3401942849159241,0.7962347269058228,0.1312875509262085,0.20351545015970865]},{"name":"bowl","coordinates":[0.35975171923637395,0.7083053588867188,0.18085228204727172,0.13515052795410157]},{"name":"cake","coordinates":[0.1325947642326355,0.7626458247502645,0.155253005027771,0.14066294034322102]},{"name":"pottedplant","coordinates":[0.2565719783306122,0.16958455244700116,0.06898742914199829,0.13481059074401855]},{"name":"spoon","coordinates":[0.31044738888740536,0.907917320728302,0.043972575664520265,0.09377127488454183]}]}
