{"src":"https://a0.muscache.com/im/pictures/930dc719-1b94-4f45-8273-44e3b160d015.jpg?aki_policy=xx_large","name":"扬州晓苑-阳光美墅-田园风格","listingId":22560675,"photoId":"1507-11","tags":[{"name":"pottedplant","coordinates":[0.7365068852901459,0.4498523950576782,0.18158961534500123,0.19097832043965657]},{"name":"microwave","coordinates":[0.7106312155723572,0.6311974684397379,0.1543358087539673,0.20138298670450847]},{"name":"apple","coordinates":[0.7499876618385315,0.8582788864771524,0.17684314250946045,0.14218118985493977]},{"name":"apple","coordinates":[0.7646093130111694,0.8557555953661601,0.06530241966247559,0.07257376511891683]},{"name":"apple","coordinates":[0.8065006107091904,0.9263094524542491,0.05997031331062317,0.06315881013870239]},{"name":"apple","coordinates":[0.8266374349594117,0.8404100934664408,0.05629963874816894,0.05214528242746989]},{"name":"apple","coordinates":[0.8059000134468078,0.8800225734710694,0.045972037315368655,0.052455870310465495]},{"name":"apple","coordinates":[0.7625138372182847,0.917807525396347,0.045481377840042116,0.05105614264806112]},{"name":"bowl","coordinates":[0.03657445311546326,0.5944701691468556,0.04694110155105591,0.03364101648330688]},{"name":"bottle","coordinates":[0.19485166668891907,0.5733682592709859,0.016946685314178467,0.04286385377248128]}]}
