{"src":"https://a0.muscache.com/im/pictures/57fa5642-dca1-48bf-a16e-3cadd1df773b.jpg?aki_policy=xx_large","name":"Modern renovated Dutch house in historic center","listingId":12975837,"photoId":"151-6","tags":[{"name":"bed","coordinates":[0.7835845205003474,0.7382540384928385,0.41911632969944407,0.4805668512980143]},{"name":"chair","coordinates":[0.5285776865987665,0.5693123499552409,0.1400176705048265,0.2927607854207357]},{"name":"book","coordinates":[0.35938751241910616,0.6282311757405599,0.07321516385585422,0.06549947659174601]},{"name":"book","coordinates":[0.37068771139626044,0.6038720448811848,0.06020431041386162,0.06386579672495524]},{"name":"vase","coordinates":[0.3203645431804856,0.3129381815592448,0.03823347270613001,0.09876688321431477]},{"name":"book","coordinates":[0.7011691180262987,0.4208375930786133,0.015475224752737632,0.07186523278554281]},{"name":"book","coordinates":[0.6810883395451486,0.42193781534830727,0.014821810056303342,0.06697467168172201]},{"name":"book","coordinates":[0.663610865292738,0.4197585105895996,0.013318772942262693,0.06297106345494588]},{"name":"book","coordinates":[0.6448490654452962,0.4086735725402832,0.014230823583119109,0.0563861886660258]}]}
