{"src":"https://a0.muscache.com/im/pictures/50e2a43b-05d0-4eae-9411-7b6da5d87c74.jpg?aki_policy=xx_large","name":"[Open]카페하우스 Cafe house in Sejong/KĎI 옆","listingId":22574357,"photoId":"1510-8","tags":[{"name":"diningtable","coordinates":[0.31290223863389754,0.7177228291829427,0.45613653394911025,0.6780064264933269]},{"name":"diningtable","coordinates":[0.35408047570122614,0.7355717341105144,0.23680769602457682,0.49391053517659506]},{"name":"chair","coordinates":[0.35408047570122614,0.7355717341105144,0.23680769602457682,0.49391053517659506]},{"name":"diningtable","coordinates":[0.314355723063151,0.513443406422933,0.3439366234673394,0.1970251242319743]},{"name":"chair","coordinates":[0.25507053799099394,0.7028701146443684,0.11996441947089301,0.40761632919311525]},{"name":"chair","coordinates":[0.1553468280368381,0.5907804489135742,0.09690665139092339,0.27248751322428383]},{"name":"sofa","coordinates":[0.43378897772894964,0.44070879618326825,0.13423982196384007,0.12762102286020915]},{"name":"pottedplant","coordinates":[0.3672347174750434,0.39845574696858727,0.04846605194939507,0.11826414267222086]},{"name":"chair","coordinates":[0.3081341001722548,0.41096270879109703,0.026865498224894205,0.05036929448445638]}]}
