{"src":"https://a0.muscache.com/im/pictures/80e93b72-f9a9-4147-ad4d-6c4c58dd6540.jpg?aki_policy=xx_large","name":"Studio apartment, free parking","listingId":22598668,"photoId":"1514-4","tags":[{"name":"diningtable","coordinates":[0.43366189002990724,0.745642344156901,0.35955331325531004,0.40314130783081054]},{"name":"refrigerator","coordinates":[0.12861578464508056,0.5636000315348307,0.25420141220092773,0.5471054077148437]},{"name":"chair","coordinates":[0.48837594985961913,0.7880692799886068,0.19135199785232543,0.360417111714681]},{"name":"chair","coordinates":[0.3643768787384033,0.7377579371134441,0.15777416229248048,0.40051215489705405]},{"name":"oven","coordinates":[0.13129570484161376,0.8892829259236653,0.24510843753814698,0.19602004686991373]},{"name":"chair","coordinates":[0.8943246841430664,0.536485226949056,0.15123683214187622,0.20184974670410155]},{"name":"chair","coordinates":[0.5910616397857666,0.6855374018351237,0.05684155821800232,0.29679644902547203]},{"name":"microwave","coordinates":[0.10244965553283691,0.22828288078308107,0.15242207050323486,0.10343864758809408]},{"name":"chair","coordinates":[0.9573436737060547,0.4859224637349447,0.05190204381942749,0.1217721939086914]},{"name":"bowl","coordinates":[0.5025635242462159,0.5546614329020182,0.0763641357421875,0.06086918512980143]}]}
