{"src":"https://a0.muscache.com/im/pictures/80e93b72-f9a9-4147-ad4d-6c4c58dd6540.jpg?aki_policy=xx_large","name":"Studio apartment, free parking","listingId":22598668,"photoId":"1514-4","tags":[{"name":"diningtable","coordinates":[0.2538852334022522,0.5440716902414957,0.35955331325531004,0.40314130783081054]},{"name":"refrigerator","coordinates":[0.0015150785446166881,0.2900473276774089,0.25420141220092773,0.5471054077148437]},{"name":"chair","coordinates":[0.39269995093345644,0.6078607241312662,0.19135199785232543,0.360417111714681]},{"name":"chair","coordinates":[0.2854897975921631,0.537501859664917,0.15777416229248048,0.40051215489705405]},{"name":"oven","coordinates":[0.008741486072540272,0.7912729024887084,0.24510843753814698,0.19602004686991373]},{"name":"chair","coordinates":[0.8187062680721283,0.4355603535970052,0.15123683214187622,0.20184974670410155]},{"name":"chair","coordinates":[0.5626408606767654,0.5371391773223877,0.05684155821800232,0.29679644902547203]},{"name":"microwave","coordinates":[0.026238620281219482,0.17656355698903403,0.15242207050323486,0.10343864758809408]},{"name":"chair","coordinates":[0.9313926517963409,0.425036366780599,0.05190204381942749,0.1217721939086914]},{"name":"bowl","coordinates":[0.4643814563751221,0.5242268403371175,0.0763641357421875,0.06086918512980143]}]}
