{"src":"https://a0.muscache.com/im/pictures/4142aceb-e4d3-4c28-8d09-b5e0257a3d81.jpg?aki_policy=xx_large","name":"姜雪雪的客栈.小清新Loft.哈西客站旁.紧邻宜家.万达广场.西城红场.交通便利.","listingId":22604234,"photoId":"1516-5","tags":[{"name":"diningtable","coordinates":[0.520357632637024,0.6778888543446858,0.24864716529846193,0.2951263745625814]},{"name":"bed","coordinates":[0.0946498155593872,0.1839383363723755,0.2556589126586914,0.20676385561625163]},{"name":"chair","coordinates":[0.12441126108169556,0.5553303241729737,0.22796785831451416,0.16852903366088867]},{"name":"vase","coordinates":[0.7982690870761872,0.7728598554929097,0.062450969219207765,0.09415608247121175]},{"name":"vase","coordinates":[0.755803944170475,0.7278013785680135,0.04997257888317108,0.09581542015075684]},{"name":"vase","coordinates":[0.6213840141892433,0.6903277039527893,0.04512068927288056,0.07109045187632243]}]}
