{"src":"https://a0.muscache.com/im/pictures/69d460b2-fd62-4190-80ee-57f02f92daef.jpg?aki_policy=xx_large","name":"姜雪雪的客栈.小清新Loft.哈西客站旁.紧邻宜家.万达广场.西城红场.交通便利.","listingId":22604234,"photoId":"1516-0","tags":[{"name":"bed","coordinates":[0.5903109550476074,0.7938673655192058,0.703050184249878,0.42634722391764324]},{"name":"chair","coordinates":[0.3133218765258789,0.7612333297729492,0.1441194534301758,0.26408836046854656]},{"name":"chair","coordinates":[0.22606093883514405,0.7260889689127604,0.08250529766082763,0.2855159441630046]},{"name":"teddy-bear","coordinates":[0.588558578491211,0.5435130437215169,0.1063112497329712,0.13063138326009113]},{"name":"chair","coordinates":[0.3313967227935791,0.5638102849324544,0.057277315855026247,0.042484037081400555]},{"name":"bottle","coordinates":[0.43872923851013185,0.5575736363728842,0.01972850561141968,0.05065446694691976]},{"name":"bottle","coordinates":[0.3915081024169922,0.5452175776163737,0.01645311713218689,0.05941633780797322]}]}
