{"src":"https://a0.muscache.com/im/pictures/69d460b2-fd62-4190-80ee-57f02f92daef.jpg?aki_policy=xx_large","name":"姜雪雪的客栈.小清新Loft.哈西客站旁.紧邻宜家.万达广场.西城红场.交通便利.","listingId":22604234,"photoId":"1516-0","tags":[{"name":"bed","coordinates":[0.23878586292266846,0.5806937535603842,0.703050184249878,0.42634722391764324]},{"name":"chair","coordinates":[0.241262149810791,0.6291891495386759,0.1441194534301758,0.26408836046854656]},{"name":"chair","coordinates":[0.18480829000473023,0.5833309968312581,0.08250529766082763,0.2855159441630046]},{"name":"teddy-bear","coordinates":[0.5354029536247253,0.4781973520914713,0.1063112497329712,0.13063138326009113]},{"name":"chair","coordinates":[0.302758064866066,0.5425682663917542,0.057277315855026247,0.042484037081400555]},{"name":"bottle","coordinates":[0.428864985704422,0.5322464028994243,0.01972850561141968,0.05065446694691976]},{"name":"bottle","coordinates":[0.38328154385089874,0.515509408712387,0.01645311713218689,0.05941633780797322]}]}
