{"src":"https://a0.muscache.com/im/pictures/43b943d2-4871-4973-95cd-f8433b8f61da.jpg?aki_policy=xx_large","name":"Wohnung direkt am Karl Heine Kanal zu vermieten!!!","listingId":22611881,"photoId":"1519-1","tags":[{"name":"sofa","coordinates":[0.014991831779479992,0.48499517440795903,0.48198304176330564,0.4202480951944987]},{"name":"pottedplant","coordinates":[0.6904596447944641,0.617559814453125,0.2902272939682007,0.3645465850830078]},{"name":"pottedplant","coordinates":[0.7432493895292281,0.4009955167770386,0.07870126366615296,0.2191346327463786]},{"name":"chair","coordinates":[0.5532120585441589,0.47807124455769856,0.08180162906646729,0.16022472381591796]},{"name":"chair","coordinates":[0.42071169912815093,0.48051133950551356,0.08803960680961609,0.12717172304789226]},{"name":"pottedplant","coordinates":[0.6754495024681091,0.49095707734425864,0.07428381443023682,0.14811081886291505]},{"name":"pottedplant","coordinates":[0.8267098188400268,0.44886621634165447,0.08766961097717285,0.07316861152648926]},{"name":"vase","coordinates":[0.6904941260814667,0.5542004823684693,0.047410643100738524,0.08147139549255371]},{"name":"clock","coordinates":[0.8478962898254395,0.3627681493759155,0.04096145629882812,0.039598703384399414]}]}
