{"src":"https://a0.muscache.com/im/pictures/43b943d2-4871-4973-95cd-f8433b8f61da.jpg?aki_policy=xx_large","name":"Wohnung direkt am Karl Heine Kanal zu vermieten!!!","listingId":22611881,"photoId":"1519-1","tags":[{"name":"sofa","coordinates":[0.2559833526611328,0.6951192220052084,0.48198304176330564,0.4202480951944987]},{"name":"pottedplant","coordinates":[0.8355732917785644,0.799833106994629,0.2902272939682007,0.3645465850830078]},{"name":"pottedplant","coordinates":[0.7826000213623047,0.5105628331502279,0.07870126366615296,0.2191346327463786]},{"name":"chair","coordinates":[0.5941128730773926,0.5581836064656576,0.08180162906646729,0.16022472381591796]},{"name":"chair","coordinates":[0.464731502532959,0.5440972010294597,0.08803960680961609,0.12717172304789226]},{"name":"pottedplant","coordinates":[0.7125914096832275,0.5650124867757161,0.07428381443023682,0.14811081886291505]},{"name":"pottedplant","coordinates":[0.8705446243286132,0.4854505221048991,0.08766961097717285,0.07316861152648926]},{"name":"vase","coordinates":[0.714199447631836,0.5949361801147461,0.047410643100738524,0.08147139549255371]},{"name":"clock","coordinates":[0.8683770179748536,0.3825675010681152,0.04096145629882812,0.039598703384399414]}]}
