{"src":"https://a0.muscache.com/im/pictures/0b2b3aa8-7f13-46c9-8bbe-2172c16a2bc4.jpg?aki_policy=xx_large","name":"Wohnung direkt am Karl Heine Kanal zu vermieten!!!","listingId":22611881,"photoId":"1519-14","tags":[{"name":"diningtable","coordinates":[1.0209415859646267,0.5326041539510091,0.7597954644097222,0.5036314010620118]},{"name":"pottedplant","coordinates":[0.12650020387437608,0.31068712870279946,0.24756846957736545,0.2859639167785645]},{"name":"chair","coordinates":[0.6770186954074435,0.4275033950805664,0.20211609734429253,0.3373215357462565]},{"name":"chair","coordinates":[0.12582856284247504,0.509859275817871,0.23872867160373265,0.20620991388956705]},{"name":"chair","coordinates":[0.6747551388210721,0.5242674827575684,0.15467323727077908,0.19162500699361165]},{"name":"cup","coordinates":[1.3460067749023437,0.41772934595743816,0.08025460243225098,0.08046363194783529]},{"name":"cup","coordinates":[0.917691887749566,0.4298448880513509,0.07737264103359646,0.05959594249725342]},{"name":"cup","coordinates":[1.0252204895019532,0.4027087211608887,0.05274573432074653,0.08612884680430094]}]}
