{"src":"https://a0.muscache.com/im/pictures/1aca3014-5d4b-42c6-9274-4a1612c399e3.jpg?aki_policy=xx_large","name":"Canal apartment","listingId":12995407,"photoId":"152-0","tags":[{"name":"sofa","coordinates":[0.3750051975250244,0.7228126525878906,0.2783345222473145,0.3123109181722005]},{"name":"chair","coordinates":[0.36191911697387696,0.8333271026611329,0.10652599334716797,0.19427841504414875]},{"name":"diningtable","coordinates":[0.6247292041778565,0.6834940592447917,0.1356550931930542,0.14012627601623534]},{"name":"book","coordinates":[0.3573113679885864,0.7717013676961263,0.07615234851837158,0.04202994505564372]},{"name":"book","coordinates":[0.2920968770980835,0.7221808115641276,0.07542697191238404,0.03502798080444336]},{"name":"book","coordinates":[0.28044164180755615,0.7397720972696941,0.08463733196258545,0.030338760217030844]}]}
