{"src":"https://a0.muscache.com/im/pictures/9a28e22e-298f-4837-b7af-28810ae0d02b.jpg?aki_policy=xx_large","name":"Nearby Subway,Bus stop in front,Comfortable Room 2","listingId":22632516,"photoId":"1525-2","tags":[{"name":"oven","coordinates":[0.0027452826499939076,0.4337304433186849,0.26717803478240965,0.5784623463948567]},{"name":"chair","coordinates":[0.436538553237915,0.6404393831888835,0.2784886360168457,0.3546954472859701]},{"name":"refrigerator","coordinates":[0.48616182804107666,0.3296849250793457,0.16431803703308107,0.29411023457845054]},{"name":"microwave","coordinates":[0.6778050005435944,0.41555198033650714,0.1683928370475769,0.12549495697021484]},{"name":"bottle","coordinates":[0.3539092317223549,0.46546480655670164,0.027108284831047057,0.07759528160095215]},{"name":"clock","coordinates":[0.7725607633590698,0.19177523454030354,0.03878674507141113,0.04921987851460775]},{"name":"cup","coordinates":[0.5839426726102829,0.5992344051599502,0.03200612664222717,0.030793859561284383]}]}
