{"src":"https://a0.muscache.com/im/pictures/a4da56a2-7e6d-45ab-8e33-5f9c77301358.jpg?aki_policy=xx_large","name":"Charming, sunny, best location, 2BR + homeoffice","listingId":13128785,"photoId":"153-7","tags":[{"name":"toilet","coordinates":[0.216542387008667,0.7458782196044922,0.1776350975036621,0.30785916646321615]},{"name":"pottedplant","coordinates":[0.1615070581436157,0.4426722526550293,0.10629762411117553,0.1956248124440511]},{"name":"sink","coordinates":[0.5006228923797608,0.45555512110392254,0.08935614824295043,0.09250051975250244]},{"name":"vase","coordinates":[0.16767362356185914,0.504803466796875,0.02627886235713959,0.05640287399291992]},{"name":"vase","coordinates":[0.4336844921112061,0.39024597803751626,0.015399625897407532,0.030058646202087404]}]}
