{"src":"https://a0.muscache.com/im/pictures/a294a558-ef88-4dec-a379-49ed9bfe7455.jpg?aki_policy=xx_large","name":"Characteristic home nearby the beach","listingId":13003685,"photoId":"153-3","tags":[{"name":"sofa","coordinates":[0.3996426052517361,0.5449392318725585,0.3665083567301432,0.34218244552612304]},{"name":"chair","coordinates":[0.7924268086751302,0.4764132817586263,0.11452628241644966,0.19558825492858886]},{"name":"chair","coordinates":[0.649826897515191,0.4658323605855306,0.08439640469021267,0.17966477076212564]},{"name":"vase","coordinates":[0.717431386311849,0.4644095738728841,0.03746753268771701,0.08231279055277506]},{"name":"pottedplant","coordinates":[0.5876171535915798,0.34978214899698895,0.035960960388183597,0.043722657362620036]}]}
