{"src":"https://a0.muscache.com/im/pictures/a4da56a2-7e6d-45ab-8e33-5f9c77301358.jpg?aki_policy=xx_large","name":"Charming, sunny, best location, 2BR + homeoffice","listingId":13128785,"photoId":"153-7","tags":[{"name":"toilet","coordinates":[0.22706637912326388,0.5919486363728841,0.3157957288953993,0.30785916646321615]},{"name":"pottedplant","coordinates":[0.19263688193427192,0.3448598464330037,0.18897355397542318,0.1956248124440511]},{"name":"sink","coordinates":[0.8105685657925076,0.40930486122767135,0.1588553746541341,0.09250051975250244]},{"name":"vase","coordinates":[0.27472745312584773,0.4766020298004151,0.04671797752380371,0.05640287399291992]},{"name":"vase","coordinates":[0.7573060962888929,0.37521665493647255,0.02737711270650228,0.030058646202087404]}]}
