{"src":"https://a0.muscache.com/im/pictures/a4da56a2-7e6d-45ab-8e33-5f9c77301358.jpg?aki_policy=xx_large","name":"Charming, sunny, best location, 2BR + homeoffice","listingId":13128785,"photoId":"153-7","tags":[{"name":"toilet","coordinates":[0.38496424357096354,0.7458782196044922,0.3157957288953993,0.30785916646321615]},{"name":"pottedplant","coordinates":[0.2871236589219835,0.4426722526550293,0.18897355397542318,0.1956248124440511]},{"name":"sink","coordinates":[0.8899962531195746,0.45555512110392254,0.1588553746541341,0.09250051975250244]},{"name":"vase","coordinates":[0.2980864418877496,0.504803466796875,0.04671797752380371,0.05640287399291992]},{"name":"vase","coordinates":[0.7709946526421441,0.39024597803751626,0.02737711270650228,0.030058646202087404]}]}
