{"src":"https://a0.muscache.com/im/pictures/4c815dd5-5c23-44e8-affa-02581de0d4c8.jpg?aki_policy=xx_large","name":"Characteristic home nearby the beach","listingId":13003685,"photoId":"153-7","tags":[{"name":"diningtable","coordinates":[0.44131891755613706,0.7441526412963867,0.8496964105390028,0.5027950922648112]},{"name":"chair","coordinates":[0.7052382415495787,0.7613358815511068,0.21023835267682636,0.17603699366251627]},{"name":"chair","coordinates":[0.45794211169594773,0.6424875259399414,0.12765456273209477,0.10832223892211915]},{"name":"chair","coordinates":[0.3306921666657618,0.59157288869222,0.08403652421793563,0.09334506193796793]},{"name":"tvmonitor","coordinates":[0.3519661209498784,0.25307908058166506,0.07561713477817983,0.08338899612426758]},{"name":"chair","coordinates":[0.24019164190762898,0.5479513168334961,0.06439992601130885,0.07235952218373616]},{"name":"bowl","coordinates":[0.32928560109831045,0.3921598116556803,0.05492111110620983,0.040972145398457845]},{"name":"bottle","coordinates":[0.5324801616655447,0.3741079648335775,0.011276469121300736,0.043712671597798666]}]}
