{"src":"https://a0.muscache.com/im/pictures/189327bc-5f31-49db-b3b5-0dee6e843e26.jpg?aki_policy=xx_large","name":"晓眼镜民宿(独立房间，卫浴共享)点我头像可以关注我的其他房源","listingId":22675700,"photoId":"1536-0","tags":[{"name":"refrigerator","coordinates":[-0.002085280418396007,0.3453813552856445,0.21881766319274903,0.47333602905273436]},{"name":"diningtable","coordinates":[0.6423188090324401,0.4855185429255168,0.15560648441314698,0.19795641899108887]},{"name":"chair","coordinates":[0.6099049329757691,0.4960467100143432,0.06641783714294433,0.1730013370513916]},{"name":"chair","coordinates":[0.7845207184553146,0.5352755546569824,0.06748581528663636,0.16336434682210285]},{"name":"bottle","coordinates":[0.0660542830824852,0.7684371153513591,0.04329814016819,0.12145795822143554]},{"name":"bottle","coordinates":[0.13114064633846284,0.8900745987892151,0.03951302170753479,0.11196887493133545]},{"name":"bowl","coordinates":[0.72469462454319,0.4775332192579905,0.030571955442428588,0.023585816224416096]}]}
