{"src":"https://a0.muscache.com/im/pictures/189327bc-5f31-49db-b3b5-0dee6e843e26.jpg?aki_policy=xx_large","name":"晓眼镜民宿(独立房间，卫浴共享)点我头像可以关注我的其他房源","listingId":22675700,"photoId":"1536-0","tags":[{"name":"refrigerator","coordinates":[0.10732355117797851,0.5820493698120117,0.21881766319274903,0.47333602905273436]},{"name":"diningtable","coordinates":[0.7201220512390136,0.5844967524210612,0.15560648441314698,0.19795641899108887]},{"name":"chair","coordinates":[0.6431138515472412,0.582547378540039,0.06641783714294433,0.1730013370513916]},{"name":"chair","coordinates":[0.8182636260986328,0.6169577280680338,0.06748581528663636,0.16336434682210285]},{"name":"bottle","coordinates":[0.0877033531665802,0.8291660944620768,0.04329814016819,0.12145795822143554]},{"name":"bottle","coordinates":[0.15089715719223024,0.9460590362548829,0.03951302170753479,0.11196887493133545]},{"name":"bowl","coordinates":[0.7399806022644043,0.4893261273701986,0.030571955442428588,0.023585816224416096]}]}
