{"src":"https://a0.muscache.com/im/pictures/3cd691ad-ca87-4d92-abb9-6de9c935451c.jpg?aki_policy=xx_large","name":"可做饭！双电脑迪迪民宿酒店式公寓D","listingId":22677072,"photoId":"1537-0","tags":[{"name":"sofa","coordinates":[0.4645490010579427,0.5883916060129801,0.24840749104817708,0.31683212916056314]},{"name":"chair","coordinates":[0.4645490010579427,0.5883916060129801,0.24840749104817708,0.31683212916056314]},{"name":"diningtable","coordinates":[0.00303204854329428,0.7947787761688233,0.3560921139187283,0.18191410700480143]},{"name":"bed","coordinates":[0.15441567103068035,0.5414042711257935,0.28168231116400827,0.22626967430114747]},{"name":"chair","coordinates":[-0.0060155020819770005,0.7598870595296223,0.17677681181165908,0.09318974812825521]},{"name":"chair","coordinates":[0.12241879039340547,0.5792685349782308,0.04977727466159397,0.10170818964640299]}]}
