{"src":"https://a0.muscache.com/im/pictures/c88630ee-540b-45cf-ae83-bfe0941c0f87.jpg?aki_policy=xx_large","name":"可做饭！双电脑迪迪民宿酒店式公寓D","listingId":22677072,"photoId":"1537-9","tags":[{"name":"pottedplant","coordinates":[0.23839215172661674,0.724580709139506,0.16096661885579427,0.22051924069722492]},{"name":"pottedplant","coordinates":[0.005608431498209637,0.7788963953653972,0.19298843807644314,0.17277565002441406]},{"name":"pottedplant","coordinates":[0.6302247630225287,0.667251177628835,0.06981382369995118,0.10539632638295492]},{"name":"car","coordinates":[0.7077615976333618,0.6291609207789104,0.07964519394768609,0.0501219908396403]},{"name":"pottedplant","coordinates":[0.7785865373081631,0.7249618470668793,0.028316325611538358,0.06332118908564249]},{"name":"fire-hydrant","coordinates":[0.7785865373081631,0.7249618470668793,0.028316325611538358,0.06332118908564249]},{"name":"pottedplant","coordinates":[0.4965436021486918,0.6966649770736695,0.025072195794847277,0.039635388056437175]},{"name":"person","coordinates":[0.6325385431448619,0.6334665993849437,0.015302484565311008,0.055987664063771564]}]}
