{"src":"https://a0.muscache.com/im/pictures/3cd691ad-ca87-4d92-abb9-6de9c935451c.jpg?aki_policy=xx_large","name":"可做饭！双电脑迪迪民宿酒店式公寓D","listingId":22677072,"photoId":"1537-0","tags":[{"name":"sofa","coordinates":[0.5887527465820312,0.7468076705932617,0.24840749104817708,0.31683212916056314]},{"name":"chair","coordinates":[0.5887527465820312,0.7468076705932617,0.24840749104817708,0.31683212916056314]},{"name":"diningtable","coordinates":[0.18107810550265843,0.885735829671224,0.3560921139187283,0.18191410700480143]},{"name":"bed","coordinates":[0.2952568266126845,0.6545391082763672,0.28168231116400827,0.22626967430114747]},{"name":"chair","coordinates":[0.08237290382385254,0.80648193359375,0.17677681181165908,0.09318974812825521]},{"name":"chair","coordinates":[0.14730742772420247,0.6301226298014323,0.04977727466159397,0.10170818964640299]}]}
