{"src":"https://a0.muscache.com/im/pictures/82d6c426-5a2b-485a-8def-82d1f67b4333.jpg?aki_policy=xx_large","name":"可做饭！双电脑迪迪民宿酒店式公寓D","listingId":22677072,"photoId":"1537-7","tags":[{"name":"diningtable","coordinates":[0.12333579593234592,0.621632703145345,0.2914856380886502,0.3721514383951823]},{"name":"chair","coordinates":[0.8185976664225261,0.6424890677134195,0.17620324028862847,0.35313717524210614]},{"name":"chair","coordinates":[0.03511861165364584,0.7155546188354492,0.20315062204996745,0.2957322438557943]},{"name":"bed","coordinates":[0.6451122495863173,0.5812552134195964,0.263060548570421,0.1453393300374349]},{"name":"chair","coordinates":[0.32609311209784614,0.6187629699707031,0.12343073950873482,0.28781929016113283]},{"name":"refrigerator","coordinates":[0.52360557185279,0.45146568616231286,0.07711984316507975,0.2804056485493978]}]}
