{"src":"https://a0.muscache.com/im/pictures/144b7810-2220-4bde-9481-0ce7c1c81e1b.jpg?aki_policy=xx_large","name":"Very Bright Beach &amp; Cosy House ( loft)","listingId":13024094,"photoId":"154-1","tags":[{"name":"diningtable","coordinates":[0.5725827958848742,0.7667487462361654,0.29231832292344834,0.3423449198404948]},{"name":"chair","coordinates":[0.5315486060248481,0.8272867202758789,0.14361565907796223,0.352823543548584]},{"name":"chair","coordinates":[0.6766296810574002,0.7735879262288411,0.13060394922892252,0.3771898905436198]},{"name":"chair","coordinates":[0.42893011305067275,0.7635606129964193,0.0923938963148329,0.3073668162027995]},{"name":"chair","coordinates":[0.05599763658311632,0.6340891520182291,0.07036859724256728,0.1313061555226644]},{"name":"pottedplant","coordinates":[0.4707625495062934,0.5765992482503255,0.06341723865932888,0.08905696868896484]},{"name":"bottle","coordinates":[0.5737636142306858,0.60557435353597,0.020003879070281984,0.09819420178731282]},{"name":"vase","coordinates":[0.4715121799045139,0.5998618443806966,0.02868775526682536,0.04169498682022095]}]}
