{"src":"https://a0.muscache.com/im/pictures/1e8211a4-357a-4f66-9622-7d87b75d58c3.jpg?aki_policy=xx_large","name":"2bedRoom lovely ","listingId":13141062,"photoId":"154-1","tags":[{"name":"sofa","coordinates":[0.3235048082139757,0.6552797317504883,0.2662762324015299,0.29532651901245116]},{"name":"sofa","coordinates":[0.6680265214708117,0.6477326075236003,0.2563892576429579,0.28337084452311195]},{"name":"pottedplant","coordinates":[0.10589618682861328,0.7481180826822916,0.18079020182291666,0.18924624125162762]},{"name":"vase","coordinates":[0.5021582285563151,0.6273850758870443,0.03217773172590468,0.1283777077992757]},{"name":"bottle","coordinates":[0.5021582285563151,0.6273850758870443,0.03217773172590468,0.1283777077992757]},{"name":"wine-glass","coordinates":[0.5598617977566189,0.6539386113484701,0.02352210415734185,0.06565683285395305]}]}
