{"src":"https://a0.muscache.com/im/pictures/4afc98d4-ab35-494a-bb2e-18e6a2a934ba.jpg?aki_policy=xx_large","name":"Serenity Suites","listingId":22685044,"photoId":"1540-4","tags":[{"name":"oven","coordinates":[0.8049183315700955,0.6756219863891602,0.3591534508599175,0.4439330736796061]},{"name":"sink","coordinates":[0.17312896516588,0.5078002293904622,0.3415644115871853,0.06221524079640706]},{"name":"bottle","coordinates":[0.7215242173936632,0.44922367731730145,0.04170551035139296,0.08046543598175049]},{"name":"bowl","coordinates":[0.3029175016615126,0.4637991269429525,0.07966664632161459,0.04008373419443766]},{"name":"bottle","coordinates":[0.38516129387749565,0.45630598068237305,0.03703859382205539,0.0684086561203003]},{"name":"bottle","coordinates":[0.6861817253960504,0.45478614171346027,0.03339427842034234,0.06424094041188558]},{"name":"bottle","coordinates":[0.34806045956081816,0.46725231806437173,0.03374703195359972,0.05587507088979085]},{"name":"bottle","coordinates":[0.2484821531507704,0.4509610493977865,0.02613435321384006,0.05544974009195964]},{"name":"bottle","coordinates":[0.6397350311279297,0.4272969563802083,0.02847174538506402,0.04513088862101237]},{"name":"bottle","coordinates":[0.6247640397813585,0.4253781000773112,0.0275191863377889,0.04396789868672689]}]}
