{"src":"https://a0.muscache.com/im/pictures/8b31d271-eea4-47a1-a151-bdd320ff1226.jpg?aki_policy=xx_large","name":"Shared 6 persons female dorm - 2 km from Airport","listingId":22685765,"photoId":"1541-1","tags":[{"name":"refrigerator","coordinates":[0.9024471282958985,0.4743533134460449,0.2655596971511841,0.3425870577494303]},{"name":"pottedplant","coordinates":[0.10737202167510987,0.8591388702392578,0.20492930412292482,0.24259149233500163]},{"name":"sink","coordinates":[0.1402417778968811,0.24037081400553387,0.2803797721862793,0.10762266318003337]},{"name":"microwave","coordinates":[0.5996135234832763,0.47855106989542645,0.2251905918121338,0.09750401973724365]},{"name":"sink","coordinates":[0.4340482234954834,0.8812379837036133,0.20242788791656494,0.01936399539311727]},{"name":"bottle","coordinates":[0.5169192314147949,0.8521338144938151,0.02414853423833847,0.049704941113789876]}]}
