{"src":"https://a0.muscache.com/im/pictures/890716d8-53e6-4447-8e28-4d4077c511f2.jpg?aki_policy=xx_large","name":"large 1 bedroom @ one oasis davao","listingId":22690561,"photoId":"1545-0","tags":[{"name":"diningtable","coordinates":[0.2673299312591553,0.7893881479899089,0.30634369850158694,0.4334528605143229]},{"name":"chair","coordinates":[0.12922681570053102,0.7941701253255208,0.19430441856384278,0.4085821787516276]},{"name":"chair","coordinates":[0.382688570022583,0.7766422271728516,0.14889639616012573,0.404263973236084]},{"name":"pottedplant","coordinates":[0.40379934310913085,0.5541128794352214,0.05939809679985046,0.13296349048614503]},{"name":"chair","coordinates":[0.35113980770111086,0.5967028299967448,0.05599023103713989,0.12802859942118328]},{"name":"vase","coordinates":[0.31255202293395995,0.2742887179056803,0.014780956506729125,0.056881145636240645]}]}
