{"src":"https://a0.muscache.com/im/pictures/890716d8-53e6-4447-8e28-4d4077c511f2.jpg?aki_policy=xx_large","name":"large 1 bedroom @ one oasis davao","listingId":22690561,"photoId":"1545-0","tags":[{"name":"diningtable","coordinates":[0.20294770134819878,0.5726617177327474,0.5446110195583768,0.4334528605143229]},{"name":"chair","coordinates":[0.05702152252197268,0.589879035949707,0.3454300774468316,0.4085821787516276]},{"name":"chair","coordinates":[0.5479828834533691,0.5745102405548096,0.26470470428466797,0.404263973236084]},{"name":"pottedplant","coordinates":[0.6650671905941433,0.4876311341921489,0.1055966165330675,0.13296349048614503]},{"name":"chair","coordinates":[0.5744794527689616,0.5326885302861533,0.09953818851047092,0.12802859942118328]},{"name":"vase","coordinates":[0.5425094127655029,0.24584814508756,0.02627725601196289,0.056881145636240645]}]}
