{"src":"https://a0.muscache.com/im/pictures/890716d8-53e6-4447-8e28-4d4077c511f2.jpg?aki_policy=xx_large","name":"large 1 bedroom @ one oasis davao","listingId":22690561,"photoId":"1545-0","tags":[{"name":"diningtable","coordinates":[0.47525321112738717,0.7893881479899089,0.5446110195583768,0.4334528605143229]},{"name":"chair","coordinates":[0.22973656124538847,0.7941701253255208,0.3454300774468316,0.4085821787516276]},{"name":"chair","coordinates":[0.6803352355957031,0.7766422271728516,0.26470470428466797,0.404263973236084]},{"name":"pottedplant","coordinates":[0.7178654988606771,0.5541128794352214,0.1055966165330675,0.13296349048614503]},{"name":"chair","coordinates":[0.6242485470241971,0.5967028299967448,0.09953818851047092,0.12802859942118328]},{"name":"vase","coordinates":[0.5556480407714843,0.2742887179056803,0.02627725601196289,0.056881145636240645]}]}
