{"src":"https://a0.muscache.com/im/pictures/903c334e-fda9-4497-a12c-eee761cb076f.jpg?aki_policy=xx_large","name":"Fully furnished Master Bedroom in city center HCM","listingId":22694446,"photoId":"1547-8","tags":[{"name":"diningtable","coordinates":[0.5817439609103733,0.6127172470092773,0.3737749311659071,0.3084487597147624]},{"name":"refrigerator","coordinates":[0.3147816128200955,0.4057042439778646,0.15558580822414822,0.4506592114766439]},{"name":"microwave","coordinates":[0.116067992316352,0.5496250788370768,0.22316125233968098,0.2636055628458659]},{"name":"chair","coordinates":[0.45229661729600695,0.6206239700317383,0.1348277727762858,0.32486578623453777]},{"name":"chair","coordinates":[0.7235478719075521,0.6083196640014649,0.13979868359035916,0.3075285275777181]},{"name":"chair","coordinates":[0.5946709950764973,0.6216417948404948,0.1249750879075792,0.30886672337849935]},{"name":"chair","coordinates":[0.5043038262261285,0.43050352732340497,0.07964123090108235,0.04433950980504354]},{"name":"vase","coordinates":[0.6123878479003906,0.0646414597829183,0.02726760440402561,0.08413511912027995]},{"name":"bottle","coordinates":[0.5997688717312283,0.17918081283569337,0.025702857971191408,0.08447910944620768]},{"name":"bottle","coordinates":[0.5490495045979817,0.06442534923553467,0.024282619688245986,0.08900121847788493]},{"name":"vase","coordinates":[0.5490495045979817,0.06442534923553467,0.024282619688245986,0.08900121847788493]},{"name":"vase","coordinates":[0.5819519890679253,0.06544569730758668,0.025486434830559623,0.08261770407358805]},{"name":"vase","coordinates":[0.5846374087863498,0.4230719248453776,0.03159411748250326,0.05862652858098348]}]}
