{"src":"https://a0.muscache.com/im/pictures/903c334e-fda9-4497-a12c-eee761cb076f.jpg?aki_policy=xx_large","name":"Fully furnished Master Bedroom in city center HCM","listingId":22694446,"photoId":"1547-8","tags":[{"name":"diningtable","coordinates":[0.39485649532741973,0.45849286715189613,0.3737749311659071,0.3084487597147624]},{"name":"refrigerator","coordinates":[0.23698870870802136,0.18037463823954264,0.15558580822414822,0.4506592114766439]},{"name":"microwave","coordinates":[0.004487366146511504,0.41782229741414384,0.22316125233968098,0.2636055628458659]},{"name":"chair","coordinates":[0.38488273090786407,0.4581910769144694,0.1348277727762858,0.32486578623453777]},{"name":"chair","coordinates":[0.6536485301123726,0.4545554002126058,0.13979868359035916,0.3075285275777181]},{"name":"chair","coordinates":[0.5321834511227077,0.46720843315124505,0.1249750879075792,0.30886672337849935]},{"name":"chair","coordinates":[0.4644832107755873,0.4083337724208832,0.07964123090108235,0.04433950980504354]},{"name":"vase","coordinates":[0.5987540456983778,0.022573900222778324,0.02726760440402561,0.08413511912027995]},{"name":"bottle","coordinates":[0.5869174427456326,0.13694125811258953,0.025702857971191408,0.08447910944620768]},{"name":"bottle","coordinates":[0.5369081947538588,0.0199247399965922,0.024282619688245986,0.08900121847788493]},{"name":"vase","coordinates":[0.5369081947538588,0.0199247399965922,0.024282619688245986,0.08900121847788493]},{"name":"vase","coordinates":[0.5692087716526455,0.02413684527079265,0.025486434830559623,0.08261770407358805]},{"name":"vase","coordinates":[0.5688403500450983,0.39375866055488584,0.03159411748250326,0.05862652858098348]}]}
