{"src":"https://a0.muscache.com/im/pictures/3dc9e464-1486-49a5-9c9d-a5391060e831.jpg?aki_policy=xx_large","name":"Fully furnished Master Bedroom in city center HCM","listingId":22694446,"photoId":"1547-8","tags":[{"name":"diningtable","coordinates":[0.833862018585205,0.7477162043253581,0.3387021780014038,0.4952671686808268]},{"name":"chair","coordinates":[0.833862018585205,0.7477162043253581,0.3387021780014038,0.4952671686808268]},{"name":"pottedplant","coordinates":[0.9105996131896973,0.40710722605387367,0.19918615818023683,0.34910427729288734]},{"name":"chair","coordinates":[0.6993556976318359,0.6762076695760091,0.1258852958679199,0.3728281339009603]},{"name":"vase","coordinates":[0.9534076690673828,0.5178045590718587,0.0923514723777771,0.13787854512532552]},{"name":"bowl","coordinates":[0.9249044418334961,0.6077263514200847,0.1286557912826538,0.05019035339355469]}]}
