{"src":"https://a0.muscache.com/im/pictures/3dc9e464-1486-49a5-9c9d-a5391060e831.jpg?aki_policy=xx_large","name":"Fully furnished Master Bedroom in city center HCM","listingId":22694446,"photoId":"1547-8","tags":[{"name":"diningtable","coordinates":[0.38840734490140555,0.7477162043253581,0.15776520663820848,0.4952671686808268]},{"name":"chair","coordinates":[0.38840734490140555,0.7477162043253581,0.15776520663820848,0.4952671686808268]},{"name":"pottedplant","coordinates":[0.4241512026502229,0.40710722605387367,0.09277957877390944,0.34910427729288734]},{"name":"chair","coordinates":[0.3257552012258916,0.6762076695760091,0.05863652791518832,0.3728281339009603]},{"name":"vase","coordinates":[0.444090908444778,0.5178045590718587,0.04301669746854246,0.13787854512532552]},{"name":"bowl","coordinates":[0.4308142960505367,0.6077263514200847,0.059927006128747046,0.05019035339355469]}]}
