{"src":"https://a0.muscache.com/im/pictures/571225bd-ef98-4b9c-95c7-42f3c293b121.jpg?aki_policy=xx_large","name":"Comfortabele benedenwoning in park","listingId":13030239,"photoId":"155-0","tags":[{"name":"refrigerator","coordinates":[0.14791219499376085,0.4911545753479004,0.2836738586425781,0.9605015436808269]},{"name":"oven","coordinates":[0.5414968702528212,0.7275194803873698,0.14350912306043836,0.34213507970174156]},{"name":"sink","coordinates":[0.6921304066975912,0.46759653091430664,0.10961494445800782,0.03822314739227295]},{"name":"knife","coordinates":[0.33333928849962025,0.390733273824056,0.009355411926905314,0.057388611634572345]},{"name":"knife","coordinates":[0.3168798870510525,0.3890801429748535,0.008236186371909248,0.060147515932718915]}]}
