{"src":"https://z0.muscache.cn/im/pictures/14bfe98b-ba16-4e33-8644-1e14dce3566f.jpg?aki_policy=xx_large","name":"Roppongi area! Small but Comfy&amp;Stylish!","listingId":22708634,"photoId":"1550-2","tags":[{"name":"diningtable","coordinates":[0.06830457484581304,0.00216906865437827,0.8951505087083044,1.0061205546061198]},{"name":"bowl","coordinates":[0.36725870414771,0.6760656197865804,0.1966538525356693,0.2918898582458496]},{"name":"knife","coordinates":[0.29202563171174645,0.371413254737854,0.37780545402351895,0.11772748629252115]},{"name":"cup","coordinates":[0.6706551981933255,0.163909387588501,0.14771396406331436,0.23898312250773113]},{"name":"cup","coordinates":[0.5427611763896505,0.14048530260721842,0.12568838452199335,0.2480511983235677]},{"name":"cup","coordinates":[0.3051906901154773,0.1587744315465291,0.13339210070198487,0.23217399915059408]},{"name":"cup","coordinates":[0.44640419531233033,0.03715736071268719,0.08877426158064683,0.29194819132486977]},{"name":"fork","coordinates":[0.18596682174078205,0.37379956245422363,0.043880722438237,0.3508804639180501]}]}
