{"src":"https://a0.muscache.com/im/pictures/7003e4f1-ff11-4eb9-b4eb-2b3abc9cd1c1.jpg?aki_policy=xx_large","name":"London Towers","listingId":22722181,"photoId":"1555-2","tags":[{"name":"chair","coordinates":[0.4536173926459419,0.7139655749003093,0.44569803873697916,0.270631217956543]},{"name":"diningtable","coordinates":[0.39226387871636287,0.49091687997182215,0.46621822781032984,0.25789376894632976]},{"name":"chair","coordinates":[0.0767235967848036,0.4377048492431641,0.21213656531439887,0.505950927734375]},{"name":"chair","coordinates":[0.5963639895121257,0.570853837331136,0.28578934139675566,0.28296248118082684]},{"name":"tvmonitor","coordinates":[0.031116215387980144,0.38904849688212073,0.11307481129964193,0.1402494748433431]},{"name":"tvmonitor","coordinates":[0.5852842224968805,0.30435976982116697,0.12223678165011936,0.12235244115193684]},{"name":"pottedplant","coordinates":[0.7332430336210463,0.3152859409650167,0.06795064608256023,0.11431445280710856]},{"name":"keyboard","coordinates":[0.04761644999186198,0.5339440345764159,0.12089216444227431,0.062204933166503905]}]}
