{"src":"https://a0.muscache.com/im/pictures/7003e4f1-ff11-4eb9-b4eb-2b3abc9cd1c1.jpg?aki_policy=xx_large","name":"London Towers","listingId":22722181,"photoId":"1555-2","tags":[{"name":"chair","coordinates":[0.6764664120144315,0.8492811838785808,0.44569803873697916,0.270631217956543]},{"name":"diningtable","coordinates":[0.6253729926215278,0.619863764444987,0.46621822781032984,0.25789376894632976]},{"name":"chair","coordinates":[0.18279187944200304,0.6906803131103516,0.21213656531439887,0.505950927734375]},{"name":"chair","coordinates":[0.7392586602105035,0.7123350779215495,0.28578934139675566,0.28296248118082684]},{"name":"tvmonitor","coordinates":[0.08765362103780111,0.4591732343037923,0.11307481129964193,0.1402494748433431]},{"name":"tvmonitor","coordinates":[0.6464026133219402,0.3655359903971354,0.12223678165011936,0.12235244115193684]},{"name":"pottedplant","coordinates":[0.7672183566623264,0.37244316736857097,0.06795064608256023,0.11431445280710856]},{"name":"keyboard","coordinates":[0.10806253221299914,0.5650465011596679,0.12089216444227431,0.062204933166503905]}]}
