{"src":"https://a0.muscache.com/im/pictures/7d4f1e49-69d1-43c9-9437-cef3e162b602.jpg?aki_policy=xx_large","name":"KUDOS! Most ECONOMIC n CONVENIENT free WiFi n more","listingId":22723265,"photoId":"1556-1","tags":[{"name":"sofa","coordinates":[0.47544076707628036,0.678211530049642,0.6368779076470269,0.3157336235046387]},{"name":"pottedplant","coordinates":[0.20976806216769747,0.5630577723185222,0.2739850574069553,0.19294384320576985]},{"name":"tvmonitor","coordinates":[0.5862893846299914,0.37131643295288086,0.1759547339545356,0.10567994912465413]},{"name":"laptop","coordinates":[0.08595349523756239,0.7026865641276042,0.16428011788262262,0.10021227200826009]},{"name":"chair","coordinates":[0.05898255242241753,0.6047370910644532,0.1146848996480306,0.13786150614420573]}]}
