{"src":"https://a0.muscache.com/im/pictures/b8a33f3d-8293-46f6-9923-a1dc279d2dd5.jpg?aki_policy=xx_large","name":"KUDOS! Most ECONOMIC n CONVENIENT free WiFi n more","listingId":22723265,"photoId":"1556-3","tags":[{"name":"sofa","coordinates":[0.27074503898620605,0.5845068613688151,0.3671199560165405,0.36671460469563805]},{"name":"pottedplant","coordinates":[0.06538553833961487,0.5671424229939779,0.13507721424102784,0.33763395945231117]},{"name":"tvmonitor","coordinates":[0.2057542085647583,0.2333326021830241,0.1334368348121643,0.14744003613789877]},{"name":"laptop","coordinates":[0.5052762508392334,0.6054834365844727,0.11124664545059204,0.0995120922724406]},{"name":"chair","coordinates":[0.5453305244445801,0.4078591028849284,0.03727045059204102,0.11518113613128662]}]}
