{"src":"https://a0.muscache.com/im/pictures/7d4f1e49-69d1-43c9-9437-cef3e162b602.jpg?aki_policy=xx_large","name":"KUDOS! Most ECONOMIC n CONVENIENT free WiFi n more","listingId":22723265,"photoId":"1556-1","tags":[{"name":"sofa","coordinates":[0.1570018132527669,0.5203447182973227,0.6368779076470269,0.3157336235046387]},{"name":"pottedplant","coordinates":[0.07277553346421983,0.46658585071563724,0.2739850574069553,0.19294384320576985]},{"name":"tvmonitor","coordinates":[0.4983120176527236,0.3184764583905538,0.1759547339545356,0.10567994912465413]},{"name":"laptop","coordinates":[0.0038134362962510826,0.6525804281234742,0.16428011788262262,0.10021227200826009]},{"name":"chair","coordinates":[0.001640102598402235,0.5358063379923503,0.1146848996480306,0.13786150614420573]}]}
