{"src":"https://a0.muscache.com/im/pictures/a5c89b07-3d01-400e-b07e-1f751ad74daa.jpg?aki_policy=xx_large","name":"KUDOS! Most ECONOMIC n CONVENIENT free WiFi n more","listingId":22723265,"photoId":"1556-2","tags":[{"name":"sofa","coordinates":[0.004581499099731434,0.4982297579447429,0.4172823429107666,0.4770040512084961]},{"name":"tvmonitor","coordinates":[0.004320734739303583,0.18096545537312825,0.16688222885131837,0.17565199534098308]},{"name":"sofa","coordinates":[0.4982942998409271,0.41693036556243895,0.16244155168533325,0.17434754371643066]},{"name":"chair","coordinates":[0.4982942998409271,0.41693036556243895,0.16244155168533325,0.17434754371643066]},{"name":"sofa","coordinates":[0.8268622040748597,0.472111463546753,0.13618857860565187,0.18817529678344727]},{"name":"chair","coordinates":[0.8268622040748597,0.472111463546753,0.13618857860565187,0.18817529678344727]},{"name":"laptop","coordinates":[0.42741023302078246,0.6550090551376342,0.12469165325164795,0.13399968147277833]},{"name":"tvmonitor","coordinates":[0.6860344797372818,0.33327544927597047,0.04425575137138367,0.07421874205271403]},{"name":"clock","coordinates":[0.5438825234770774,0.20969769557317097,0.01882951557636261,0.0355849822362264]}]}
