{"src":"https://a0.muscache.com/im/pictures/a5c89b07-3d01-400e-b07e-1f751ad74daa.jpg?aki_policy=xx_large","name":"KUDOS! Most ECONOMIC n CONVENIENT free WiFi n more","listingId":22723265,"photoId":"1556-2","tags":[{"name":"sofa","coordinates":[0.21322267055511473,0.7367317835489909,0.4172823429107666,0.4770040512084961]},{"name":"tvmonitor","coordinates":[0.08776184916496277,0.2687914530436198,0.16688222885131837,0.17565199534098308]},{"name":"sofa","coordinates":[0.5795150756835937,0.5041041374206543,0.16244155168533325,0.17434754371643066]},{"name":"chair","coordinates":[0.5795150756835937,0.5041041374206543,0.16244155168533325,0.17434754371643066]},{"name":"sofa","coordinates":[0.8949564933776856,0.5661991119384766,0.13618857860565187,0.18817529678344727]},{"name":"chair","coordinates":[0.8949564933776856,0.5661991119384766,0.13618857860565187,0.18817529678344727]},{"name":"laptop","coordinates":[0.48975605964660646,0.7220088958740234,0.12469165325164795,0.13399968147277833]},{"name":"tvmonitor","coordinates":[0.7081623554229737,0.3703848203023275,0.04425575137138367,0.07421874205271403]},{"name":"clock","coordinates":[0.5532972812652588,0.22749018669128418,0.01882951557636261,0.0355849822362264]}]}
