{"src":"https://a0.muscache.com/im/pictures/104ba5bb-f9ee-4cf7-8af0-160022906222.jpg?aki_policy=xx_large","name":"Beauty \"Zen\" house 15min from beach","listingId":13043347,"photoId":"156-4","tags":[{"name":"diningtable","coordinates":[0.36020308600531686,0.8326639811197917,0.5282391866048177,0.33445857365926107]},{"name":"chair","coordinates":[0.6201353285047743,0.7615036646525065,0.05846369531419542,0.23111020723978679]},{"name":"person","coordinates":[0.10580967797173393,0.5079345703125,0.09495294358995225,0.09323384761810302]},{"name":"book","coordinates":[0.19571416642930772,0.33443969090779624,0.06995073954264323,0.0838367223739624]},{"name":"pottedplant","coordinates":[0.7572268168131511,0.5234394073486328,0.06492208904690212,0.0804323434829712]},{"name":"chair","coordinates":[0.2788954416910807,0.7530141194661458,0.06626055505540636,0.07180641492207845]},{"name":"chair","coordinates":[0.3957506815592448,0.686400032043457,0.06838883293999566,0.06866587003072103]},{"name":"vase","coordinates":[0.48992491828070744,0.679776128133138,0.03807659943898519,0.08318870862325033]},{"name":"book","coordinates":[0.31984055836995445,0.3628665924072266,0.046937783559163414,0.06405982971191407]}]}
