{"src":"https://a0.muscache.com/im/pictures/b67fd99b-aef8-4de1-965d-dfab778bed26.jpg?aki_policy=xx_large","name":"Relaxing and comfortable newly renovated apartment","listingId":22741985,"photoId":"1561-5","tags":[{"name":"refrigerator","coordinates":[0.2981248140335083,0.5592922846476237,0.1557189106941223,0.557632573445638]},{"name":"chair","coordinates":[0.866327953338623,0.7509656270345052,0.19157876968383789,0.3533375104268392]},{"name":"diningtable","coordinates":[0.682557487487793,0.74003480275472,0.21815989017486573,0.3046989440917969]},{"name":"chair","coordinates":[0.5565485000610352,0.6975767771402995,0.13949496746063234,0.3332511901855469]},{"name":"sink","coordinates":[0.08052182197570801,0.6283161163330078,0.16028021574020385,0.11456066767374674]}]}
