{"src":"https://a0.muscache.com/im/pictures/b67fd99b-aef8-4de1-965d-dfab778bed26.jpg?aki_policy=xx_large","name":"Relaxing and comfortable newly renovated apartment","listingId":22741985,"photoId":"1561-5","tags":[{"name":"refrigerator","coordinates":[0.22026535868644717,0.2804759979248047,0.1557189106941223,0.557632573445638]},{"name":"chair","coordinates":[0.7705385684967041,0.5742968718210856,0.19157876968383789,0.3533375104268392]},{"name":"diningtable","coordinates":[0.5734775424003601,0.5876853307088216,0.21815989017486573,0.3046989440917969]},{"name":"chair","coordinates":[0.48680101633071904,0.5309511820475261,0.13949496746063234,0.3332511901855469]},{"name":"sink","coordinates":[0.00038171410560608465,0.5710357824961344,0.16028021574020385,0.11456066767374674]}]}
