{"src":"https://a0.muscache.com/im/pictures/4ab09a3b-8807-4381-a459-a5b8d7ee459f.jpg?aki_policy=xx_large","name":"Ma Maison Pour Toi at I-Suite @ I-City Shah Alam","listingId":22751502,"photoId":"1564-1","tags":[{"name":"refrigerator","coordinates":[0.8003568052416551,0.7193689346313477,0.24740755508274295,0.5188491821289063]},{"name":"diningtable","coordinates":[0.17398545606079951,0.8421952565511067,0.3224895832767407,0.27799644470214846]},{"name":"chair","coordinates":[0.25768873190846664,0.8191524505615234,0.1269104789129053,0.3578579584757487]},{"name":"sofa","coordinates":[0.36969910941303025,0.6473121643066406,0.16335974681360832,0.15768855412801105]},{"name":"tvmonitor","coordinates":[0.6228736590941194,0.5502968470255534,0.03610770128698442,0.08582923412322999]}]}
