{"src":"https://a0.muscache.com/im/pictures/d8d04111-9db5-4d1b-9e87-2a291a4032bf.jpg?aki_policy=xx_large","name":"Ma Maison Pour Toi at I-Suite @ I-City Shah Alam","listingId":22751502,"photoId":"1564-0","tags":[{"name":"sofa","coordinates":[0.21912056149627304,0.7602457682291667,0.4197162315145819,0.4601064364115397]},{"name":"tvmonitor","coordinates":[0.7227397807284422,0.5265343666076661,0.09186592155106377,0.17582818667093914]},{"name":"chair","coordinates":[0.5699011705846879,0.6296190897623698,0.047105706948398385,0.10503198305765787]},{"name":"pottedplant","coordinates":[0.502314200155924,0.5971246083577474,0.022310416124792194,0.04555963675181071]},{"name":"vase","coordinates":[0.502314200155924,0.5971246083577474,0.022310416124792194,0.04555963675181071]},{"name":"vase","coordinates":[0.6456705446203495,0.5645301818847657,0.017172404887447437,0.03954621950785319]}]}
