{"src":"https://a0.muscache.com/im/pictures/d8d04111-9db5-4d1b-9e87-2a291a4032bf.jpg?aki_policy=xx_large","name":"Ma Maison Pour Toi at I-Suite @ I-City Shah Alam","listingId":22751502,"photoId":"1564-0","tags":[{"name":"sofa","coordinates":[0.009262445738982106,0.5301925500233968,0.4197162315145819,0.4601064364115397]},{"name":"tvmonitor","coordinates":[0.6768068199529104,0.4386202732721965,0.09186592155106377,0.17582818667093914]},{"name":"chair","coordinates":[0.5463483171104887,0.5771030982335409,0.047105706948398385,0.10503198305765787]},{"name":"pottedplant","coordinates":[0.49115899209352787,0.574344789981842,0.022310416124792194,0.04555963675181071]},{"name":"vase","coordinates":[0.49115899209352787,0.574344789981842,0.022310416124792194,0.04555963675181071]},{"name":"vase","coordinates":[0.6370843421766257,0.5447570721308391,0.017172404887447437,0.03954621950785319]}]}
