{"src":"https://a0.muscache.com/im/pictures/4ab09a3b-8807-4381-a459-a5b8d7ee459f.jpg?aki_policy=xx_large","name":"Ma Maison Pour Toi at I-Suite @ I-City Shah Alam","listingId":22751502,"photoId":"1564-1","tags":[{"name":"refrigerator","coordinates":[0.6766530277002836,0.4599443435668945,0.24740755508274295,0.5188491821289063]},{"name":"diningtable","coordinates":[0.01274066442242916,0.7031970342000324,0.3224895832767407,0.27799644470214846]},{"name":"chair","coordinates":[0.194233492452014,0.6402234713236491,0.1269104789129053,0.3578579584757487]},{"name":"sofa","coordinates":[0.2880192360062261,0.5684678872426351,0.16335974681360832,0.15768855412801105]},{"name":"tvmonitor","coordinates":[0.6048198084506272,0.5073822299639383,0.03610770128698442,0.08582923412322999]}]}
