{"src":"https://a0.muscache.com/im/pictures/53521c61-4168-49fa-b052-b6415c1b6bdc.jpg?aki_policy=xx_large","name":"近苏州乐园 地铁一号线+大润发 北欧风酒店式公寓A","listingId":22757124,"photoId":"1567-12","tags":[{"name":"diningtable","coordinates":[0.4724043420359223,0.7463918050130208,0.926331839740525,0.427934201558431]},{"name":"vase","coordinates":[0.28342347549629476,0.5164452870686849,0.14531201613297548,0.43556006749471027]},{"name":"cup","coordinates":[0.28342347549629476,0.5164452870686849,0.14531201613297548,0.43556006749471027]},{"name":"chair","coordinates":[0.8993215335426809,0.5355524698893229,0.2018719329621762,0.2684058507283529]},{"name":"bowl","coordinates":[0.4663229399828321,0.7529666264851888,0.21985139170342924,0.13119898637135824]},{"name":"bowl","coordinates":[0.47129458877075364,0.7084431330362956,0.19911223558789334,0.11374657948811849]},{"name":"bowl","coordinates":[0.5675300523866699,0.6556114196777344,0.17469511708563326,0.12890466849009197]}]}
