{"src":"https://a0.muscache.com/im/pictures/b05da339-ef7a-47dd-a4d3-0c144c224ed2.jpg?aki_policy=xx_large","name":"近苏州乐园 地铁一号线+大润发 北欧风酒店式公寓A","listingId":22757124,"photoId":"1567-11","tags":[{"name":"diningtable","coordinates":[0.24141329153854102,0.6212379137674968,0.5721038691025947,0.362657101949056]},{"name":"tvmonitor","coordinates":[0.46256603087105574,0.13016482988993325,0.39946503831547725,0.45682458877563475]},{"name":"refrigerator","coordinates":[0.14776632550362917,0.20280227661132805,0.20705680157445236,0.7523501078287761]},{"name":"chair","coordinates":[0.8704171426107223,0.7686533371607462,0.0957690837154468,0.21902534166971843]},{"name":"bowl","coordinates":[0.5417322256966326,0.6879680812358856,0.08540148993692412,0.06471172571182252]},{"name":"bowl","coordinates":[0.43721872841698406,0.6695811589558919,0.08285126135644395,0.05289166768391927]}]}
