{"src":"https://a0.muscache.com/im/pictures/53521c61-4168-49fa-b052-b6415c1b6bdc.jpg?aki_policy=xx_large","name":"近苏州乐园 地铁一号线+大润发 北欧风酒店式公寓A","listingId":22757124,"photoId":"1567-8","tags":[{"name":"diningtable","coordinates":[1.0614335060119628,0.7463918050130208,2.0813518524169923,0.427934201558431]},{"name":"vase","coordinates":[0.6368171215057373,0.5164452870686849,0.3264979362487793,0.43556006749471027]},{"name":"cup","coordinates":[0.6368171215057373,0.5164452870686849,0.3264979362487793,0.43556006749471027]},{"name":"chair","coordinates":[2.0206630706787108,0.5355524698893229,0.45358099937438967,0.2684058507283529]},{"name":"bowl","coordinates":[1.0477693557739258,0.7529666264851888,0.49397859573364256,0.13119898637135824]},{"name":"bowl","coordinates":[1.0589400291442872,0.7084431330362956,0.44738030433654785,0.11374657948811849]},{"name":"bowl","coordinates":[1.2751690864562988,0.6556114196777344,0.3925180912017822,0.12890466849009197]}]}
