{"src":"https://a0.muscache.com/im/pictures/b05da339-ef7a-47dd-a4d3-0c144c224ed2.jpg?aki_policy=xx_large","name":"近苏州乐园 地铁一号线+大润发 北欧风酒店式公寓A","listingId":22757124,"photoId":"1567-11","tags":[{"name":"diningtable","coordinates":[0.5274652260898384,0.8025664647420248,0.5721038691025947,0.362657101949056]},{"name":"tvmonitor","coordinates":[0.6622985500287943,0.3585771242777506,0.39946503831547725,0.45682458877563475]},{"name":"refrigerator","coordinates":[0.25129472629085536,0.5789773305257161,0.20705680157445236,0.7523501078287761]},{"name":"chair","coordinates":[0.9183016844684457,0.8781660079956055,0.0957690837154468,0.21902534166971843]},{"name":"bowl","coordinates":[0.5844329706650947,0.7203239440917969,0.08540148993692412,0.06471172571182252]},{"name":"bowl","coordinates":[0.47864435909520603,0.6960269927978515,0.08285126135644395,0.05289166768391927]}]}
