{"src":"https://a0.muscache.com/im/pictures/53521c61-4168-49fa-b052-b6415c1b6bdc.jpg?aki_policy=xx_large","name":"近苏州乐园 地铁一号线+大润发 北欧风酒店式公寓A","listingId":22757124,"photoId":"1567-12","tags":[{"name":"diningtable","coordinates":[0.009238422165659788,0.5324247042338053,0.926331839740525,0.427934201558431]},{"name":"vase","coordinates":[0.210767467429807,0.29866525332132976,0.14531201613297548,0.43556006749471027]},{"name":"cup","coordinates":[0.210767467429807,0.29866525332132976,0.14531201613297548,0.43556006749471027]},{"name":"chair","coordinates":[0.7983855670615927,0.4013495445251465,0.2018719329621762,0.2684058507283529]},{"name":"bowl","coordinates":[0.35639724413111745,0.6873671332995096,0.21985139170342924,0.13119898637135824]},{"name":"bowl","coordinates":[0.37173847097680696,0.6515698432922363,0.19911223558789334,0.11374657948811849]},{"name":"bowl","coordinates":[0.48018249384385325,0.5911590854326885,0.17469511708563326,0.12890466849009197]}]}
