{"src":"https://a0.muscache.com/im/pictures/18cae5a0-a591-4c9d-ad63-993ff054eb37.jpg?aki_policy=xx_large","name":"The Van Gogh House in Delhi","listingId":22761691,"photoId":"1568-11","tags":[{"name":"diningtable","coordinates":[0.2950141059027777,0.5228363672892252,0.6971340603298611,0.47183990478515625]},{"name":"person","coordinates":[0.4887702941894531,0.14037699699401854,0.46586032443576386,0.4681593894958496]},{"name":"person","coordinates":[0.2963993496365017,0.23834406534830732,0.257529534233941,0.7587720235188802]},{"name":"bottle","coordinates":[0.7449617730246649,0.31970895131429033,0.07111907005310059,0.34123299916585287]},{"name":"wine-glass","coordinates":[0.47986200120713973,0.28352937698364256,0.07997377183702258,0.15031032562255858]},{"name":"cup","coordinates":[0.5667850626839532,0.5560243765513102,0.05263982878790961,0.15665292739868164]},{"name":"bowl","coordinates":[0.39635981453789604,0.561745842297872,0.08491200341118707,0.08222158749898274]},{"name":"bowl","coordinates":[0.6071931944953071,0.5642260630925496,0.0728571785820855,0.08350389798482259]},{"name":"wine-glass","coordinates":[0.5178981860478719,0.2805437167485555,0.04877402517530653,0.10997592608133952]},{"name":"cell-phone","coordinates":[0.8663673665788438,0.6227993269761404,0.06592757966783312,0.0394231915473938]}]}
