{"src":"https://a0.muscache.com/im/pictures/18cae5a0-a591-4c9d-ad63-993ff054eb37.jpg?aki_policy=xx_large","name":"The Van Gogh House in Delhi","listingId":22761691,"photoId":"1568-10","tags":[{"name":"diningtable","coordinates":[0.6435811360677083,0.7587563196818033,0.6971340603298611,0.47183990478515625]},{"name":"person","coordinates":[0.721700456407335,0.37445669174194335,0.46586032443576386,0.4681593894958496]},{"name":"person","coordinates":[0.4251641167534722,0.6177300771077474,0.257529534233941,0.7587720235188802]},{"name":"bottle","coordinates":[0.7805213080512152,0.4903254508972168,0.07111907005310059,0.34123299916585287]},{"name":"wine-glass","coordinates":[0.519848887125651,0.3586845397949219,0.07997377183702258,0.15031032562255858]},{"name":"cup","coordinates":[0.593104977077908,0.634350840250651,0.05263982878790961,0.15665292739868164]},{"name":"bowl","coordinates":[0.4388158162434896,0.6028566360473633,0.08491200341118707,0.08222158749898274]},{"name":"bowl","coordinates":[0.6436217837863498,0.6059780120849609,0.0728571785820855,0.08350389798482259]},{"name":"wine-glass","coordinates":[0.5422851986355252,0.33553167978922527,0.04877402517530653,0.10997592608133952]},{"name":"cell-phone","coordinates":[0.8993311564127604,0.6425109227498372,0.06592757966783312,0.0394231915473938]}]}
