{"src":"https://a0.muscache.com/im/pictures/9842fbd7-b966-4653-a2a7-e6d61eac73f0.jpg?aki_policy=xx_large","name":"여행자의 홈 어흥 &amp; 쫑긋(tiger&amp; rabbit )","listingId":22785206,"photoId":"1574-4","tags":[{"name":"refrigerator","coordinates":[0.5793064965142144,0.767123794555664,0.4215551588270399,0.4545596122741699]},{"name":"microwave","coordinates":[0.5995466868082683,0.4567496617635091,0.3139468087090386,0.31380863189697267]},{"name":"sink","coordinates":[0.20825799306233725,0.8220394770304362,0.30839884016248914,0.23311786651611327]},{"name":"cup","coordinates":[0.18970230950249567,0.36712938944498696,0.0698005199432373,0.07534820238749186]},{"name":"cup","coordinates":[0.2579807069566515,0.36224311192830405,0.06295426156785754,0.07729853789011637]},{"name":"cup","coordinates":[0.3580921596950955,0.3608110427856445,0.05813718371921116,0.08097063700358073]},{"name":"cup","coordinates":[0.3039451175265842,0.3630258878072103,0.04367095629374186,0.0771196444829305]}]}
