{"src":"https://a0.muscache.com/im/pictures/9842fbd7-b966-4653-a2a7-e6d61eac73f0.jpg?aki_policy=xx_large","name":"여행자의 홈 어흥 &amp; 쫑긋(tiger&amp; rabbit )","listingId":22785206,"photoId":"1574-4","tags":[{"name":"refrigerator","coordinates":[0.36852891710069446,0.5398439884185791,0.4215551588270399,0.4545596122741699]},{"name":"microwave","coordinates":[0.44257328245374894,0.29984534581502276,0.3139468087090386,0.31380863189697267]},{"name":"sink","coordinates":[0.05405857298109268,0.7054805437723796,0.30839884016248914,0.23311786651611327]},{"name":"cup","coordinates":[0.154802049530877,0.32945528825124104,0.0698005199432373,0.07534820238749186]},{"name":"cup","coordinates":[0.2265035761727227,0.3235938429832459,0.06295426156785754,0.07729853789011637]},{"name":"cup","coordinates":[0.3290235678354899,0.32032572428385414,0.05813718371921116,0.08097063700358073]},{"name":"cup","coordinates":[0.2821096393797133,0.32446606556574503,0.04367095629374186,0.0771196444829305]}]}
