{"src":"https://a0.muscache.com/im/pictures/9842fbd7-b966-4653-a2a7-e6d61eac73f0.jpg?aki_policy=xx_large","name":"여행자의 홈 어흥 &amp; 쫑긋(tiger&amp; rabbit )","listingId":22785206,"photoId":"1574-4","tags":[{"name":"refrigerator","coordinates":[1.544817324037905,0.767123794555664,1.1241470902054398,0.4545596122741699]},{"name":"microwave","coordinates":[1.5987911648220485,0.4567496617635091,0.8371914898907696,0.31380863189697267]},{"name":"sink","coordinates":[0.5553546481662326,0.8220394770304362,0.822396907099971,0.23311786651611327]},{"name":"cup","coordinates":[0.5058728253399885,0.36712938944498696,0.1861347198486328,0.07534820238749186]},{"name":"cup","coordinates":[0.687948551884404,0.36224311192830405,0.16787803084762007,0.07729853789011637]},{"name":"cup","coordinates":[0.9549124258535879,0.3608110427856445,0.15503248991789642,0.08097063700358073]},{"name":"cup","coordinates":[0.8105203134042246,0.3630258878072103,0.1164558834499783,0.0771196444829305]}]}
