{"src":"https://a0.muscache.com/im/pictures/99a529ee-b405-4ca4-bcad-f6518f7d521c.jpg?aki_policy=xx_large","name":"CASA COLONIAL MEXICANA BONITA Y APACIBLE","listingId":22793534,"photoId":"1575-0","tags":[{"name":"diningtable","coordinates":[0.6810187869601779,0.8550335566202799,0.7057373470730252,0.248917023340861]},{"name":"oven","coordinates":[0.4816007826063368,0.7420913696289062,0.2535170873006185,0.3129392306009928]},{"name":"oven","coordinates":[0.5141044192843967,0.765445327758789,0.15588982899983725,0.19656179745992025]},{"name":"microwave","coordinates":[0.04716206126742893,0.5996946970621745,0.08778070873684353,0.1877837340037028]},{"name":"vase","coordinates":[0.4318274180094401,0.09058669408162436,0.06434206432766384,0.09768565495808919]},{"name":"bottle","coordinates":[0.5546869489881727,0.10392820835113525,0.04881012174818251,0.10217999617258708]},{"name":"vase","coordinates":[0.4886767069498698,0.10587647755940756,0.05155257648891873,0.08988788922627768]}]}
