{"src":"https://z0.muscache.cn/im/pictures/675e3d3b-dfd0-4d8d-8742-8e669442a283.jpg?aki_policy=xx_large","name":"에이스빌딩 413","listingId":22799758,"photoId":"1577-1","tags":[{"name":"toilet","coordinates":[0.166593148973253,0.60585511525472,0.20881309509277343,0.34342498779296876]},{"name":"sink","coordinates":[0.41638876597086594,0.5735388080279032,0.21048579745822482,0.09964276154836019]},{"name":"person","coordinates":[0.4329645898607042,0.35481020212173464,0.09782305823432075,0.09157760143280029]},{"name":"bottle","coordinates":[0.25965898964140155,0.5356812834739685,0.035252197583516436,0.07439409097035726]},{"name":"bottle","coordinates":[0.3075068632761637,0.4015237808227539,0.03358916176689996,0.07444661458333333]},{"name":"bottle","coordinates":[0.24393258889516195,0.545176104704539,0.035266976886325414,0.06788969834645589]},{"name":"bottle","coordinates":[0.31296476324399314,0.556443319718043,0.02216732104619344,0.05435108741124471]}]}
