{"src":"https://z0.muscache.cn/im/pictures/675e3d3b-dfd0-4d8d-8742-8e669442a283.jpg?aki_policy=xx_large","name":"에이스빌딩 413","listingId":22799758,"photoId":"1577-1","tags":[{"name":"toilet","coordinates":[0.27099969651963973,0.7775676091512044,0.20881309509277343,0.34342498779296876]},{"name":"sink","coordinates":[0.5216316646999783,0.6233601888020833,0.21048579745822482,0.09964276154836019]},{"name":"person","coordinates":[0.4818761189778646,0.40059900283813477,0.09782305823432075,0.09157760143280029]},{"name":"bottle","coordinates":[0.27728508843315974,0.5728783289591471,0.035252197583516436,0.07439409097035726]},{"name":"bottle","coordinates":[0.3243014441596137,0.4387470881144206,0.03358916176689996,0.07444661458333333]},{"name":"bottle","coordinates":[0.26156607733832465,0.579120953877767,0.035266976886325414,0.06788969834645589]},{"name":"bottle","coordinates":[0.32404842376708987,0.5836188634236653,0.02216732104619344,0.05435108741124471]}]}
