{"src":"https://a0.muscache.com/im/pictures/cae9ac16-0f21-4d30-aa7d-3a4451418741.jpg?aki_policy=xx_large","name":"La casa di Ninni \"Orchidea\"","listingId":22811638,"photoId":"1578-0","tags":[{"name":"diningtable","coordinates":[0.6569497636753878,0.6605593999226888,0.3888438657033358,0.40731029510498046]},{"name":"sofa","coordinates":[0.784871382679013,0.873177973429362,0.4296966388071184,0.24638876914978028]},{"name":"chair","coordinates":[0.784871382679013,0.873177973429362,0.4296966388071184,0.24638876914978028]},{"name":"chair","coordinates":[0.7528838013573517,0.6134205500284831,0.19936645288261579,0.3915790239969889]},{"name":"chair","coordinates":[0.1347304831305854,0.8610586166381836,0.22180399448751545,0.27943242390950523]},{"name":"oven","coordinates":[0.3989277023205654,0.5206029256184895,0.1696433334899463,0.2450679620107015]},{"name":"clock","coordinates":[0.9505730498608925,0.09324924151102702,0.09487331170829938,0.14595301946004233]},{"name":"bowl","coordinates":[0.10310320545443528,0.5080195109049479,0.04010641660621698,0.028848276535669962]},{"name":"bowl","coordinates":[0.5584372101927833,0.5105056126912435,0.03759922398080071,0.02603671352068583]}]}
