{"src":"https://a0.muscache.com/im/pictures/cae9ac16-0f21-4d30-aa7d-3a4451418741.jpg?aki_policy=xx_large","name":"La casa di Ninni \"Orchidea\"","listingId":22811638,"photoId":"1578-0","tags":[{"name":"diningtable","coordinates":[0.46252783082371995,0.4569042523701985,0.3888438657033358,0.40731029510498046]},{"name":"sofa","coordinates":[0.5700230632754538,0.7499835888544718,0.4296966388071184,0.24638876914978028]},{"name":"chair","coordinates":[0.5700230632754538,0.7499835888544718,0.4296966388071184,0.24638876914978028]},{"name":"chair","coordinates":[0.6532005749160438,0.4176310380299886,0.19936645288261579,0.3915790239969889]},{"name":"chair","coordinates":[0.023828485886827663,0.721342404683431,0.22180399448751545,0.27943242390950523]},{"name":"oven","coordinates":[0.31410603557559225,0.3980689446131388,0.1696433334899463,0.2450679620107015]},{"name":"clock","coordinates":[0.9031363940067428,0.02027273178100586,0.09487331170829938,0.14595301946004233]},{"name":"bowl","coordinates":[0.0830499971513268,0.4935953726371129,0.04010641660621698,0.028848276535669962]},{"name":"bowl","coordinates":[0.5396375982023829,0.4974872559309006,0.03759922398080071,0.02603671352068583]}]}
