{"src":"https://a0.muscache.com/im/pictures/acbbbbb1-71a5-4730-acbc-d0b72705cfff.jpg?aki_policy=xx_large","name":"La casa di Ninni \"Orchidea\"","listingId":22811638,"photoId":"1578-2","tags":[{"name":"diningtable","coordinates":[0.3905515624320416,0.7251202901204427,0.5480888648089552,0.49681882858276366]},{"name":"sofa","coordinates":[0.667870040394485,0.5882024765014648,0.5416487001592946,0.4986342748006185]},{"name":"chair","coordinates":[0.5666485217684412,0.7937793095906576,0.23133016545157012,0.3773513158162435]},{"name":"bowl","coordinates":[0.37510040856602295,0.7519559860229492,0.07118655677959997,0.08242882092793782]},{"name":"bowl","coordinates":[0.26721316704587467,0.5948175430297852,0.03873286715131214,0.03832602500915527]}]}
