{"src":"https://a0.muscache.com/im/pictures/acbbbbb1-71a5-4730-acbc-d0b72705cfff.jpg?aki_policy=xx_large","name":"La casa di Ninni \"Orchidea\"","listingId":22811638,"photoId":"1578-2","tags":[{"name":"diningtable","coordinates":[0.41327142504774944,0.7251202901204427,0.5799732685791376,0.49681882858276366]},{"name":"sofa","coordinates":[0.706722568517581,0.5882024765014648,0.5731584551759251,0.4986342748006185]},{"name":"chair","coordinates":[0.5996126110318483,0.7937793095906576,0.2447875167554538,0.3773513158162435]},{"name":"bowl","coordinates":[0.39692141907906847,0.7519559860229492,0.0753277482270141,0.08242882092793782]},{"name":"bowl","coordinates":[0.28275796836886735,0.5948175430297852,0.040986104636550474,0.03832602500915527]}]}
