{"src":"https://a0.muscache.com/im/pictures/acbbbbb1-71a5-4730-acbc-d0b72705cfff.jpg?aki_policy=xx_large","name":"La casa di Ninni \"Orchidea\"","listingId":22811638,"photoId":"1578-2","tags":[{"name":"diningtable","coordinates":[0.12328479075818066,0.4767108758290608,0.5799732685791376,0.49681882858276366]},{"name":"sofa","coordinates":[0.4201433409296184,0.3388853391011556,0.5731584551759251,0.4986342748006185]},{"name":"chair","coordinates":[0.47721885265412134,0.6051036516825359,0.2447875167554538,0.3773513158162435]},{"name":"bowl","coordinates":[0.3592575449655614,0.7107415755589803,0.0753277482270141,0.08242882092793782]},{"name":"bowl","coordinates":[0.2622649160505921,0.5756545305252075,0.040986104636550474,0.03832602500915527]}]}
