{"src":"https://a0.muscache.com/im/pictures/e1ac25ca-225b-41cc-9ea6-a1931792af05.jpg?aki_policy=xx_large","name":"Апартаменты в центре на Дзержинского 20","listingId":22817336,"photoId":"1579-5","tags":[{"name":"refrigerator","coordinates":[0.00607841279771594,0.055835882822672545,0.1791457070244683,0.8399765014648437]},{"name":"chair","coordinates":[0.460517332288954,0.7200314680735271,0.2513361612955729,0.29166135787963865]},{"name":"chair","coordinates":[0.4668683952755398,0.530226449171702,0.1510170512729221,0.12479465007781983]},{"name":"sink","coordinates":[0.5231862439049615,0.45388386050860086,0.15903132756551105,0.039670900503794355]},{"name":"bowl","coordinates":[0.730636273490058,0.5205349206924438,0.04789544211493598,0.03988197644551595]}]}
