{"src":"https://a0.muscache.com/im/pictures/839f7960-963f-483f-8a7f-ef45871a11ce.jpg?aki_policy=xx_large","name":"Contemporary Executive Apartment in Yaba","listingId":13198630,"photoId":"158-6","tags":[{"name":"toilet","coordinates":[1.3786580085754394,0.7388139088948568,0.3558297634124756,0.23589102427164713]},{"name":"sink","coordinates":[1.1383249282836914,0.451193364461263,0.44719343185424804,0.10594112078348795]},{"name":"sink","coordinates":[1.1454431533813476,0.3721152305603027,0.3756141662597656,0.057475709915161134]},{"name":"person","coordinates":[1.0670845985412598,0.20409975051879883,0.12913416624069213,0.07134426434834798]},{"name":"bottle","coordinates":[1.4059054374694824,0.4391022046407064,0.05343343615531922,0.1022716204325358]},{"name":"bottle","coordinates":[0.9547454833984375,0.35021565755208334,0.04977286458015442,0.09704954624176025]}]}
