{"src":"https://a0.muscache.com/im/pictures/839f7960-963f-483f-8a7f-ef45871a11ce.jpg?aki_policy=xx_large","name":"Contemporary Executive Apartment in Yaba","listingId":13198630,"photoId":"158-6","tags":[{"name":"toilet","coordinates":[0.6127368927001953,0.7388139088948568,0.15814656151665582,0.23589102427164713]},{"name":"sink","coordinates":[0.5059221903483073,0.451193364461263,0.1987526363796658,0.10594112078348795]},{"name":"sink","coordinates":[0.5090858459472656,0.3721152305603027,0.1669396294487847,0.057475709915161134]},{"name":"person","coordinates":[0.47425982157389324,0.20409975051879883,0.05739296277364095,0.07134426434834798]},{"name":"bottle","coordinates":[0.6248468610975477,0.4391022046407064,0.02374819384680854,0.1022716204325358]},{"name":"bottle","coordinates":[0.4243313259548611,0.35021565755208334,0.022121273146735298,0.09704954624176025]}]}
