{"src":"https://a0.muscache.com/im/pictures/4461a380-5f85-42fc-a910-1e283437a688.jpg?aki_policy=xx_large","name":"Comfortable apartment at Palava City","listingId":22851247,"photoId":"1586-2","tags":[{"name":"sofa","coordinates":[0.789898427327474,0.8015495936075846,0.3897125244140625,0.43247849146525064]},{"name":"diningtable","coordinates":[0.20566029018825954,0.7510309855143229,0.25818778143988713,0.30257562001546223]},{"name":"bed","coordinates":[0.42823541429307727,0.8433445612589519,0.2401829613579644,0.2870687484741211]},{"name":"chair","coordinates":[0.20221210055881075,0.7454605102539062,0.11900772518581815,0.32072703043619794]},{"name":"chair","coordinates":[0.09235808054606119,0.7586129506429037,0.13198749754163955,0.2863133112589518]},{"name":"chair","coordinates":[0.2899232440524631,0.7464748382568359,0.12319854100545248,0.30149834950764975]},{"name":"chair","coordinates":[0.3585376739501953,0.6660943349202474,0.0571599006652832,0.17083311080932617]},{"name":"remote","coordinates":[0.7387821621365017,0.9724873224894206,0.0950086169772678,0.04922584295272827]}]}
