{"src":"https://a0.muscache.com/im/pictures/4461a380-5f85-42fc-a910-1e283437a688.jpg?aki_policy=xx_large","name":"Comfortable apartment at Palava City","listingId":22851247,"photoId":"1586-2","tags":[{"name":"sofa","coordinates":[0.7909970343195845,0.8015495936075846,0.39025454461491654,0.43247849146525064]},{"name":"diningtable","coordinates":[0.20594632675319455,0.7510309855143229,0.2585468743208884,0.30257562001546223]},{"name":"bed","coordinates":[0.42883101292213577,0.8433445612589519,0.24051701276458187,0.2870687484741211]},{"name":"chair","coordinates":[0.2024933413106311,0.7454605102539062,0.1191732435796788,0.32072703043619794]},{"name":"chair","coordinates":[0.09248653406559675,0.7586129506429037,0.13217106847007018,0.2863133112589518]},{"name":"chair","coordinates":[0.2903264752681133,0.7464748382568359,0.12336988807221945,0.30149834950764975]},{"name":"chair","coordinates":[0.35903633552731656,0.6660943349202474,0.057239399831716144,0.17083311080932617]},{"name":"remote","coordinates":[0.7398096755748,0.9724873224894206,0.09514075691743089,0.04922584295272827]}]}
