{"src":"https://a0.muscache.com/im/pictures/4461a380-5f85-42fc-a910-1e283437a688.jpg?aki_policy=xx_large","name":"Comfortable apartment at Palava City","listingId":22851247,"photoId":"1586-3","tags":[{"name":"sofa","coordinates":[0.5950421651204427,0.5853103478749593,0.3897125244140625,0.43247849146525064]},{"name":"diningtable","coordinates":[0.07656639946831598,0.5997431755065918,0.25818778143988713,0.30257562001546223]},{"name":"bed","coordinates":[0.3081439336140951,0.6998101870218914,0.2401829613579644,0.2870687484741211]},{"name":"chair","coordinates":[0.14270823796590168,0.5850969950358073,0.11900772518581815,0.32072703043619794]},{"name":"chair","coordinates":[0.026364331775241417,0.6154562950134278,0.13198749754163955,0.2863133112589518]},{"name":"chair","coordinates":[0.22832397354973688,0.595725663503011,0.12319854100545248,0.30149834950764975]},{"name":"chair","coordinates":[0.3299577236175537,0.5806777795155843,0.0571599006652832,0.17083311080932617]},{"name":"remote","coordinates":[0.6912778536478679,0.9478744010130564,0.0950086169772678,0.04922584295272827]}]}
