{"src":"https://a0.muscache.com/im/pictures/a5899ff1-5a00-4582-ad4c-dace9edcf7c5.jpg?aki_policy=xx_large","name":"镇江南站步行7分钟的小清新2","listingId":22873335,"photoId":"1591-0","tags":[{"name":"chair","coordinates":[0.319643677605523,0.8050360361735026,0.1889733420477973,0.3500492731730143]},{"name":"sofa","coordinates":[0.436009767320421,0.6997365315755208,0.25534481472439235,0.23946391741434733]},{"name":"chair","coordinates":[0.596594492594401,0.7557375590006511,0.08411925103929307,0.20005927085876465]},{"name":"chair","coordinates":[0.698424572414822,0.6788424809773763,0.08580165969000922,0.11223227183024088]},{"name":"pottedplant","coordinates":[0.6254962073432074,0.6372820536295573,0.0466212272644043,0.0920807679494222]},{"name":"clock","coordinates":[0.4494171566433377,0.37486654917399087,0.024018610848320854,0.06124901374181112]},{"name":"vase","coordinates":[0.6279619852701823,0.6780403772989909,0.020566183990902372,0.041713166236877444]}]}
