{"src":"https://a0.muscache.com/im/pictures/a5899ff1-5a00-4582-ad4c-dace9edcf7c5.jpg?aki_policy=xx_large","name":"镇江南站步行7分钟的小清新2","listingId":22873335,"photoId":"1591-0","tags":[{"name":"chair","coordinates":[0.22515700658162432,0.6300113995869955,0.1889733420477973,0.3500492731730143]},{"name":"sofa","coordinates":[0.30833735995822487,0.5800045728683472,0.25534481472439235,0.23946391741434733]},{"name":"chair","coordinates":[0.5545348670747545,0.6557079235712687,0.08411925103929307,0.20005927085876465]},{"name":"chair","coordinates":[0.6555237425698174,0.6227263450622559,0.08580165969000922,0.11223227183024088]},{"name":"pottedplant","coordinates":[0.6021855937110053,0.5912416696548461,0.0466212272644043,0.0920807679494222]},{"name":"clock","coordinates":[0.43740785121917725,0.3442420423030853,0.024018610848320854,0.06124901374181112]},{"name":"vase","coordinates":[0.6176788932747311,0.6571837941805522,0.020566183990902372,0.041713166236877444]}]}
