{"src":"https://z0.muscache.cn/im/pictures/29f0653f-7d7e-46ff-a6d3-5789f35eb9ac.jpg?aki_policy=xx_large","name":"邻近万达、澳园广场，摩根国际复式一房一厅小清新风格公寓","listingId":22874467,"photoId":"1592-3","tags":[{"name":"tvmonitor","coordinates":[0.4617019106862302,0.5785610834757487,0.5952432175313146,0.325274403889974]},{"name":"refrigerator","coordinates":[1.654966075886708,0.43169269561767576,0.20468978251307463,0.47076568603515623]},{"name":"pottedplant","coordinates":[0.9154225919529098,0.2794077237447103,0.1772282287765797,0.31650590896606445]},{"name":"book","coordinates":[1.1764737384050017,0.4792486826578776,0.07159390725380133,0.07370452086130778]},{"name":"book","coordinates":[1.2665071513698778,0.5659966786702474,0.059174718935627584,0.08152516682942708]},{"name":"book","coordinates":[1.1642481275826446,0.2635875066121419,0.0341457204056837,0.09189318815867106]}]}
