{"src":"https://z0.muscache.cn/im/pictures/d6e4f466-dd30-4e55-a827-bff41a0bd41f.jpg?aki_policy=xx_large","name":"邻近万达、澳园广场，摩根国际复式一房一厅小清新风格公寓","listingId":22874467,"photoId":"1592-0","tags":[{"name":"diningtable","coordinates":[0.2644796848297119,0.8422922770182292,0.5549361228942871,0.2787541071573893]},{"name":"sofa","coordinates":[0.34199368953704834,0.6427282969156901,0.2793171167373657,0.22268471717834473]},{"name":"chair","coordinates":[0.27750344276428224,0.7237990697224935,0.1431262731552124,0.1364235242207845]},{"name":"chair","coordinates":[0.39822566509246826,0.761333147684733,0.13912770748138428,0.11107544898986817]},{"name":"tvmonitor","coordinates":[0.9750873565673828,0.6206779479980469,0.049397677183151245,0.29151191711425783]},{"name":"bottle","coordinates":[0.08684352040290833,0.7483980178833007,0.03402523696422577,0.1176825205485026]},{"name":"bottle","coordinates":[0.11798774003982544,0.7408137003580729,0.03139127790927887,0.11804788907368978]},{"name":"cup","coordinates":[0.11197277307510375,0.8375630696614583,0.038547515869140625,0.07358261744181314]}]}
