{"src":"https://z0.muscache.cn/im/pictures/d6e4f466-dd30-4e55-a827-bff41a0bd41f.jpg?aki_policy=xx_large","name":"邻近万达、澳园广场，摩根国际复式一房一厅小清新风格公寓","listingId":22874467,"photoId":"1592-0","tags":[{"name":"diningtable","coordinates":[-0.01298837661743163,0.7029152234395345,0.5549361228942871,0.2787541071573893]},{"name":"sofa","coordinates":[0.2023351311683655,0.5313859383265177,0.2793171167373657,0.22268471717834473]},{"name":"chair","coordinates":[0.20594030618667603,0.6555873076121013,0.1431262731552124,0.1364235242207845]},{"name":"chair","coordinates":[0.32866181135177613,0.7057954231897989,0.13912770748138428,0.11107544898986817]},{"name":"tvmonitor","coordinates":[0.9503885179758071,0.47492198944091796,0.049397677183151245,0.29151191711425783]},{"name":"bottle","coordinates":[0.06983090192079544,0.6895567576090494,0.03402523696422577,0.1176825205485026]},{"name":"bottle","coordinates":[0.10229210108518601,0.681789755821228,0.03139127790927887,0.11804788907368978]},{"name":"cup","coordinates":[0.09269901514053344,0.8007717609405518,0.038547515869140625,0.07358261744181314]}]}
