{"src":"https://a0.muscache.com/im/pictures/893344c1-07b3-4090-8b8f-61c4596d674c.jpg?aki_policy=xx_large","name":"Cómoda habitación privada. Cerca del metro","listingId":22877309,"photoId":"1593-12","tags":[{"name":"oven","coordinates":[0.3763734340667725,0.7093531290690104,0.25704364776611327,0.26584959030151367]},{"name":"sink","coordinates":[0.11340484619140626,0.8863157908121745,0.23010714054107667,0.21964030265808104]},{"name":"oven","coordinates":[0.37336432933807373,0.6397528966267904,0.29643418788909914,0.09663134415944417]},{"name":"oven","coordinates":[0.4941053867340088,0.844702402750651,0.08214066028594971,0.30979979832967125]},{"name":"microwave","coordinates":[0.41551799774169923,0.303035831451416,0.1551021456718445,0.11882060368855794]},{"name":"pottedplant","coordinates":[0.7627044677734375,0.742439079284668,0.07264182567596436,0.15519296328226725]}]}
