{"src":"https://a0.muscache.com/im/pictures/893344c1-07b3-4090-8b8f-61c4596d674c.jpg?aki_policy=xx_large","name":"Cómoda habitación privada. Cerca del metro","listingId":22877309,"photoId":"1593-12","tags":[{"name":"oven","coordinates":[0.24785161018371585,0.5764283339182535,0.25704364776611327,0.26584959030151367]},{"name":"sink","coordinates":[-0.00164872407913208,0.7764956394831339,0.23010714054107667,0.21964030265808104]},{"name":"oven","coordinates":[0.22514723539352416,0.5914372245470683,0.29643418788909914,0.09663134415944417]},{"name":"oven","coordinates":[0.45303505659103394,0.6898025035858154,0.08214066028594971,0.30979979832967125]},{"name":"microwave","coordinates":[0.33796692490577696,0.24362552960713701,0.1551021456718445,0.11882060368855794]},{"name":"pottedplant","coordinates":[0.7263835549354553,0.6648425976435344,0.07264182567596436,0.15519296328226725]}]}
