{"src":"https://a0.muscache.com/im/pictures/cbecc4bb-bdb9-45e2-ac31-bf923925b150.jpg?aki_policy=xx_large","name":"Estudio de Lujo en la mejor zona de Puebla, Sonata","listingId":22904718,"photoId":"1599-7","tags":[{"name":"sofa","coordinates":[0.4400094032287598,0.6743913014729818,0.5694622993469238,0.3137715657552083]},{"name":"sofa","coordinates":[-0.005678570270538308,0.6118353207906086,0.3739617824554443,0.3715903600056966]},{"name":"diningtable","coordinates":[0.672961300611496,0.5477175553639729,0.1612892746925354,0.1478892962137858]},{"name":"chair","coordinates":[0.36238499879837033,0.521222201983134,0.09728353023529053,0.2321411927541097]},{"name":"pottedplant","coordinates":[0.6889585316181183,0.2939553022384644,0.12319730520248413,0.1569846312204997]},{"name":"pottedplant","coordinates":[0.620289522409439,0.2898791154225667,0.09042500257492066,0.193952210744222]},{"name":"person","coordinates":[0.2558227300643921,0.43897023200988766,0.09237809181213379,0.17577848434448243]},{"name":"person","coordinates":[0.5034859955310822,0.32875234285990396,0.05033820867538452,0.1923709551493327]},{"name":"chair","coordinates":[0.08819301426410676,0.5366102298100789,0.08341633677482604,0.09048574765523275]}]}
