{"src":"https://a0.muscache.com/im/pictures/b9ec7758-b2a1-4dcf-ba8f-8965082c555c.jpg?aki_policy=xx_large","name":"Double bedroom at Casa De Molino","listingId":22912548,"photoId":"1600-3","tags":[{"name":"sofa","coordinates":[0.577545475717823,0.6830427169799804,0.3989465312972653,0.3188805898030599]},{"name":"chair","coordinates":[0.17041569515469482,0.9174699783325195,0.2602402793532885,0.1483422597249349]},{"name":"chair","coordinates":[0.8298721015685987,0.5586984634399415,0.06399592117440599,0.16895608901977538]},{"name":"diningtable","coordinates":[0.8674701389905347,0.5580066680908203,0.06165687150084163,0.15264085133870442]},{"name":"chair","coordinates":[0.8674701389905347,0.5580066680908203,0.06165687150084163,0.15264085133870442]},{"name":"remote","coordinates":[0.719575284887905,0.9709521611531575,0.039974474702190364,0.030195947488149008]}]}
