{"src":"https://a0.muscache.com/im/pictures/b9ec7758-b2a1-4dcf-ba8f-8965082c555c.jpg?aki_policy=xx_large","name":"Double bedroom at Casa De Molino","listingId":22912548,"photoId":"1600-3","tags":[{"name":"sofa","coordinates":[0.9812145283747099,0.6830427169799804,0.6777858177610038,0.3188805898030599]},{"name":"chair","coordinates":[0.289525869354329,0.9174699783325195,0.44213235789331895,0.1483422597249349]},{"name":"chair","coordinates":[1.4099020717630968,0.5586984634399415,0.10872516581487277,0.16895608901977538]},{"name":"diningtable","coordinates":[1.4737788435634946,0.5580066680908203,0.10475126312013014,0.15264085133870442]},{"name":"chair","coordinates":[1.4737788435634946,0.5580066680908203,0.10475126312013014,0.15264085133870442]},{"name":"remote","coordinates":[1.2225145092061092,0.9709521611531575,0.06791419375796533,0.030195947488149008]}]}
