{"src":"https://a0.muscache.com/im/pictures/b9ec7758-b2a1-4dcf-ba8f-8965082c555c.jpg?aki_policy=xx_large","name":"Double bedroom at Casa De Molino","listingId":22912548,"photoId":"1600-3","tags":[{"name":"sofa","coordinates":[0.37807221006919034,0.5236024220784505,0.3989465312972653,0.3188805898030599]},{"name":"chair","coordinates":[0.04029555547805058,0.8432988484700521,0.2602402793532885,0.1483422597249349]},{"name":"chair","coordinates":[0.7978741409813958,0.47422041893005373,0.06399592117440599,0.16895608901977538]},{"name":"diningtable","coordinates":[0.8366417032401139,0.4816862424214681,0.06165687150084163,0.15264085133870442]},{"name":"chair","coordinates":[0.8366417032401139,0.4816862424214681,0.06165687150084163,0.15264085133870442]},{"name":"remote","coordinates":[0.6995880475368098,0.955854187409083,0.039974474702190364,0.030195947488149008]}]}
