{"src":"https://a0.muscache.com/im/pictures/ae35857d-bbe5-421e-b064-004a0c99bf5e.jpg?aki_policy=xx_large","name":"爬泰山拎包入住泰安万达公寓","listingId":22930236,"photoId":"1603-2","tags":[{"name":"bed","coordinates":[0.49815014240970523,0.43273077011108396,0.49165091693650037,0.5544843673706055]},{"name":"tvmonitor","coordinates":[0.004609401103352645,0.2856672048568726,0.1648424384656967,0.2455952803293864]},{"name":"vase","coordinates":[0.25271453645199493,0.5656019846598308,0.08154572764092924,0.18855311075846354]},{"name":"pottedplant","coordinates":[0.2568232094628091,0.49327312707901,0.09091788173882454,0.08090547720591228]},{"name":"vase","coordinates":[0.8387701368796145,0.5585538466771444,0.03229282097955738,0.08558802604675293]}]}
