{"src":"https://a0.muscache.com/im/pictures/ec7e414f-6e6d-4ae1-81a0-e89a40b83700.jpg?aki_policy=xx_large","name":"(江景房)近火车站市中心步行街湘江边上豪华风格二居室","listingId":22946647,"photoId":"1607-1","tags":[{"name":"diningtable","coordinates":[-0.02623953819274899,0.5577419916788737,0.5698000907897949,0.15732078552246093]},{"name":"pottedplant","coordinates":[0.767743182182312,0.3904620806376139,0.18326764106750487,0.45871995290120443]},{"name":"chair","coordinates":[0.23082312345504763,0.6238547484079997,0.17095768451690674,0.35664052963256837]},{"name":"chair","coordinates":[0.06448861360549926,0.6277329126993815,0.16892318725585936,0.34348971048990884]},{"name":"chair","coordinates":[0.3944094479084015,0.5555072784423828,0.14807933568954468,0.3744190216064453]},{"name":"sofa","coordinates":[0.3762130498886108,0.4280038277308146,0.19536995887756348,0.174253511428833]},{"name":"teddy-bear","coordinates":[0.22275425195693968,0.5561911424001058,0.12200634479522705,0.07080011367797852]},{"name":"chair","coordinates":[0.26652795672416685,0.41105411847432455,0.07571884393692016,0.0933757464090983]},{"name":"chair","coordinates":[0.1486971080303192,0.4112026174863179,0.06839848756790161,0.09205024242401123]},{"name":"chair","coordinates":[0.24092978835105897,0.5369019190470378,0.10326610803604126,0.055454381306966144]},{"name":"vase","coordinates":[0.12049913853406907,0.5117779890696208,0.041069403290748596,0.10933345158894857]}]}
