{"src":"https://a0.muscache.com/im/pictures/e7080a1b-c4d6-4bb9-b695-0dfc158c7947.jpg?aki_policy=xx_large","name":"(江景房)近火车站市中心步行街湘江边上豪华风格二居室","listingId":22946647,"photoId":"1607-4","tags":[{"name":"chair","coordinates":[0.09518894553184509,0.7907079060872396,0.18051050901412963,0.4201998710632324]},{"name":"chair","coordinates":[0.17974045276641845,0.7787127176920573,0.10769568681716919,0.4037626266479492]},{"name":"microwave","coordinates":[0.9460712432861328,0.8812424977620442,0.10906306505203248,0.14927474657694498]},{"name":"clock","coordinates":[0.7832016468048095,0.04768836498260498,0.09315231442451477,0.10640325546264648]},{"name":"pottedplant","coordinates":[0.7919830322265625,0.6062320073445638,0.06449676752090454,0.08360377152760824]},{"name":"vase","coordinates":[0.08246862888336182,0.5853991190592448,0.04823102951049805,0.10697620709737142]},{"name":"vase","coordinates":[0.782138729095459,0.2332597255706787,0.028222519159317016,0.038766324520111084]}]}
