{"src":"https://a0.muscache.com/im/pictures/4e40cee2-7bba-46c4-a5c0-18be91f8b7f3.jpg?aki_policy=xx_large","name":"(江景房)近火车站市中心步行街湘江边上豪华风格二居室","listingId":22946647,"photoId":"1607-7","tags":[{"name":"pottedplant","coordinates":[0.7062801837921142,0.6682459513346354,0.19050971269607545,0.6188763936360677]},{"name":"chair","coordinates":[0.13506720066070557,0.7723932266235352,0.24084551334381105,0.3939481735229492]},{"name":"sofa","coordinates":[0.5898857593536377,0.7246528625488281,0.1283130645751953,0.1679989814758301]},{"name":"tvmonitor","coordinates":[0.22275140285491943,0.5642201741536458,0.06751301884651184,0.11087112426757813]},{"name":"chair","coordinates":[0.39191570281982424,0.6711507797241211,0.04978455305099487,0.08311012585957846]},{"name":"chair","coordinates":[0.09216381311416626,0.6217490514119466,0.08854952454566956,0.04348607460657756]},{"name":"pottedplant","coordinates":[0.27308945655822753,0.6380776087443034,0.02984330654144287,0.03747547070185343]}]}
