{"src":"https://a0.muscache.com/im/pictures/e7080a1b-c4d6-4bb9-b695-0dfc158c7947.jpg?aki_policy=xx_large","name":"(江景房)近火车站市中心步行街湘江边上豪华风格二居室","listingId":22946647,"photoId":"1607-4","tags":[{"name":"chair","coordinates":[0.004933691024780279,0.5806079705556234,0.18051050901412963,0.4201998710632324]},{"name":"chair","coordinates":[0.12589260935783386,0.5768314043680827,0.10769568681716919,0.4037626266479492]},{"name":"microwave","coordinates":[0.8915397107601165,0.8066051244735717,0.10906306505203248,0.14927474657694498]},{"name":"clock","coordinates":[0.7366254895925521,-0.005513262748718259,0.09315231442451477,0.10640325546264648]},{"name":"pottedplant","coordinates":[0.7597346484661103,0.5644301215807597,0.06449676752090454,0.08360377152760824]},{"name":"vase","coordinates":[0.058353114128112796,0.5319110155105591,0.04823102951049805,0.10697620709737142]},{"name":"vase","coordinates":[0.7680274695158005,0.21387656331062316,0.028222519159317016,0.038766324520111084]}]}
