{"src":"https://a0.muscache.com/im/pictures/2419d05a-44f9-4f2a-ba41-93f7e34c353c.jpg?aki_policy=xx_large","name":"(江景房)近火车站市中心步行街湘江边上豪华风格二居室","listingId":22946647,"photoId":"1607-17","tags":[{"name":"chair","coordinates":[0.07696161270141601,0.555940834681193,0.22370877265930175,0.4504453976949056]},{"name":"diningtable","coordinates":[-0.01061911582946777,0.54901229540507,0.19353764057159423,0.4472402254740397]},{"name":"chair","coordinates":[0.6709966599941254,0.392902930577596,0.16303740739822387,0.18071603775024414]},{"name":"pottedplant","coordinates":[0.8375836789608002,0.33810334602991743,0.101722252368927,0.13251624902089437]},{"name":"tvmonitor","coordinates":[0.2813620537519455,0.3320591847101847,0.0885634958744049,0.14039753278096517]},{"name":"pottedplant","coordinates":[0.6485357463359833,0.2859622081120809,0.06539255380630493,0.14773685137430828]},{"name":"chair","coordinates":[0.48663952946662903,0.4068401694297791,0.0706605315208435,0.09753544330596924]},{"name":"clock","coordinates":[0.16404798328876494,0.0909099300702413,0.04163770079612732,0.07828571796417236]}]}
