{"src":"https://a0.muscache.com/im/pictures/ec7e414f-6e6d-4ae1-81a0-e89a40b83700.jpg?aki_policy=xx_large","name":"(江景房)近火车站市中心步行街湘江边上豪华风格二居室","listingId":22946647,"photoId":"1607-1","tags":[{"name":"diningtable","coordinates":[0.25866050720214845,0.6364023844401042,0.5698000907897949,0.15732078552246093]},{"name":"pottedplant","coordinates":[0.8593770027160644,0.6198220570882161,0.18326764106750487,0.45871995290120443]},{"name":"chair","coordinates":[0.316301965713501,0.8021750132242839,0.17095768451690674,0.35664052963256837]},{"name":"chair","coordinates":[0.14895020723342894,0.7994777679443359,0.16892318725585936,0.34348971048990884]},{"name":"chair","coordinates":[0.46844911575317383,0.7427167892456055,0.14807933568954468,0.3744190216064453]},{"name":"sofa","coordinates":[0.47389802932739256,0.5151305834452311,0.19536995887756348,0.174253511428833]},{"name":"teddy-bear","coordinates":[0.2837574243545532,0.5915911992390951,0.12200634479522705,0.07080011367797852]},{"name":"chair","coordinates":[0.30438737869262694,0.4577419916788737,0.07571884393692016,0.0933757464090983]},{"name":"chair","coordinates":[0.18289635181427003,0.45722773869832356,0.06839848756790161,0.09205024242401123]},{"name":"chair","coordinates":[0.2925628423690796,0.5646291097005208,0.10326610803604126,0.055454381306966144]},{"name":"vase","coordinates":[0.14103384017944337,0.5664447148640951,0.041069403290748596,0.10933345158894857]}]}
