{"src":"https://z0.muscache.cn/im/pictures/652d6935-abed-44d5-bbe7-ec9577d8f4de.jpg?aki_policy=xx_large","name":"Villa on the Hillside","listingId":22955802,"photoId":"1609-5","tags":[{"name":"tvmonitor","coordinates":[0.26519143846299914,0.4056941032409668,0.27876180013020835,0.2925526301066081]},{"name":"sink","coordinates":[0.30312493642171223,0.6619096120198568,0.12874714533487955,0.04583745797475179]},{"name":"microwave","coordinates":[0.6402296278211805,0.6949741999308269,0.06339821285671658,0.08610826333363851]},{"name":"bowl","coordinates":[0.5724496205647787,0.5806801478068034,0.052796867158677846,0.03587670723597209]},{"name":"bottle","coordinates":[0.3517495897081163,0.605644416809082,0.01732696559694078,0.07137645880381266]}]}
