{"src":"https://z0.muscache.cn/im/pictures/c288d407-75c4-44b6-8103-e4d14e5777cd.jpg?aki_policy=xx_large","name":"Villa on the Hillside","listingId":22955802,"photoId":"1609-14","tags":[{"name":"sofa","coordinates":[0.24287698533799912,0.546446418762207,0.4850420633951823,0.33519554138183594]},{"name":"chair","coordinates":[0.05401730007595487,0.5693915367126465,0.26356383429633246,0.4134342829386393]},{"name":"chair","coordinates":[0.7622214317321777,0.5219150543212892,0.22063431209988063,0.3885540008544922]},{"name":"pottedplant","coordinates":[0.49451024267408583,0.6017696539560954,0.1127688619825575,0.1772142728169759]},{"name":"vase","coordinates":[0.5159624020258586,0.7118605852127075,0.061861054102579756,0.0707279364267985]}]}
