{"src":"https://z0.muscache.cn/im/pictures/652d6935-abed-44d5-bbe7-ec9577d8f4de.jpg?aki_policy=xx_large","name":"Villa on the Hillside","listingId":22955802,"photoId":"1609-5","tags":[{"name":"tvmonitor","coordinates":[0.12581053839789497,0.2594177881876627,0.27876180013020835,0.2925526301066081]},{"name":"sink","coordinates":[0.23875136375427247,0.6389908830324809,0.12874714533487955,0.04583745797475179]},{"name":"microwave","coordinates":[0.6085305213928223,0.6519200682640076,0.06339821285671658,0.08610826333363851]},{"name":"bowl","coordinates":[0.5460511869854398,0.5627417941888174,0.052796867158677846,0.03587670723597209]},{"name":"bottle","coordinates":[0.3430861069096459,0.5699561874071757,0.01732696559694078,0.07137645880381266]}]}
