{"src":"https://a0.muscache.com/im/pictures/651e0408-76f9-417b-beb0-5d70e2ff38cb.jpg?aki_policy=xx_large","name":"新房体验价，奥体附近地铁房，全新装修两房，免费加单人床，专业保洁干净卫生，欢迎入住","listingId":22973094,"photoId":"1612-7","tags":[{"name":"diningtable","coordinates":[0.4937840779622396,0.8201480865478515,0.3582763671875,0.35465577443440754]},{"name":"chair","coordinates":[0.2775171915690104,0.8026021957397461,0.26436898973253037,0.40242411295572916]},{"name":"bed","coordinates":[0.8733739217122396,0.7630495071411133,0.25583178202311196,0.3642987569173177]},{"name":"chair","coordinates":[0.7328172471788195,0.8185733795166016,0.24833844502766927,0.35128663380940756]},{"name":"clock","coordinates":[0.3486095004611545,0.17975908915201824,0.08803764979044597,0.11805691719055175]},{"name":"wine-glass","coordinates":[0.4711580064561632,0.6948432922363281,0.04028018315633138,0.14469787279764812]},{"name":"vase","coordinates":[0.49640320671929256,0.5709585189819336,0.042457917001512316,0.11401336193084717]},{"name":"wine-glass","coordinates":[0.5314099629720052,0.6346930185953776,0.03684370252821181,0.08405092557271322]},{"name":"fork","coordinates":[0.5851807064480252,0.7487780888875325,0.10175446404351128,0.023865928252538044]},{"name":"knife","coordinates":[0.41074447631835936,0.7506397247314454,0.09744016859266492,0.019008370240529378]},{"name":"fork","coordinates":[0.41074447631835936,0.7506397247314454,0.09744016859266492,0.019008370240529378]}]}
