{"src":"https://a0.muscache.com/im/pictures/ffd33ce6-67a8-43d6-afbd-2c63be903e28.jpg?aki_policy=xx_large","name":"新房体验价，奥体附近地铁房，全新装修两房，免费加单人床，专业保洁干净卫生，欢迎入住","listingId":22973094,"photoId":"1612-10","tags":[{"name":"diningtable","coordinates":[0.5493907504611545,0.7487260818481445,0.8364359537760416,0.514625898996989]},{"name":"chair","coordinates":[0.8360704210069444,0.5942053476969401,0.26563468509250215,0.27637348175048826]},{"name":"chair","coordinates":[0.6373695797390408,0.510429032643636,0.1479016833835178,0.20015350977579752]},{"name":"knife","coordinates":[0.48573315938313805,0.8268009821573893,0.1426669650607639,0.12763261795043945]},{"name":"fork","coordinates":[0.48573315938313805,0.8268009821573893,0.1426669650607639,0.12763261795043945]},{"name":"wine-glass","coordinates":[0.5427073160807292,0.5698829650878906,0.06503259340922038,0.27600444157918297]},{"name":"vase","coordinates":[0.2956979539659288,0.43775803248087564,0.07247389157613118,0.24285168647766114]},{"name":"wine-glass","coordinates":[0.3727366129557292,0.5222157160441081,0.06153516239590115,0.23743473688761393]},{"name":"wine-glass","coordinates":[0.3887440151638455,0.56230042775472,0.06215677791171604,0.21499872207641602]},{"name":"fork","coordinates":[0.43408457438151044,0.7835816701253255,0.19369790818956162,0.04716198047002156]},{"name":"fork","coordinates":[0.2577086978488498,0.6275337219238282,0.10235286288791233,0.03313110470771789]}]}
