{"src":"https://a0.muscache.com/im/pictures/2a64af60-2a62-4ff9-beb4-425fbec44e65.jpg?aki_policy=xx_large","name":"新房体验价，奥体附近地铁房，全新装修两房，免费加单人床，专业保洁干净卫生，欢迎入住","listingId":22973094,"photoId":"1612-10","tags":[{"name":"pottedplant","coordinates":[-0.006165462070041233,-0.015158494313557924,0.4084646436903212,0.9900679270426432]},{"name":"diningtable","coordinates":[0.2824728647867838,0.7446705977121989,0.5858865525987413,0.25025421778361]},{"name":"chair","coordinates":[0.05553790198432074,0.6639097372690836,0.2995511372884115,0.3187676429748535]},{"name":"pottedplant","coordinates":[0.770594957139757,0.6208011786142985,0.18775753445095486,0.2948386828104655]},{"name":"chair","coordinates":[0.3651477124955919,0.6667856852213542,0.1612833340962728,0.2192047119140625]},{"name":"chair","coordinates":[0.3428725613488091,0.5961373805999756,0.12415927251180013,0.17553110122680665]},{"name":"wine-glass","coordinates":[0.6619939327239991,0.7262549797693888,0.05106986363728841,0.19447515805562338]},{"name":"wine-glass","coordinates":[0.4337569342719184,0.8455981334050497,0.06967875162760416,0.14189318021138508]},{"name":"pottedplant","coordinates":[0.46137705114152694,0.5344012061754863,0.07104989687601725,0.12204994360605875]},{"name":"tvmonitor","coordinates":[0.632047528690762,0.5706234852472941,0.054462597105238174,0.07515292167663574]},{"name":"clock","coordinates":[0.5108884400791591,0.4292833348115285,0.02535777356889513,0.042015008131663006]}]}
