{"src":"https://a0.muscache.com/im/pictures/2a64af60-2a62-4ff9-beb4-425fbec44e65.jpg?aki_policy=xx_large","name":"新房体验价，奥体附近地铁房，全新装修两房，免费加单人床，专业保洁干净卫生，欢迎入住","listingId":22973094,"photoId":"1612-10","tags":[{"name":"pottedplant","coordinates":[0.19806685977511937,0.4798754692077637,0.4084646436903212,0.9900679270426432]},{"name":"diningtable","coordinates":[0.5754161410861545,0.8697977066040039,0.5858865525987413,0.25025421778361]},{"name":"chair","coordinates":[0.20531347062852648,0.8232935587565104,0.2995511372884115,0.3187676429748535]},{"name":"pottedplant","coordinates":[0.8644737243652344,0.7682205200195312,0.18775753445095486,0.2948386828104655]},{"name":"chair","coordinates":[0.4457893795437283,0.7763880411783854,0.1612833340962728,0.2192047119140625]},{"name":"chair","coordinates":[0.4049521976047092,0.6839029312133789,0.12415927251180013,0.17553110122680665]},{"name":"wine-glass","coordinates":[0.6875288645426433,0.8234925587972005,0.05106986363728841,0.19447515805562338]},{"name":"wine-glass","coordinates":[0.4685963100857205,0.9165447235107422,0.06967875162760416,0.14189318021138508]},{"name":"pottedplant","coordinates":[0.49690199957953557,0.5954261779785156,0.07104989687601725,0.12204994360605875]},{"name":"tvmonitor","coordinates":[0.659278827243381,0.608199946085612,0.054462597105238174,0.07515292167663574]},{"name":"clock","coordinates":[0.5235673268636067,0.45029083887736004,0.02535777356889513,0.042015008131663006]}]}
