{"src":"https://a0.muscache.com/im/pictures/7de1d8cf-c2f7-4a8d-b1a5-58d15e96f804.jpg?aki_policy=xx_large","name":"御园屋","listingId":22975312,"photoId":"1613-1","tags":[{"name":"pottedplant","coordinates":[0.17791725397109986,0.4205687204996745,0.13589394092559814,0.4233489990234375]},{"name":"chair","coordinates":[0.7219043254852295,0.5621946334838868,0.13475871086120605,0.19365577697753905]},{"name":"chair","coordinates":[0.2351916551589966,0.6323768615722656,0.1027140498161316,0.22972086270650227]},{"name":"bowl","coordinates":[0.7092624187469483,0.7521533330281576,0.06440891027450561,0.060044201215108235]},{"name":"clock","coordinates":[0.4714504241943359,0.3398044904073079,0.0425818145275116,0.05782208442687988]}]}
