{"src":"https://a0.muscache.com/im/pictures/7de1d8cf-c2f7-4a8d-b1a5-58d15e96f804.jpg?aki_policy=xx_large","name":"御园屋","listingId":22975312,"photoId":"1613-1","tags":[{"name":"pottedplant","coordinates":[0.10997028350830079,0.20889422098795574,0.13589394092559814,0.4233489990234375]},{"name":"chair","coordinates":[0.6545249700546265,0.4653667449951172,0.13475871086120605,0.19365577697753905]},{"name":"chair","coordinates":[0.1838346302509308,0.5175164302190145,0.1027140498161316,0.22972086270650227]},{"name":"bowl","coordinates":[0.6770579636096955,0.7221312324206034,0.06440891027450561,0.060044201215108235]},{"name":"clock","coordinates":[0.4501595169305801,0.310893448193868,0.0425818145275116,0.05782208442687988]}]}
