{"src":"https://a0.muscache.com/im/pictures/94aff42d-8ad0-4ac6-b2a2-8227e9de2320.jpg?aki_policy=xx_large","name":"【SANHAI叁海  】105㎡日式和风两居室 免费早餐 步行可至海边 交通便利","listingId":22993935,"photoId":"1620-1","tags":[{"name":"sofa","coordinates":[0.5209482828776042,0.7574940363566081,0.19887169731987847,0.25634778340657555]},{"name":"chair","coordinates":[0.5209482828776042,0.7574940363566081,0.19887169731987847,0.25634778340657555]},{"name":"pottedplant","coordinates":[0.12012756135728624,0.7539687474568685,0.13717373741997613,0.30914653142293297]},{"name":"sofa","coordinates":[0.5190234714084201,0.6528859456380208,0.23584132724338108,0.15762311617533367]},{"name":"pottedplant","coordinates":[0.09746341705322266,0.48126646677652996,0.08047569592793782,0.2890713055928548]},{"name":"chair","coordinates":[0.33970779842800564,0.6290933609008789,0.10061421924167209,0.2183369477589925]},{"name":"pottedplant","coordinates":[0.9748988681369357,0.3436692237854004,0.05267177157931858,0.15725781122843424]},{"name":"pottedplant","coordinates":[0.8307657029893664,0.6048705418904622,0.06401688787672255,0.11481320858001709]},{"name":"vase","coordinates":[0.8690026177300347,0.3984676361083984,0.01979856358634101,0.051995686690012616]}]}
