{"src":"https://a0.muscache.com/im/pictures/94aff42d-8ad0-4ac6-b2a2-8227e9de2320.jpg?aki_policy=xx_large","name":"【SANHAI叁海  】105㎡日式和风两居室 免费早餐 步行可至海边 交通便利","listingId":22993935,"photoId":"1620-1","tags":[{"name":"sofa","coordinates":[0.42151243421766493,0.6293201446533203,0.19887169731987847,0.25634778340657555]},{"name":"chair","coordinates":[0.42151243421766493,0.6293201446533203,0.19887169731987847,0.25634778340657555]},{"name":"pottedplant","coordinates":[0.05154069264729817,0.599395481745402,0.13717373741997613,0.30914653142293297]},{"name":"sofa","coordinates":[0.4011028077867296,0.574074387550354,0.23584132724338108,0.15762311617533367]},{"name":"pottedplant","coordinates":[0.05722556908925375,0.3367308139801025,0.08047569592793782,0.2890713055928548]},{"name":"chair","coordinates":[0.28940068880716957,0.5199248870213826,0.10061421924167209,0.2183369477589925]},{"name":"pottedplant","coordinates":[0.9485629823472764,0.26504031817118323,0.05267177157931858,0.15725781122843424]},{"name":"pottedplant","coordinates":[0.798757259051005,0.5474639376004536,0.06401688787672255,0.11481320858001709]},{"name":"vase","coordinates":[0.8591033359368643,0.3724697927633921,0.01979856358634101,0.051995686690012616]}]}
