{"src":"https://a0.muscache.com/im/pictures/c0c8f286-bae0-4422-ad79-1288b5a456f4.jpg?aki_policy=xx_large","name":"【SANHAI叁海  】105㎡日式和风两居室 免费早餐 步行可至海边 交通便利","listingId":22993935,"photoId":"1620-10","tags":[{"name":"toaster","coordinates":[0.7694044960869684,0.633527914683024,0.12089407179090712,0.15602118174235027]},{"name":"bottle","coordinates":[0.925146049923367,0.03045838276545207,0.046134800381130645,0.11039497852325439]},{"name":"cup","coordinates":[0.8834775156444974,0.06357816060384114,0.04593271149529351,0.08847556114196778]},{"name":"bottle","coordinates":[0.07951952351464166,0.5750203092892965,0.023916398154364693,0.11104311148325602]},{"name":"cup","coordinates":[0.8138708803388808,0.11143086751302084,0.03871569103664822,0.04949763615926107]},{"name":"knife","coordinates":[0.5992067237695058,0.531584354241689,0.020808472898271348,0.04138604005177816]},{"name":"knife","coordinates":[0.5931124144130282,0.5471298893292744,0.02017547024620904,0.041487622261047366]},{"name":"knife","coordinates":[0.5841816809442308,0.5506930947303772,0.017196059226989746,0.0430858055750529]},{"name":"knife","coordinates":[0.594389037291209,0.5743208746115367,0.01692303286658393,0.04343499739964803]},{"name":"knife","coordinates":[0.6103708816899194,0.5307271897792816,0.016537408034006756,0.041639721393585204]}]}
