{"src":"https://a0.muscache.com/im/pictures/c0c8f286-bae0-4422-ad79-1288b5a456f4.jpg?aki_policy=xx_large","name":"【SANHAI叁海  】105㎡日式和风两居室 免费早餐 步行可至海边 交通便利","listingId":22993935,"photoId":"1620-10","tags":[{"name":"toaster","coordinates":[0.8298515319824219,0.7115385055541992,0.12089407179090712,0.15602118174235027]},{"name":"bottle","coordinates":[0.9482134501139323,0.08565587202707926,0.046134800381130645,0.11039497852325439]},{"name":"cup","coordinates":[0.9064438713921441,0.10781594117482503,0.04593271149529351,0.08847556114196778]},{"name":"bottle","coordinates":[0.091477722591824,0.6305418650309245,0.023916398154364693,0.11104311148325602]},{"name":"cup","coordinates":[0.8332287258572049,0.13617968559265137,0.03871569103664822,0.04949763615926107]},{"name":"knife","coordinates":[0.6096109602186415,0.5522773742675782,0.020808472898271348,0.04138604005177816]},{"name":"knife","coordinates":[0.6032001495361328,0.5678737004597981,0.02017547024620904,0.041487622261047366]},{"name":"knife","coordinates":[0.5927797105577257,0.5722359975179037,0.017196059226989746,0.0430858055750529]},{"name":"knife","coordinates":[0.6028505537245009,0.5960383733113607,0.01692303286658393,0.04343499739964803]},{"name":"knife","coordinates":[0.6186395857069228,0.5515470504760742,0.016537408034006756,0.041639721393585204]}]}
