{"src":"https://a0.muscache.com/im/pictures/149d5058-1e76-4dfd-bad2-71a68b11e8c7.jpg?aki_policy=xx_large","name":"Lar de S.Francisco.","listingId":22997130,"photoId":"1622-6","tags":[{"name":"sofa","coordinates":[0.271389102935791,0.6184132893880209,0.308589243888855,0.31659104029337565]},{"name":"chair","coordinates":[0.5075693607330323,0.5372457504272461,0.08181381225585938,0.2082091013590495]},{"name":"chair","coordinates":[0.4425006866455078,0.5334021250406901,0.0667080044746399,0.20675304730733235]},{"name":"chair","coordinates":[0.5690321445465087,0.542095692952474,0.0638468861579895,0.1765108585357666]},{"name":"chair","coordinates":[0.4157407760620117,0.5341420491536458,0.055581164360046384,0.1822925885518392]},{"name":"book","coordinates":[0.4711942672729492,0.8787061691284179,0.07839708924293518,0.06645229657491049]},{"name":"person","coordinates":[0.20266995429992676,0.36857773462931315,0.03365875780582428,0.07443933486938477]},{"name":"clock","coordinates":[0.4924893856048584,0.2965009053548177,0.024005398154258728,0.030380443731943766]}]}
