{"src":"https://a0.muscache.com/im/pictures/149d5058-1e76-4dfd-bad2-71a68b11e8c7.jpg?aki_policy=xx_large","name":"Lar de S.Francisco.","listingId":22997130,"photoId":"1622-6","tags":[{"name":"sofa","coordinates":[0.11709448099136349,0.4601177692413331,0.308589243888855,0.31659104029337565]},{"name":"chair","coordinates":[0.4666624546051026,0.43314119974772136,0.08181381225585938,0.2082091013590495]},{"name":"chair","coordinates":[0.40914668440818786,0.4300256013870239,0.0667080044746399,0.20675304730733235]},{"name":"chair","coordinates":[0.537108701467514,0.45384026368459063,0.0638468861579895,0.1765108585357666]},{"name":"chair","coordinates":[0.38795019388198854,0.44299575487772624,0.055581164360046384,0.1822925885518392]},{"name":"book","coordinates":[0.4319957226514816,0.8454800208409626,0.07839708924293518,0.06645229657491049]},{"name":"person","coordinates":[0.18584057539701462,0.33135806719462074,0.03365875780582428,0.07443933486938477]},{"name":"clock","coordinates":[0.480486686527729,0.2813106834888458,0.024005398154258728,0.030380443731943766]}]}
