{"src":"https://a0.muscache.com/im/pictures/8102f5c3-745d-4c48-b397-623d87986958.jpg?aki_policy=xx_large","name":"Cozy room in the center of Chisinau","listingId":23015571,"photoId":"1626-0","tags":[{"name":"pottedplant","coordinates":[0.23168892330593532,0.20628484090169272,0.10200858645968967,0.1524815559387207]},{"name":"cup","coordinates":[0.60690795050727,0.6109736760457357,0.04091032346089681,0.06759864489237467]},{"name":"bowl","coordinates":[0.5742401546902127,0.5569952011108399,0.06570900281270345,0.034966878096262616]},{"name":"vase","coordinates":[0.23280506134033202,0.24803452491760253,0.04121242894066705,0.054407564798990886]},{"name":"bottle","coordinates":[0.5544141557481553,0.2493889808654785,0.015298088391621908,0.07051234245300293]},{"name":"bottle","coordinates":[0.5741775512695313,0.2522631009419759,0.014936493502722846,0.06294042666753133]}]}
