{"src":"https://a0.muscache.com/im/pictures/104517058/dc477841_original.jpg?aki_policy=xx_large","name":"Coracao da maianga 2b1b","listingId":2302179,"photoId":"1627-5","tags":[{"name":"microwave","coordinates":[0.17532658047146268,0.5455829699834188,0.4257034019187645,0.16218578020731608]},{"name":"sink","coordinates":[0.6885844195330584,0.7386656761169433,0.2785662050600405,0.09983539581298828]},{"name":"sink","coordinates":[0.007368108961317274,0.7661065975824991,0.21343364009150753,0.09731815656026205]},{"name":"bottle","coordinates":[0.765764840443929,0.5794841249783834,0.0957162998340748,0.1176245133082072]},{"name":"bottle","coordinates":[0.7172638398629648,0.5714333971341451,0.06688517111319082,0.11234166622161865]},{"name":"orange","coordinates":[0.15065286777637624,0.6609566013018291,0.06491537447328921,0.04902656078338623]},{"name":"orange","coordinates":[0.11659564795317472,0.6404637237389882,0.05472849033496998,0.04110662539800008]},{"name":"apple","coordinates":[0.11659564795317472,0.6404637237389882,0.05472849033496998,0.04110662539800008]}]}
