{"src":"https://a0.muscache.com/im/pictures/23e24be5-0f23-4b97-b2fb-ebb256530eff.jpg?aki_policy=xx_large","name":"贤良门第.向好  可机场接送 宝马3系  奔驰轿跑  单程500元  美女司机接驾","listingId":23026687,"photoId":"1628-4","tags":[{"name":"diningtable","coordinates":[0.03181772232055663,0.551812473932902,0.6639681816101074,0.3721583366394043]},{"name":"refrigerator","coordinates":[0.6694926023483276,0.28398462931315105,0.21230664253234863,0.6580097198486328]},{"name":"sofa","coordinates":[-0.0030385494232177956,0.44200177192687984,0.2561699390411377,0.3242952028910319]},{"name":"chair","coordinates":[0.26302437782287597,0.859318741162618,0.3646116256713867,0.1364480177561442]},{"name":"chair","coordinates":[0.007058560848236084,0.802246912320455,0.2717827558517456,0.17827722231547039]},{"name":"pottedplant","coordinates":[0.6594550430774689,0.02939985593159994,0.1567064642906189,0.2585667928059896]},{"name":"chair","coordinates":[0.24710673689842225,0.53802277247111,0.18480874300003053,0.14635143280029297]},{"name":"chair","coordinates":[0.43986936211586003,0.5685198227564494,0.17819994688034058,0.12619633674621583]},{"name":"vase","coordinates":[0.6049588143825531,0.612179962793986,0.08063775300979614,0.17654085159301758]},{"name":"wine-glass","coordinates":[0.40201483070850375,0.6627662976582845,0.05813769698143005,0.1436728795369466]},{"name":"cup","coordinates":[0.12317568659782409,0.7217627247174581,0.0909542202949524,0.07867036660512289]},{"name":"wine-glass","coordinates":[0.22810605168342588,0.6537092606226603,0.04870141744613647,0.1325981616973877]},{"name":"wine-glass","coordinates":[0.45143103152513503,0.5886527339617412,0.04629288613796234,0.12215551535288492]},{"name":"cup","coordinates":[0.4604115664958954,0.7621193349361419,0.06950432062149048,0.06583408912022909]},{"name":"wine-glass","coordinates":[0.3143812417984009,0.5807030677795411,0.03817791938781738,0.11695601145426432]},{"name":"spoon","coordinates":[0.12953221648931504,0.6888548096021015,0.02968457043170929,0.05320468743642171]}]}
