{"src":"https://a0.muscache.com/im/pictures/29c58083-489c-424e-ba7d-2faac21bced7.jpg?aki_policy=xx_large","name":"贤良门第.向好  可机场接送 宝马3系  奔驰轿跑  单程500元  美女司机接驾","listingId":23026687,"photoId":"1628-22","tags":[{"name":"oven","coordinates":[0.738100004196167,0.47839784622192383,0.3784484386444092,0.1659576098124186]},{"name":"bowl","coordinates":[0.275577974319458,0.43371451695760094,0.15044654607772828,0.1643770694732666]},{"name":"cup","coordinates":[0.1278732419013977,0.5652761459350586,0.0719263195991516,0.12953463395436604]},{"name":"bottle","coordinates":[0.3319737434387207,0.35965744654337567,0.03004390001296997,0.1571076234181722]},{"name":"bottle","coordinates":[0.547327709197998,0.3125780423482259,0.02861473858356476,0.11199302673339843]},{"name":"bottle","coordinates":[0.5747142791748047,0.31117032368977865,0.024990272521972657,0.12562748591105144]},{"name":"bowl","coordinates":[0.4206088066101074,0.38710775375366213,0.05294080972671509,0.055651597181955975]},{"name":"bottle","coordinates":[0.5213143825531006,0.3224685986836751,0.019567039608955384,0.08630530834197998]},{"name":"knife","coordinates":[0.43344883918762206,0.25143524805704753,0.022198842465877534,0.06222716967264811]},{"name":"knife","coordinates":[0.4497091293334961,0.2580830732981364,0.01908128708600998,0.05608346462249756]}]}
