{"src":"https://a0.muscache.com/im/pictures/de6d5566-0530-4c50-9d10-9b6ce45922b0.jpg?aki_policy=xx_large","name":"贤良门第.向好  可机场接送 宝马3系  奔驰轿跑  单程500元  美女司机接驾","listingId":23026687,"photoId":"1628-5","tags":[{"name":"sofa","coordinates":[0.006710052490234375,0.4758233229319254,0.6420939445495606,0.5060821851094564]},{"name":"refrigerator","coordinates":[0.30224708914756776,0.3287776231765747,0.06663514375686645,0.21781764030456544]},{"name":"chair","coordinates":[0.3961833119392395,0.45909069379170736,0.08295323848724365,0.17204853693644206]},{"name":"chair","coordinates":[0.49125290811061856,0.4658527771631877,0.07860487103462219,0.146189546585083]},{"name":"pottedplant","coordinates":[0.839746955037117,0.3348604460557302,0.05790595412254333,0.06327490409215292]},{"name":"book","coordinates":[0.4445311725139618,0.6314729462067287,0.05410686731338501,0.018161692221959434]}]}
