{"src":"https://a0.muscache.com/im/pictures/173cea24-c9a2-4bf4-8706-4e7ed9482e12.jpg?aki_policy=xx_large","name":"贤良门第.向好  可机场接送 宝马3系  奔驰轿跑  单程500元  美女司机接驾","listingId":23026687,"photoId":"1628-1","tags":[{"name":"diningtable","coordinates":[0.523958396911621,0.7673483530680338,0.5457098960876465,0.3851458549499512]},{"name":"sofa","coordinates":[0.757390308380127,0.5019472122192383,0.4408073425292969,0.43426068623860675]},{"name":"chair","coordinates":[0.8021201133728028,0.8239750544230143,0.19949207305908204,0.3600317001342773]},{"name":"chair","coordinates":[0.21148283481597902,0.8389514287312826,0.1682194948196411,0.3194013277689616]},{"name":"chair","coordinates":[0.9416250228881836,0.7365817387898763,0.10963916778564453,0.4109997113545736]},{"name":"chair","coordinates":[0.7130327701568604,0.6458773930867513,0.12600786685943605,0.21135978698730468]},{"name":"chair","coordinates":[0.26152429580688474,0.6787253061930338,0.09805203676223755,0.22973035176595052]},{"name":"vase","coordinates":[0.5324017524719238,0.8758773803710938,0.08390574455261231,0.22284191449483234]},{"name":"cup","coordinates":[0.671696138381958,0.7859487533569336,0.05955835580825806,0.07497579256693522]}]}
