{"src":"https://a0.muscache.com/im/pictures/8fd9320a-21f1-48ce-822e-7fa1a75b0062.jpg?aki_policy=xx_large","name":"贤良门第.向好  可机场接送 宝马3系  奔驰轿跑  单程500元  美女司机接驾","listingId":23026687,"photoId":"1628-8","tags":[{"name":"sofa","coordinates":[0.32775702476501467,0.7288644154866536,0.6420939445495606,0.5060821851094564]},{"name":"refrigerator","coordinates":[0.33556466102600097,0.4376864433288574,0.06663514375686645,0.21781764030456544]},{"name":"chair","coordinates":[0.43765993118286134,0.5451149622599284,0.08295323848724365,0.17204853693644206]},{"name":"chair","coordinates":[0.5305553436279297,0.5389475504557292,0.07860487103462219,0.146189546585083]},{"name":"pottedplant","coordinates":[0.8686999320983887,0.36649789810180666,0.05790595412254333,0.06327490409215292]},{"name":"book","coordinates":[0.4715846061706543,0.6405537923177084,0.05410686731338501,0.018161692221959434]}]}
