{"src":"https://a0.muscache.com/im/pictures/173cea24-c9a2-4bf4-8706-4e7ed9482e12.jpg?aki_policy=xx_large","name":"贤良门第.向好  可机场接送 宝马3系  奔驰轿跑  单程500元  美女司机接驾","listingId":23026687,"photoId":"1628-1","tags":[{"name":"diningtable","coordinates":[0.2511034488677978,0.5747754255930583,0.5457098960876465,0.3851458549499512]},{"name":"sofa","coordinates":[0.5369866371154786,0.284816869099935,0.4408073425292969,0.43426068623860675]},{"name":"chair","coordinates":[0.7023740768432617,0.6439592043558757,0.19949207305908204,0.3600317001342773]},{"name":"chair","coordinates":[0.12737308740615846,0.6792507648468018,0.1682194948196411,0.3194013277689616]},{"name":"chair","coordinates":[0.8868054389953614,0.5310818831125895,0.10963916778564453,0.4109997113545736]},{"name":"chair","coordinates":[0.6500288367271424,0.5401974995930989,0.12600786685943605,0.21135978698730468]},{"name":"chair","coordinates":[0.21249827742576596,0.5638601303100585,0.09805203676223755,0.22973035176595052]},{"name":"vase","coordinates":[0.4904488801956176,0.7644564231236776,0.08390574455261231,0.22284191449483234]},{"name":"cup","coordinates":[0.641916960477829,0.748460857073466,0.05955835580825806,0.07497579256693522]}]}
