{"src":"https://a0.muscache.com/im/pictures/23e24be5-0f23-4b97-b2fb-ebb256530eff.jpg?aki_policy=xx_large","name":"贤良门第.向好  可机场接送 宝马3系  奔驰轿跑  单程500元  美女司机接驾","listingId":23026687,"photoId":"1628-4","tags":[{"name":"diningtable","coordinates":[0.36380181312561033,0.7378916422526042,0.6639681816101074,0.3721583366394043]},{"name":"refrigerator","coordinates":[0.7756459236145019,0.6129894892374674,0.21230664253234863,0.6580097198486328]},{"name":"sofa","coordinates":[0.12504642009735106,0.6041493733723958,0.2561699390411377,0.3242952028910319]},{"name":"chair","coordinates":[0.4453301906585693,0.9275427500406901,0.3646116256713867,0.1364480177561442]},{"name":"chair","coordinates":[0.1429499387741089,0.8913855234781901,0.2717827558517456,0.17827722231547039]},{"name":"pottedplant","coordinates":[0.7378082752227784,0.15868325233459474,0.1567064642906189,0.2585667928059896]},{"name":"chair","coordinates":[0.3395111083984375,0.6111984888712565,0.18480874300003053,0.14635143280029297]},{"name":"chair","coordinates":[0.5289693355560303,0.6316179911295573,0.17819994688034058,0.12619633674621583]},{"name":"vase","coordinates":[0.6452776908874511,0.7004503885904948,0.08063775300979614,0.17654085159301758]},{"name":"wine-glass","coordinates":[0.43108367919921875,0.7346027374267579,0.05813769698143005,0.1436728795369466]},{"name":"cup","coordinates":[0.1686527967453003,0.7610979080200195,0.0909542202949524,0.07867036660512289]},{"name":"wine-glass","coordinates":[0.2524567604064941,0.7200083414713542,0.04870141744613647,0.1325981616973877]},{"name":"wine-glass","coordinates":[0.4745774745941162,0.6497304916381836,0.04629288613796234,0.12215551535288492]},{"name":"cup","coordinates":[0.4951637268066406,0.7950363794962565,0.06950432062149048,0.06583408912022909]},{"name":"wine-glass","coordinates":[0.33347020149230955,0.6391810735066732,0.03817791938781738,0.11695601145426432]},{"name":"spoon","coordinates":[0.1443745017051697,0.7154571533203125,0.02968457043170929,0.05320468743642171]}]}
