{"src":"https://a0.muscache.com/im/pictures/c1e80fdb-685a-4148-b798-ee8e70adc1dc.jpg?aki_policy=xx_large","name":"Morning Star River Retreat","listingId":13296214,"photoId":"163-12","tags":[{"name":"refrigerator","coordinates":[0.8344137403700087,0.7466854095458985,0.11426003774007161,0.3901529630025228]},{"name":"clock","coordinates":[0.27474324968126085,0.36073509852091473,0.02915339469909668,0.0484646479288737]},{"name":"wine-glass","coordinates":[0.6249764760335287,0.36273104349772134,0.014103007316589356,0.04226328531901042]},{"name":"bottle","coordinates":[0.7034255133734809,0.6025846481323243,0.012541794776916504,0.04329924980799357]},{"name":"wine-glass","coordinates":[0.6833732181125217,0.5081297238667806,0.012374307049645318,0.03347049554189046]},{"name":"knife","coordinates":[0.7401112026638454,0.5815883000691732,0.013927655749850804,0.026896468798319497]},{"name":"wine-glass","coordinates":[0.6629477183024088,0.3648036003112793,0.012587977780236138,0.029196792840957643]},{"name":"wine-glass","coordinates":[0.6449797736273871,0.3619609196980794,0.009975442621443007,0.034779282410939534]}]}
