{"src":"https://a0.muscache.com/im/pictures/c1e80fdb-685a-4148-b798-ee8e70adc1dc.jpg?aki_policy=xx_large","name":"Morning Star River Retreat","listingId":13296214,"photoId":"163-12","tags":[{"name":"refrigerator","coordinates":[0.7772837214999729,0.551608928044637,0.11426003774007161,0.3901529630025228]},{"name":"clock","coordinates":[0.2601665523317125,0.33650277455647787,0.02915339469909668,0.0484646479288737]},{"name":"wine-glass","coordinates":[0.617924972375234,0.3415994008382161,0.014103007316589356,0.04226328531901042]},{"name":"bottle","coordinates":[0.6971546159850227,0.5809350232283275,0.012541794776916504,0.04329924980799357]},{"name":"wine-glass","coordinates":[0.677186064587699,0.49139447609583536,0.012374307049645318,0.03347049554189046]},{"name":"knife","coordinates":[0.73314737478892,0.5681400656700134,0.013927655749850804,0.026896468798319497]},{"name":"wine-glass","coordinates":[0.6566537294122907,0.35020520389080045,0.012587977780236138,0.029196792840957643]},{"name":"wine-glass","coordinates":[0.6399920523166657,0.34457127849260966,0.009975442621443007,0.034779282410939534]}]}
