{"src":"https://a0.muscache.com/im/pictures/38e58a94-b227-4077-849c-1dcd9df227f7.jpg?aki_policy=xx_large","name":"3 Bed Shared Room","listingId":23038245,"photoId":"1633-4","tags":[{"name":"person","coordinates":[0.6895414292812347,0.1468060811360677,0.19747735261917115,0.8489252726236979]},{"name":"person","coordinates":[0.38336301445960996,0.15902125040690102,0.19035691022872925,0.8413312276204427]},{"name":"bowl","coordinates":[0.12738932967185973,0.7394075989723206,0.14489341974258424,0.09525032838185628]},{"name":"bowl","coordinates":[0.2748165994882584,0.5900086919466654,0.07538339495658875,0.06379619439442953]},{"name":"bottle","coordinates":[0.06161640286445618,0.5849740465482075,0.03781538009643555,0.1181286891301473]},{"name":"cup","coordinates":[0.08411117494106292,0.6685847679773966,0.0465736448764801,0.08979910214742025]},{"name":"cup","coordinates":[0.1332661911845207,0.6700783729553222,0.03779830038547516,0.08287639617919922]},{"name":"orange","coordinates":[0.2826658308506012,0.5545849084854125,0.02701171636581421,0.027857287724812826]},{"name":"orange","coordinates":[0.26817478984594345,0.5525794416666031,0.02501535713672638,0.027829728523890176]}]}
