{"src":"https://a0.muscache.com/im/pictures/38e58a94-b227-4077-849c-1dcd9df227f7.jpg?aki_policy=xx_large","name":"3 Bed Shared Room","listingId":23038245,"photoId":"1633-2","tags":[{"name":"person","coordinates":[0.7882801055908203,0.5712687174479166,0.19747735261917115,0.8489252726236979]},{"name":"person","coordinates":[0.4785414695739746,0.5796868642171223,0.19035691022872925,0.8413312276204427]},{"name":"bowl","coordinates":[0.19983603954315185,0.7870327631632487,0.14489341974258424,0.09525032838185628]},{"name":"bowl","coordinates":[0.31250829696655275,0.6219067891438802,0.07538339495658875,0.06379619439442953]},{"name":"bottle","coordinates":[0.08052409291267396,0.6440383911132812,0.03781538009643555,0.1181286891301473]},{"name":"cup","coordinates":[0.10739799737930297,0.7134843190511068,0.0465736448764801,0.08979910214742025]},{"name":"cup","coordinates":[0.1521653413772583,0.7115165710449218,0.03779830038547516,0.08287639617919922]},{"name":"orange","coordinates":[0.2961716890335083,0.568513552347819,0.02701171636581421,0.027857287724812826]},{"name":"orange","coordinates":[0.28068246841430666,0.5664943059285482,0.02501535713672638,0.027829728523890176]}]}
