{"src":"https://a0.muscache.com/im/pictures/8857693e-5a5a-4a66-8374-e6b4259ade26.jpg?aki_policy=xx_large","name":"新宿へ電車で7分、中野新橋から徒歩10秒。","listingId":23045618,"photoId":"1634-5","tags":[{"name":"diningtable","coordinates":[0.01132567723592115,0.7188699881235758,1.009648068745931,0.28066733678181965]},{"name":"person","coordinates":[0.04033513069152833,0.414766772588094,0.30419715245564777,0.44102780024210614]},{"name":"person","coordinates":[0.31088120142618814,0.36587236722310384,0.27549266815185547,0.38631353378295896]},{"name":"person","coordinates":[0.7235939820607504,0.388046407699585,0.2578830401102702,0.4120219866434733]},{"name":"chair","coordinates":[0.0025651653607686384,0.6512504895528158,0.09133602778116862,0.3534481684366862]},{"name":"bowl","coordinates":[0.7364484786987305,0.7232961336771647,0.15262247721354166,0.10836811065673828]},{"name":"bowl","coordinates":[0.3525254567464193,0.8371195872624715,0.1336678187052409,0.10605257352193197]},{"name":"bowl","coordinates":[0.43608504931131997,0.6582635720570882,0.13573242823282877,0.0913606325785319]},{"name":"bowl","coordinates":[0.4856429537137349,0.8214809219042459,0.11741279760996501,0.09270951747894288]},{"name":"bottle","coordinates":[0.5881954769293467,0.8136712948481242,0.060547268390655516,0.15096627871195475]},{"name":"spoon","coordinates":[0.7461237430572509,0.687250538667043,0.07853155136108399,0.11169556776682536]},{"name":"bottle","coordinates":[0.5737174232800801,0.5883479833602905,0.04461112817128499,0.14446085294087727]},{"name":"cup","coordinates":[0.33516608874003095,0.7100488464037578,0.06737241744995118,0.0717789093653361]},{"name":"bottle","coordinates":[0.40709898074467976,0.6868518710136413,0.041425347328186035,0.10769019921620687]},{"name":"spoon","coordinates":[0.7495597799619039,0.6881745338439942,0.049030057589213055,0.07441450754801432]},{"name":"cup","coordinates":[0.4770765423774719,0.8031691908836365,0.057090163230895996,0.054364768664042155]},{"name":"orange","coordinates":[0.6456770638624827,0.9063561995824178,0.03827856779098511,0.05135671297709147]}]}
