{"src":"https://a0.muscache.com/im/pictures/a36b1cf9-0e87-42d5-9809-8bbb77b54d70.jpg?aki_policy=xx_large","name":"新宿へ電車で7分、中野新橋から徒歩10秒。","listingId":23045618,"photoId":"1634-3","tags":[{"name":"diningtable","coordinates":[0.3045572777316995,0.6739125569661458,0.4067295951204576,0.3280994733174642]},{"name":"chair","coordinates":[0.202129044670674,0.814956537882487,0.2555363392358138,0.3380420684814453]},{"name":"refrigerator","coordinates":[0.4267889803765934,0.3730909029642741,0.1642066572354809,0.5128786087036132]},{"name":"chair","coordinates":[0.4613547129173801,0.785335922241211,0.10649250558885083,0.41500234603881836]},{"name":"chair","coordinates":[0.1234090912469083,0.7456340154012044,0.1221201300076698,0.29816195170084636]},{"name":"chair","coordinates":[0.3787809049702126,0.5698087692260743,0.07492034656634977,0.06611239910125732]},{"name":"remote","coordinates":[0.3433727572134822,0.6506579717000326,0.07674374863437322,0.035803794860839844]},{"name":"bottle","coordinates":[0.4287181372330432,0.1168852965037028,0.029114146936611136,0.050357925891876223]},{"name":"bowl","coordinates":[0.292325720939462,0.34439910252889,0.04418758061378514,0.02762143810590108]}]}
