{"src":"https://a0.muscache.com/im/pictures/8857693e-5a5a-4a66-8374-e6b4259ade26.jpg?aki_policy=xx_large","name":"新宿へ電車で7分、中野新橋から徒歩10秒。","listingId":23045618,"photoId":"1634-5","tags":[{"name":"diningtable","coordinates":[0.5161497116088867,0.8592036565144857,1.009648068745931,0.28066733678181965]},{"name":"person","coordinates":[0.19243370691935222,0.6352806727091471,0.30419715245564777,0.44102780024210614]},{"name":"person","coordinates":[0.44862753550211587,0.5590291341145833,0.27549266815185547,0.38631353378295896]},{"name":"person","coordinates":[0.8525355021158855,0.5940574010213217,0.2578830401102702,0.4120219866434733]},{"name":"chair","coordinates":[0.048233179251352946,0.8279745737711589,0.09133602778116862,0.3534481684366862]},{"name":"bowl","coordinates":[0.8127597173055013,0.7774801890055338,0.15262247721354166,0.10836811065673828]},{"name":"bowl","coordinates":[0.41935936609903973,0.8901458740234375,0.1336678187052409,0.10605257352193197]},{"name":"bowl","coordinates":[0.5039512634277343,0.7039438883463541,0.13573242823282877,0.0913606325785319]},{"name":"bowl","coordinates":[0.5443493525187174,0.8678356806437174,0.11741279760996501,0.09270951747894288]},{"name":"bottle","coordinates":[0.6184691111246745,0.8891544342041016,0.060547268390655516,0.15096627871195475]},{"name":"spoon","coordinates":[0.785389518737793,0.7430983225504557,0.07853155136108399,0.11169556776682536]},{"name":"bottle","coordinates":[0.5960229873657227,0.6605784098307291,0.04461112817128499,0.14446085294087727]},{"name":"cup","coordinates":[0.36885229746500653,0.7459383010864258,0.06737241744995118,0.0717789093653361]},{"name":"bottle","coordinates":[0.4278116544087728,0.7406969706217448,0.041425347328186035,0.10769019921620687]},{"name":"spoon","coordinates":[0.7740748087565105,0.7253817876180013,0.049030057589213055,0.07441450754801432]},{"name":"cup","coordinates":[0.5056216239929199,0.8303515752156575,0.057090163230895996,0.054364768664042155]},{"name":"orange","coordinates":[0.6648163477579753,0.9320345560709635,0.03827856779098511,0.05135671297709147]}]}
