{"src":"https://a0.muscache.com/im/pictures/8857693e-5a5a-4a66-8374-e6b4259ade26.jpg?aki_policy=xx_large","name":"新宿へ電車で7分、中野新橋から徒歩10秒。","listingId":23045618,"photoId":"1634-5","tags":[{"name":"diningtable","coordinates":[0.38711228370666506,0.8592036565144857,0.7572360515594483,0.28066733678181965]},{"name":"person","coordinates":[0.14432528018951415,0.6352806727091471,0.22814786434173584,0.44102780024210614]},{"name":"person","coordinates":[0.3364706516265869,0.5590291341145833,0.2066195011138916,0.38631353378295896]},{"name":"person","coordinates":[0.639401626586914,0.5940574010213217,0.19341228008270264,0.4120219866434733]},{"name":"chair","coordinates":[0.03617488443851471,0.8279745737711589,0.06850202083587646,0.3534481684366862]},{"name":"bowl","coordinates":[0.609569787979126,0.7774801890055338,0.11446685791015625,0.10836811065673828]},{"name":"bowl","coordinates":[0.3145195245742798,0.8901458740234375,0.10025086402893066,0.10605257352193197]},{"name":"bowl","coordinates":[0.3779634475708008,0.7039438883463541,0.10179932117462158,0.0913606325785319]},{"name":"bowl","coordinates":[0.4082620143890381,0.8678356806437174,0.08805959820747375,0.09270951747894288]},{"name":"bottle","coordinates":[0.4638518333435059,0.8891544342041016,0.045410451292991635,0.15096627871195475]},{"name":"spoon","coordinates":[0.5890421390533447,0.7430983225504557,0.05889866352081299,0.11169556776682536]},{"name":"bottle","coordinates":[0.447017240524292,0.6605784098307291,0.033458346128463747,0.14446085294087727]},{"name":"cup","coordinates":[0.2766392230987549,0.7459383010864258,0.050529313087463376,0.0717789093653361]},{"name":"bottle","coordinates":[0.3208587408065796,0.7406969706217448,0.031069010496139526,0.10769019921620687]},{"name":"spoon","coordinates":[0.5805561065673828,0.7253817876180013,0.03677254319190979,0.07441450754801432]},{"name":"cup","coordinates":[0.37921621799468996,0.8303515752156575,0.042817622423172,0.054364768664042155]},{"name":"orange","coordinates":[0.4986122608184814,0.9320345560709635,0.02870892584323883,0.05135671297709147]}]}
