{"src":"https://a0.muscache.com/im/pictures/a36b1cf9-0e87-42d5-9809-8bbb77b54d70.jpg?aki_policy=xx_large","name":"新宿へ電車で7分、中野新橋から徒歩10秒。","listingId":23045618,"photoId":"1634-3","tags":[{"name":"diningtable","coordinates":[0.5937511319576456,0.6739125569661458,0.7929416735731176,0.3280994733174642]},{"name":"chair","coordinates":[0.39406166869030507,0.814956537882487,0.49818212129949463,0.3380420684814453]},{"name":"refrigerator","coordinates":[0.8320485463128245,0.3730909029642741,0.32012989259261404,0.5128786087036132]},{"name":"chair","coordinates":[0.8994363394264652,0.785335922241211,0.2076129856732196,0.41500234603881836]},{"name":"chair","coordinates":[0.24059279806889836,0.7456340154012044,0.23807989737400315,0.29816195170084636]},{"name":"chair","coordinates":[0.7384541678499398,0.5698087692260743,0.14606132846911513,0.06611239910125732]},{"name":"remote","coordinates":[0.6694240400274712,0.6506579717000326,0.14961615089846647,0.035803794860839844]},{"name":"bottle","coordinates":[0.835809543507743,0.1168852965037028,0.05675962770728046,0.050357925891876223]},{"name":"bowl","coordinates":[0.5699050405258949,0.34439910252889,0.08614611413429328,0.02762143810590108]}]}
