{"src":"https://a0.muscache.com/im/pictures/a36b1cf9-0e87-42d5-9809-8bbb77b54d70.jpg?aki_policy=xx_large","name":"新宿へ電車で7分、中野新橋から徒歩10秒。","listingId":23045618,"photoId":"1634-3","tags":[{"name":"diningtable","coordinates":[0.1972802951710868,0.5098628203074137,0.7929416735731176,0.3280994733174642]},{"name":"chair","coordinates":[0.14497060804055775,0.6459355036417643,0.49818212129949463,0.3380420684814453]},{"name":"refrigerator","coordinates":[0.6719836000165176,0.11665159861246749,0.32012989259261404,0.5128786087036132]},{"name":"chair","coordinates":[0.7956298465898554,0.5778347492218018,0.2076129856732196,0.41500234603881836]},{"name":"chair","coordinates":[0.12155284938189678,0.5965530395507812,0.23807989737400315,0.29816195170084636]},{"name":"chair","coordinates":[0.6654235036153822,0.5367525696754456,0.14606132846911513,0.06611239910125732]},{"name":"remote","coordinates":[0.5946159645782381,0.6327560742696127,0.14961615089846647,0.035803794860839844]},{"name":"bottle","coordinates":[0.8074297296541028,0.0917063335577647,0.05675962770728046,0.050357925891876223]},{"name":"bowl","coordinates":[0.5268319834587483,0.33058838347593944,0.08614611413429328,0.02762143810590108]}]}
