{"src":"https://a0.muscache.com/im/pictures/2e576e57-8f5b-413b-b566-926269312163.jpg?aki_policy=xx_large","name":"Conforto, Praia e Piscina. Apart-Hotel completo.","listingId":23056922,"photoId":"1639-8","tags":[{"name":"chair","coordinates":[0.11692123413085936,0.7033311367034912,0.25097363789876304,0.2976324399312337]},{"name":"bench","coordinates":[0.33358175489637587,0.7437275250752767,0.214813232421875,0.2736912409464518]},{"name":"chair","coordinates":[0.33358175489637587,0.7437275250752767,0.214813232421875,0.2736912409464518]},{"name":"chair","coordinates":[0.6309845076666939,0.8195797284444173,0.16101241641574435,0.18190072377522787]},{"name":"chair","coordinates":[0.00037823385662502824,0.664663028717041,0.028465323978000216,0.2184645970662435]},{"name":"car","coordinates":[0.5161624272664388,0.5508924186229706,0.10261065165201823,0.060101759433746335]},{"name":"car","coordinates":[0.8724192884233263,0.5269042273362478,0.0742971314324273,0.050651307900746664]},{"name":"person","coordinates":[0.07894545065032112,0.5942503213882446,0.018642723560333252,0.07456278800964355]},{"name":"person","coordinates":[0.43517134454515244,0.5563169101874034,0.029755899641248914,0.044882023334503175]},{"name":"person","coordinates":[0.10319369037946065,0.5927428722381592,0.018362820148468018,0.06671902338663736]},{"name":"car","coordinates":[0.33828161822424996,0.5027992437283197,0.027423842748006185,0.023762665192286172]}]}
