{"src":"https://a0.muscache.com/im/pictures/2e576e57-8f5b-413b-b566-926269312163.jpg?aki_policy=xx_large","name":"Conforto, Praia e Piscina. Apart-Hotel completo.","listingId":23056922,"photoId":"1639-8","tags":[{"name":"chair","coordinates":[0.24240805308024088,0.8521473566691081,0.25097363789876304,0.2976324399312337]},{"name":"bench","coordinates":[0.44098837110731337,0.8805731455485026,0.214813232421875,0.2736912409464518]},{"name":"chair","coordinates":[0.44098837110731337,0.8805731455485026,0.214813232421875,0.2736912409464518]},{"name":"chair","coordinates":[0.711490715874566,0.9105300903320312,0.16101241641574435,0.18190072377522787]},{"name":"chair","coordinates":[0.014610895845625136,0.7738953272501627,0.028465323978000216,0.2184645970662435]},{"name":"car","coordinates":[0.5674677530924479,0.5809432983398437,0.10261065165201823,0.060101759433746335]},{"name":"car","coordinates":[0.9095678541395399,0.5522298812866211,0.0742971314324273,0.050651307900746664]},{"name":"person","coordinates":[0.08826681243048774,0.6315317153930664,0.018642723560333252,0.07456278800964355]},{"name":"person","coordinates":[0.4500492943657769,0.5787579218546549,0.029755899641248914,0.044882023334503175]},{"name":"person","coordinates":[0.11237510045369466,0.6261023839314779,0.018362820148468018,0.06671902338663736]},{"name":"car","coordinates":[0.351993539598253,0.5146805763244628,0.027423842748006185,0.023762665192286172]}]}
