{"src":"https://a0.muscache.com/im/pictures/795bab68-aed1-4206-8608-ef002cd2bff9.jpg?aki_policy=xx_large","name":"New and comfortable hostel in the center Irkutsk.","listingId":13301179,"photoId":"164-1","tags":[{"name":"diningtable","coordinates":[0.7430535210503473,0.7509597778320313,0.5438068389892579,0.24933869043986004]},{"name":"chair","coordinates":[0.8072914123535156,0.8392873128255208,0.2733467525906033,0.2978825887044271]},{"name":"chair","coordinates":[0.5480688730875651,0.8283322016398112,0.18888329399956597,0.3478157679239909]},{"name":"oven","coordinates":[0.37267189025878905,0.7166874567667644,0.09651851654052734,0.23293291727701823]},{"name":"chair","coordinates":[0.8192220052083333,0.6506811141967773,0.09292511410183377,0.11439925829569499]},{"name":"chair","coordinates":[0.6460596720377604,0.6306526819864909,0.09819137785169814,0.0879763921101888]},{"name":"pottedplant","coordinates":[0.6952470143636068,0.435822868347168,0.07616580327351888,0.08626508712768555]},{"name":"chair","coordinates":[0.8877215915256076,0.6658657709757487,0.0500264114803738,0.09166000684102377]},{"name":"microwave","coordinates":[0.45692621866861977,0.5342467625935873,0.06355276107788085,0.06266371806462606]}]}
