{"src":"https://a0.muscache.com/im/pictures/795bab68-aed1-4206-8608-ef002cd2bff9.jpg?aki_policy=xx_large","name":"New and comfortable hostel in the center Irkutsk.","listingId":13301179,"photoId":"164-1","tags":[{"name":"diningtable","coordinates":[0.47115010155571835,0.6262904326121013,0.5438068389892579,0.24933869043986004]},{"name":"chair","coordinates":[0.670618036058214,0.6903460184733072,0.2733467525906033,0.2978825887044271]},{"name":"chair","coordinates":[0.45362722608778216,0.6544243176778158,0.18888329399956597,0.3478157679239909]},{"name":"oven","coordinates":[0.3244126319885254,0.6002209981282552,0.09651851654052734,0.23293291727701823]},{"name":"chair","coordinates":[0.7727594481574165,0.5934814850489298,0.09292511410183377,0.11439925829569499]},{"name":"chair","coordinates":[0.5969639831119113,0.5866644859313965,0.09819137785169814,0.0879763921101888]},{"name":"pottedplant","coordinates":[0.6571641127268474,0.3926903247833252,0.07616580327351888,0.08626508712768555]},{"name":"chair","coordinates":[0.8627083857854206,0.6200357675552368,0.0500264114803738,0.09166000684102377]},{"name":"microwave","coordinates":[0.4251498381296793,0.5029149035612742,0.06355276107788085,0.06266371806462606]}]}
