{"src":"https://a0.muscache.com/im/pictures/fed2c27d-ace4-4755-8602-9fd01adc30a3.jpg?aki_policy=xx_large","name":"Studio (1) in Westmaas (nabij Rotterdam Zuid)","listingId":23066700,"photoId":"1641-3","tags":[{"name":"bed","coordinates":[0.1960430145263672,0.6798715909322104,0.8087566799587673,0.3112063725789388]},{"name":"diningtable","coordinates":[0.043574534522162534,0.6243438561757406,0.3379195107354058,0.3704441388448079]},{"name":"refrigerator","coordinates":[0.41140325334337025,0.4777220726013184,0.19838998582628037,0.3227469762166341]},{"name":"chair","coordinates":[0.22390666537814669,0.6043780485788981,0.17846226162380643,0.31343018213907875]},{"name":"tvmonitor","coordinates":[0.11511000527275934,0.13049607276916506,0.2147615008884006,0.22628002166748046]},{"name":"chair","coordinates":[0.000711038377549919,0.7910338242848715,0.13771064546373155,0.20861113866170247]},{"name":"microwave","coordinates":[0.462491167916192,0.40968351761500044,0.12245079676310221,0.0961005449295044]}]}
