{"src":"https://a0.muscache.com/im/pictures/fed2c27d-ace4-4755-8602-9fd01adc30a3.jpg?aki_policy=xx_large","name":"Studio (1) in Westmaas (nabij Rotterdam Zuid)","listingId":23066700,"photoId":"1641-3","tags":[{"name":"bed","coordinates":[0.6004213545057508,0.8354747772216797,0.8087566799587673,0.3112063725789388]},{"name":"diningtable","coordinates":[0.21253428988986545,0.8095659255981446,0.3379195107354058,0.3704441388448079]},{"name":"refrigerator","coordinates":[0.5105982462565104,0.6390955607096355,0.19838998582628037,0.3227469762166341]},{"name":"chair","coordinates":[0.3131377961900499,0.7610931396484375,0.17846226162380643,0.31343018213907875]},{"name":"tvmonitor","coordinates":[0.22249075571695964,0.24363608360290528,0.2147615008884006,0.22628002166748046]},{"name":"chair","coordinates":[0.06956636110941569,0.8953393936157227,0.13771064546373155,0.20861113866170247]},{"name":"microwave","coordinates":[0.5237165662977431,0.4577337900797526,0.12245079676310221,0.0961005449295044]}]}
