{"src":"https://a0.muscache.com/im/pictures/19b8987d-3d0c-4149-b696-97feb8d40848.jpg?aki_policy=xx_large","name":"Sweet Retreat for Business or Pleasure","listingId":23092118,"photoId":"1647-1","tags":[{"name":"sofa","coordinates":[0.2526834487915039,0.7111577987670898,0.5162980556488037,0.5846753438313802]},{"name":"tvmonitor","coordinates":[0.9013944625854492,0.36079978942871094,0.18410634994506836,0.1637910048166911]},{"name":"diningtable","coordinates":[0.20841987133026124,0.42424917221069336,0.2518730163574219,0.07392935752868653]},{"name":"chair","coordinates":[0.046576696634292605,0.4417354265848796,0.07883845567703247,0.10259456634521484]},{"name":"book","coordinates":[0.6636868476867676,0.5991449356079102,0.08393206596374511,0.04879281520843506]},{"name":"chair","coordinates":[0.31395318508148196,0.39251877466837565,0.04712189733982086,0.0624107042948405]},{"name":"chair","coordinates":[0.182076358795166,0.3844576835632324,0.08232981562614441,0.032104893525441484]},{"name":"remote","coordinates":[0.5819863319396973,0.6311464309692383,0.051181846857070924,0.02868533730506897]},{"name":"remote","coordinates":[0.5711076259613037,0.622889518737793,0.045924258232116696,0.022683310508728027]}]}
