{"src":"https://a0.muscache.com/im/pictures/19b8987d-3d0c-4149-b696-97feb8d40848.jpg?aki_policy=xx_large","name":"Sweet Retreat for Business or Pleasure","listingId":23092118,"photoId":"1647-1","tags":[{"name":"sofa","coordinates":[-0.00546557903289796,0.41882012685139974,0.5162980556488037,0.5846753438313802]},{"name":"tvmonitor","coordinates":[0.809341287612915,0.2789042870203654,0.18410634994506836,0.1637910048166911]},{"name":"diningtable","coordinates":[0.0824833631515503,0.3872844934463501,0.2518730163574219,0.07392935752868653]},{"name":"chair","coordinates":[0.007157468795776369,0.3904381434122722,0.07883845567703247,0.10259456634521484]},{"name":"book","coordinates":[0.621720814704895,0.5747485280036926,0.08393206596374511,0.04879281520843506]},{"name":"chair","coordinates":[0.2903922364115715,0.3613134225209554,0.04712189733982086,0.0624107042948405]},{"name":"chair","coordinates":[0.1409114509820938,0.3684052368005117,0.08232981562614441,0.032104893525441484]},{"name":"remote","coordinates":[0.5563954085111619,0.6168037623167038,0.051181846857070924,0.02868533730506897]},{"name":"remote","coordinates":[0.5481454968452454,0.6115478634834289,0.045924258232116696,0.022683310508728027]}]}
