{"src":"https://a0.muscache.com/im/pictures/a3d23bfb-c0a5-479a-9f6d-f81e355d7317.jpg?aki_policy=xx_large","name":"Уютная цена! Территория комфорта и спокойствия!","listingId":23096626,"photoId":"1648-13","tags":[{"name":"microwave","coordinates":[0.8672488742404514,0.7484476089477539,0.23340827094184027,0.46818768183390297]},{"name":"diningtable","coordinates":[0.3225945790608724,0.8163503011067709,0.29359781477186414,0.3703915596008301]},{"name":"chair","coordinates":[0.14234128528171117,0.8292397816975912,0.2623334248860677,0.3281369845072428]},{"name":"microwave","coordinates":[0.814286634657118,0.7483535766601562,0.16608816782633465,0.34744898478190106]},{"name":"chair","coordinates":[0.530856196085612,0.7931698481241862,0.12008834415011936,0.4216202735900879]},{"name":"pottedplant","coordinates":[0.3489972856309679,0.62249329884847,0.04807897143893772,0.09236010710398355]}]}
