{"src":"https://a0.muscache.com/im/pictures/a3d23bfb-c0a5-479a-9f6d-f81e355d7317.jpg?aki_policy=xx_large","name":"Уютная цена! Территория комфорта и спокойствия!","listingId":23096626,"photoId":"1648-13","tags":[{"name":"microwave","coordinates":[0.7505447387695312,0.5143537680308023,0.23340827094184027,0.46818768183390297]},{"name":"diningtable","coordinates":[0.17579567167494034,0.6311545213063559,0.29359781477186414,0.3703915596008301]},{"name":"chair","coordinates":[0.011174572838677316,0.6651712894439697,0.2623334248860677,0.3281369845072428]},{"name":"microwave","coordinates":[0.7312425507439507,0.5746290842692057,0.16608816782633465,0.34744898478190106]},{"name":"chair","coordinates":[0.4708120240105523,0.5823597113291423,0.12008834415011936,0.4216202735900879]},{"name":"pottedplant","coordinates":[0.32495779991149903,0.5763132452964783,0.04807897143893772,0.09236010710398355]}]}
