{"src":"https://a0.muscache.com/im/pictures/78e15c74-ccc6-4af3-9d0a-d4752fcfc9a1.jpg?aki_policy=xx_large","name":"Sherlock Homes, арт хостел","listingId":13327372,"photoId":"165-8","tags":[{"name":"diningtable","coordinates":[-0.003282822502983951,0.703985865910848,0.5327980465359158,0.2963692665100098]},{"name":"chair","coordinates":[0.49372082286410857,0.6665924549102783,0.12705564498901367,0.32524696985880536]},{"name":"oven","coordinates":[0.1934010558658176,0.5570647637049357,0.1700826538933648,0.1780673821767171]},{"name":"chair","coordinates":[0.02025386757320828,0.6416832129160562,0.08860554695129394,0.24337981541951498]},{"name":"microwave","coordinates":[0.049009958902994796,0.47750577529271443,0.15497508578830296,0.11391354401906331]},{"name":"cup","coordinates":[0.3424468411339654,0.9278782963752746,0.07872707578870985,0.07561916510264079]},{"name":"sink","coordinates":[0.7202036751641168,0.5700585623582204,0.12886500888400607,0.03899537324905396]},{"name":"bowl","coordinates":[0.22262490855322944,0.8813760221004485,0.0741287178463406,0.06417742967605591]},{"name":"cup","coordinates":[0.32834728558858234,0.8687132120132446,0.04744238323635525,0.09651166598002116]},{"name":"bowl","coordinates":[0.3888553486929999,0.7590290168921152,0.06294592221577962,0.06582932074864706]},{"name":"bowl","coordinates":[0.1502098480860392,0.7476370453834533,0.056056642532348634,0.055418785413106283]},{"name":"cup","coordinates":[0.18037203815248276,0.770928434530894,0.03610667917463514,0.08401008447011311]},{"name":"cup","coordinates":[0.37559188736809623,0.7311805327733358,0.03448313607109917,0.04881650606791178]},{"name":"bottle","coordinates":[0.7054468823803796,0.5052741527557373,0.019041605790456138,0.0787968635559082]},{"name":"bowl","coordinates":[0.4906979150242275,0.5627916038036347,0.04114784399668376,0.0340761144955953]},{"name":"apple","coordinates":[0.5761123922136094,0.5559514423211416,0.028589746687147352,0.02958423693974813]}]}
