{"src":"https://a0.muscache.com/im/pictures/78e15c74-ccc6-4af3-9d0a-d4752fcfc9a1.jpg?aki_policy=xx_large","name":"Sherlock Homes, арт хостел","listingId":13327372,"photoId":"165-8","tags":[{"name":"diningtable","coordinates":[0.26311620076497394,0.8521704991658529,0.5327980465359158,0.2963692665100098]},{"name":"chair","coordinates":[0.5572486453586154,0.829215939839681,0.12705564498901367,0.32524696985880536]},{"name":"oven","coordinates":[0.2784423828125,0.6460984547932943,0.1700826538933648,0.1780673821767171]},{"name":"chair","coordinates":[0.06455664104885525,0.7633731206258138,0.08860554695129394,0.24337981541951498]},{"name":"microwave","coordinates":[0.12649750179714628,0.5344625473022461,0.15497508578830296,0.11391354401906331]},{"name":"cup","coordinates":[0.3818103790283203,0.965687878926595,0.07872707578870985,0.07561916510264079]},{"name":"sink","coordinates":[0.7846361796061198,0.5895562489827474,0.12886500888400607,0.03899537324905396]},{"name":"bowl","coordinates":[0.25968926747639975,0.9134647369384765,0.0741287178463406,0.06417742967605591]},{"name":"cup","coordinates":[0.35206847720676,0.9169690450032552,0.04744238323635525,0.09651166598002116]},{"name":"bowl","coordinates":[0.42032830980088975,0.7919436772664388,0.06294592221577962,0.06582932074864706]},{"name":"bowl","coordinates":[0.17823816935221354,0.7753464380900065,0.056056642532348634,0.055418785413106283]},{"name":"cup","coordinates":[0.19842537773980035,0.8129334767659505,0.03610667917463514,0.08401008447011311]},{"name":"cup","coordinates":[0.39283345540364584,0.7555887858072917,0.03448313607109917,0.04881650606791178]},{"name":"bottle","coordinates":[0.7149676852756076,0.5446725845336914,0.019041605790456138,0.0787968635559082]},{"name":"bowl","coordinates":[0.5112718370225694,0.5798296610514323,0.04114784399668376,0.0340761144955953]},{"name":"apple","coordinates":[0.5904072655571831,0.5707435607910156,0.028589746687147352,0.02958423693974813]}]}
