{"src":"https://a0.muscache.com/im/pictures/5b8a4308-559f-48da-9698-4eb8147d92e0.jpg?aki_policy=xx_large","name":"Charming apartment close to ICC and Nato","listingId":13145284,"photoId":"165-2","tags":[{"name":"diningtable","coordinates":[0.47729509153492006,0.7603277842203776,0.5089936723636206,0.4358308474222819]},{"name":"pottedplant","coordinates":[0.5330673546489533,0.43306770324707033,0.2921307996547081,0.44361489613850913]},{"name":"chair","coordinates":[0.7457647794149583,0.781045659383138,0.18288641658568233,0.39845663706461587]},{"name":"chair","coordinates":[0.2483945717987209,0.7750425338745117,0.15422803548742617,0.44130640029907225]},{"name":"vase","coordinates":[0.5279420557081741,0.5827852249145508,0.13856926255958457,0.20132250785827638]},{"name":"clock","coordinates":[0.05297268356524713,0.10678766568501791,0.0709879638587045,0.16240655581156413]},{"name":"cup","coordinates":[0.3539914786608539,0.6528275171915691,0.04127109307560182,0.08576762676239014]},{"name":"vase","coordinates":[0.36174688809774586,0.42579606374104817,0.025887034020546495,0.12584584554036457]}]}
