{"src":"https://a0.muscache.com/im/pictures/42376074-59ce-4965-8e60-793dc1416087.jpg?aki_policy=xx_large","name":"奥体南S3贾西地铁站阳光运动简约吃货小屋双人","listingId":23132507,"photoId":"1655-4","tags":[{"name":"diningtable","coordinates":[0.49488063388400605,0.6621005535125732,0.4960962083604601,0.32451728185017903]},{"name":"sofa","coordinates":[0.2682890150282118,0.5568919102350871,0.356789059109158,0.17850324312845867]},{"name":"chair","coordinates":[0.5282977792951795,0.7113159974416098,0.1461984952290853,0.2840030352274577]},{"name":"chair","coordinates":[0.4567917770809597,0.6791810512542725,0.12350589964124892,0.310949166615804]},{"name":"chair","coordinates":[0.5048073132832845,0.620458722114563,0.09589396582709418,0.09286424318949381]},{"name":"chair","coordinates":[0.7485536522335476,0.6375800013542176,0.09372504552205403,0.08108465671539307]},{"name":"cup","coordinates":[0.749203105767568,0.7073498566945393,0.03144981331295437,0.0892478624979655]},{"name":"wine-glass","coordinates":[0.8510511504279242,0.6876529296239218,0.03198685116238064,0.07934858004252116]},{"name":"cup","coordinates":[0.6104995568593343,0.6709080537160238,0.02631355921427409,0.07472696304321289]}]}
