{"src":"https://a0.muscache.com/im/pictures/be9d8ba7-7c36-4ff3-9dc6-f1a97ee05d61.jpg?aki_policy=xx_large","name":"奥体南S3贾西地铁站阳光运动简约吃货小屋双人","listingId":23132507,"photoId":"1655-6","tags":[{"name":"diningtable","coordinates":[0.41362126668294275,0.5397191683451334,0.5709358497902199,0.40182565053304037]},{"name":"chair","coordinates":[0.2961317462685667,0.5334559599558513,0.43087033872251157,0.48532781600952146]},{"name":"chair","coordinates":[0.20743391248914933,0.5215029716491699,0.17226051989896798,0.36439787546793617]},{"name":"chair","coordinates":[0.8156567149692111,0.5852893829345703,0.18698227258376132,0.32480074564615885]},{"name":"sofa","coordinates":[0.08675060743167076,0.47672574917475385,0.29800671706964943,0.08142316341400146]},{"name":"chair","coordinates":[0.8334411515129937,0.5187132676442464,0.1554396476274655,0.069170347849528]},{"name":"chair","coordinates":[0.668226448106177,0.5086977561314902,0.14169529337941864,0.05346795717875163]},{"name":"chair","coordinates":[0.32210225823484817,0.5069322228431702,0.14566806510642724,0.046223966280619304]},{"name":"cup","coordinates":[0.6705045582335672,0.5384838660558064,0.04473787472571856,0.0677213191986084]},{"name":"cup","coordinates":[0.47138550252090267,0.5374035567045211,0.0396256270232024,0.030892680088678997]}]}
