{"src":"https://a0.muscache.com/im/pictures/42376074-59ce-4965-8e60-793dc1416087.jpg?aki_policy=xx_large","name":"奥体南S3贾西地铁站阳光运动简约吃货小屋双人","listingId":23132507,"photoId":"1655-4","tags":[{"name":"diningtable","coordinates":[0.7429287380642361,0.8243591944376628,0.4960962083604601,0.32451728185017903]},{"name":"sofa","coordinates":[0.4466835445827908,0.6461435317993164,0.356789059109158,0.17850324312845867]},{"name":"chair","coordinates":[0.6013970269097222,0.8533175150553386,0.1461984952290853,0.2840030352274577]},{"name":"chair","coordinates":[0.5185447269015842,0.8346556345621745,0.12350589964124892,0.310949166615804]},{"name":"chair","coordinates":[0.5527542961968316,0.6668908437093098,0.09589396582709418,0.09286424318949381]},{"name":"chair","coordinates":[0.7954161749945746,0.6781223297119141,0.09372504552205403,0.08108465671539307]},{"name":"cup","coordinates":[0.7649280124240452,0.7519737879435221,0.03144981331295437,0.0892478624979655]},{"name":"wine-glass","coordinates":[0.8670445760091146,0.7273272196451823,0.03198685116238064,0.07934858004252116]},{"name":"cup","coordinates":[0.6236563364664713,0.7082715352376302,0.02631355921427409,0.07472696304321289]}]}
