{"src":"https://a0.muscache.com/im/pictures/fd12225f-7bcd-47c8-8fe9-8cd97bd7cb57.jpg?aki_policy=xx_large","name":"Enjoy life in hand","listingId":23135946,"photoId":"1656-0","tags":[{"name":"refrigerator","coordinates":[0.7258963067488778,0.6166362126668294,0.19602296875381173,0.41433575948079426]},{"name":"diningtable","coordinates":[0.33916800362723215,0.6982048034667969,0.2530095668438354,0.27916361490885416]},{"name":"chair","coordinates":[0.25421316487820794,0.7017132441202799,0.15253478860966774,0.2836930592854818]},{"name":"chair","coordinates":[0.41098415544496486,0.6750942230224609,0.1336486006415886,0.29300079345703123]},{"name":"sink","coordinates":[0.593047500121975,0.5409112294514974,0.08779399791422716,0.03328734238942464]},{"name":"bottle","coordinates":[0.46599893919850216,0.4643093109130859,0.021330664438907288,0.05354975461959839]}]}
