{"src":"https://a0.muscache.com/im/pictures/fd12225f-7bcd-47c8-8fe9-8cd97bd7cb57.jpg?aki_policy=xx_large","name":"Enjoy life in hand","listingId":23135946,"photoId":"1656-0","tags":[{"name":"refrigerator","coordinates":[0.627884822371972,0.4094683329264323,0.19602296875381173,0.41433575948079426]},{"name":"diningtable","coordinates":[0.21266322020531445,0.5586229960123699,0.2530095668438354,0.27916361490885416]},{"name":"chair","coordinates":[0.17794577057337407,0.559866714477539,0.15253478860966774,0.2836930592854818]},{"name":"chair","coordinates":[0.3441598551241706,0.5285938262939454,0.1336486006415886,0.29300079345703123]},{"name":"sink","coordinates":[0.5491505011648614,0.5242675582567851,0.08779399791422716,0.03328734238942464]},{"name":"bottle","coordinates":[0.4553336069790485,0.4375344336032867,0.021330664438907288,0.05354975461959839]}]}
