{"src":"https://a0.muscache.com/im/pictures/a2989764-c03c-4017-9fdf-a449d71905f4.jpg?aki_policy=xx_large","name":"私密五星级的家10","listingId":23139216,"photoId":"1657-5","tags":[{"name":"sink","coordinates":[0.8144309043884277,0.6951501846313477,0.3493063926696777,0.21124904950459797]},{"name":"bottle","coordinates":[0.4488993644714355,0.6403298695882161,0.03552125692367554,0.1183624505996704]},{"name":"cup","coordinates":[0.8744829177856446,0.4340389569600423,0.04849627315998077,0.07336467107137044]},{"name":"bottle","coordinates":[0.33153958320617677,0.35974467595418297,0.031151804327964782,0.09265511830647787]},{"name":"toothbrush","coordinates":[0.8949445724487305,0.3782192230224609,0.02096022814512253,0.04940769672393799]}]}
