{"src":"https://a0.muscache.com/im/pictures/a2989764-c03c-4017-9fdf-a449d71905f4.jpg?aki_policy=xx_large","name":"私密五星级的家10","listingId":23139216,"photoId":"1657-5","tags":[{"name":"sink","coordinates":[0.6397777080535888,0.5895256598790487,0.3493063926696777,0.21124904950459797]},{"name":"bottle","coordinates":[0.43113873600959773,0.581148644288381,0.03552125692367554,0.1183624505996704]},{"name":"cup","coordinates":[0.8502347812056542,0.39735662142435707,0.04849627315998077,0.07336467107137044]},{"name":"bottle","coordinates":[0.31596368104219436,0.31341711680094403,0.031151804327964782,0.09265511830647787]},{"name":"toothbrush","coordinates":[0.8844644583761693,0.35351537466049193,0.02096022814512253,0.04940769672393799]}]}
