{"src":"https://a0.muscache.com/im/pictures/438598db-3879-4aaf-9c8b-b7a15e2ae02c.jpg?aki_policy=xx_large","name":"Cosy appartment with a view of the dunes and beach","listingId":13151820,"photoId":"166-15","tags":[{"name":"sofa","coordinates":[0.16800968647003173,0.8856789271036783,0.3414985179901123,0.2270106315612793]},{"name":"diningtable","coordinates":[0.21311211585998535,0.6383307774861654,0.17062935829162598,0.23374444643656414]},{"name":"chair","coordinates":[0.12789299488067626,0.6336381276448567,0.09258427023887635,0.2115228811899821]},{"name":"chair","coordinates":[0.04735939502716065,0.6812851587931316,0.09229757785797119,0.2099202315012614]},{"name":"pottedplant","coordinates":[0.24002399444580078,0.5273696263631185,0.0622982919216156,0.10221501986185709]},{"name":"book","coordinates":[0.5481114387512207,0.30503438313802084,0.014895646274089814,0.08088516394297282]},{"name":"book","coordinates":[0.5346731662750244,0.3054196039835612,0.013848935067653657,0.08304266134897868]},{"name":"book","coordinates":[0.5047292232513427,0.311907958984375,0.014380724728107452,0.0769646167755127]},{"name":"book","coordinates":[0.518747091293335,0.30986611048380536,0.012747348845005035,0.07983725865681966]},{"name":"book","coordinates":[0.4761302947998047,0.312262757619222,0.013145996630191803,0.07358701229095459]},{"name":"book","coordinates":[0.4906045436859131,0.3156943639119466,0.0076926760375499725,0.07255415121714275]}]}
