{"src":"https://a0.muscache.com/im/pictures/80926806-1430-4917-b74b-e656130f4540.jpg?aki_policy=xx_large","name":"Cosy appartment with a view of the dunes and beach","listingId":13151820,"photoId":"166-13","tags":[{"name":"chair","coordinates":[0.37999250888824465,0.8193447748819987,0.134708034992218,0.3494279861450195]},{"name":"chair","coordinates":[0.5212789058685303,0.7634918848673503,0.13839094638824462,0.3239695231119792]},{"name":"chair","coordinates":[0.6498040676116943,0.7235560099283854,0.11075621843338013,0.2857166926066081]},{"name":"wine-glass","coordinates":[0.6514740943908691,0.4314314206441244,0.037706616520881656,0.08958508968353271]},{"name":"vase","coordinates":[0.4784665107727051,0.44210789998372396,0.032648104429245,0.09300904273986817]},{"name":"bottle","coordinates":[0.2407135009765625,0.21109021504720052,0.019131974875926973,0.0489516019821167]},{"name":"apple","coordinates":[0.3576891660690308,0.46574494043986003,0.025323110818862914,0.024512797594070435]},{"name":"apple","coordinates":[0.33693933486938477,0.48124421437581383,0.023843052983283996,0.022565587361653646]},{"name":"orange","coordinates":[0.31818833351135256,0.464450740814209,0.019859975576400755,0.022049431006113687]}]}
