{"src":"https://a0.muscache.com/im/pictures/eccf2b5a-4017-419d-bb33-e7c4a2c53f5c.jpg?aki_policy=xx_large","name":"Immeuble Triangle Davier, confort au centre ville.","listingId":23162539,"photoId":"1663-1","tags":[{"name":"truck","coordinates":[0.18244723081588746,0.6049414316813151,0.031021499633789064,0.0710894266764323]},{"name":"car","coordinates":[0.31224818229675294,0.6458339691162109,0.05003995299339294,0.04367251793543498]},{"name":"person","coordinates":[0.4918667316436768,0.8612980524698893,0.019470930099487305,0.06977587540944417]},{"name":"person","coordinates":[0.4989439010620117,0.8586903889973958,0.01862272769212723,0.06975173950195312]},{"name":"person","coordinates":[0.48167405128479,0.8627564112345377,0.016591593623161316,0.0707099994023641]},{"name":"car","coordinates":[0.186357581615448,0.6256022771199544,0.023712031543254852,0.03667302529017131]},{"name":"person","coordinates":[0.43649721145629883,0.8175399144490559,0.011839417368173599,0.04909253517786662]},{"name":"bicycle","coordinates":[0.43649721145629883,0.8175399144490559,0.011839417368173599,0.04909253517786662]},{"name":"person","coordinates":[0.46044306755065917,0.7659022649129231,0.013998104631900788,0.030821293592453003]},{"name":"person","coordinates":[0.27286515235900877,0.6803010304768881,0.012807832658290863,0.025665160020192465]},{"name":"motorbike","coordinates":[0.27286515235900877,0.6803010304768881,0.012807832658290863,0.025665160020192465]}]}
