{"src":"https://a0.muscache.com/im/pictures/eccf2b5a-4017-419d-bb33-e7c4a2c53f5c.jpg?aki_policy=xx_large","name":"Immeuble Triangle Davier, confort au centre ville.","listingId":23162539,"photoId":"1663-2","tags":[{"name":"truck","coordinates":[0.29677596622043184,0.5693967183430989,0.05514933268229167,0.0710894266764323]},{"name":"car","coordinates":[0.5106279214223226,0.6239977101484935,0.08895991643269857,0.04367251793543498]},{"name":"person","coordinates":[0.8571222517225477,0.8264101147651672,0.03461498684353299,0.06977587540944417]},{"name":"person","coordinates":[0.8704578439394632,0.8238145192464192,0.033107071452670625,0.06975173950195312]},{"name":"person","coordinates":[0.8415613412857056,0.8274014115333557,0.029496166441175673,0.0707099994023641]},{"name":"car","coordinates":[0.3102250059445699,0.6072657644748688,0.04215472274356418,0.03667302529017131]},{"name":"person","coordinates":[0.765471116039488,0.7929936468601226,0.021047853098975288,0.04909253517786662]},{"name":"bicycle","coordinates":[0.765471116039488,0.7929936468601226,0.021047853098975288,0.04909253517786662]},{"name":"person","coordinates":[0.8061226937505934,0.7504916181166966,0.0248855193456014,0.030821293592453003]},{"name":"person","coordinates":[0.4737088640530904,0.6674684504667918,0.02276948028140598,0.025665160020192465]},{"name":"motorbike","coordinates":[0.4737088640530904,0.6674684504667918,0.02276948028140598,0.025665160020192465]}]}
