{"src":"https://a0.muscache.com/im/pictures/eccf2b5a-4017-419d-bb33-e7c4a2c53f5c.jpg?aki_policy=xx_large","name":"Immeuble Triangle Davier, confort au centre ville.","listingId":23162539,"photoId":"1663-1","tags":[{"name":"truck","coordinates":[0.3243506325615777,0.6049414316813151,0.05514933268229167,0.0710894266764323]},{"name":"car","coordinates":[0.5551078796386719,0.6458339691162109,0.08895991643269857,0.04367251793543498]},{"name":"person","coordinates":[0.8744297451443143,0.8612980524698893,0.03461498684353299,0.06977587540944417]},{"name":"person","coordinates":[0.8870113796657986,0.8586903889973958,0.033107071452670625,0.06975173950195312]},{"name":"person","coordinates":[0.8563094245062934,0.8627564112345377,0.029496166441175673,0.0707099994023641]},{"name":"car","coordinates":[0.331302367316352,0.6256022771199544,0.04215472274356418,0.03667302529017131]},{"name":"person","coordinates":[0.7759950425889757,0.8175399144490559,0.021047853098975288,0.04909253517786662]},{"name":"bicycle","coordinates":[0.7759950425889757,0.8175399144490559,0.021047853098975288,0.04909253517786662]},{"name":"person","coordinates":[0.8185654534233942,0.7659022649129231,0.0248855193456014,0.030821293592453003]},{"name":"person","coordinates":[0.4850936041937934,0.6803010304768881,0.02276948028140598,0.025665160020192465]},{"name":"motorbike","coordinates":[0.4850936041937934,0.6803010304768881,0.02276948028140598,0.025665160020192465]}]}
