{"src":"https://a0.muscache.com/im/pictures/70bfdf7c-b124-4e31-9c3c-7b1595bf1b35.jpg?aki_policy=xx_large","name":"The American Dream 美国梦","listingId":23171773,"photoId":"1665-19","tags":[{"name":"diningtable","coordinates":[0.10544681549072266,0.5613669713338216,0.44767212867736816,0.43699671427408854]},{"name":"chair","coordinates":[0.061669886112213135,0.5857138633728027,0.25399160385131836,0.4046144485473633]},{"name":"chair","coordinates":[0.44012608528137204,0.5165969212849935,0.18035879135131835,0.4444543202718099]},{"name":"pottedplant","coordinates":[0.14820998907089233,0.45125542481740316,0.11249558925628662,0.14970866839090982]},{"name":"bottle","coordinates":[0.2511786565184593,0.44506551424662266,0.02718532383441925,0.13524471918741862]},{"name":"bowl","coordinates":[0.22410531044006346,0.6018829643726349,0.04101886749267578,0.035180477301279704]},{"name":"bowl","coordinates":[0.1662947043776512,0.5917284737030665,0.04048581421375275,0.03274623354276021]},{"name":"pottedplant","coordinates":[0.3353291943669319,0.3263464311758677,0.02801400125026703,0.029551629225413004]},{"name":"bowl","coordinates":[0.258257719874382,0.5783187866210937,0.036971288919448855,0.022076543172200522]},{"name":"bowl","coordinates":[0.29724742472171783,0.5757025927305222,0.032297533750534055,0.024863710006078083]}]}
