{"src":"https://a0.muscache.com/im/pictures/f861ba4d-54d2-4eda-9fba-29ca758f33fd.jpg?aki_policy=xx_large","name":"The American Dream 美国梦","listingId":23171773,"photoId":"1665-15","tags":[{"name":"sofa","coordinates":[-0.0035378694534301813,0.45192879041035966,0.34724106788635256,0.27693084081013997]},{"name":"sofa","coordinates":[0.004968595504760753,0.6321781794230144,0.28309333324432373,0.3244879404703776]},{"name":"chair","coordinates":[0.004968595504760753,0.6321781794230144,0.28309333324432373,0.3244879404703776]},{"name":"pottedplant","coordinates":[0.5594665527343751,0.21027313868204753,0.10346384048461914,0.33374093373616537]},{"name":"pottedplant","coordinates":[0.7233471095561981,0.37992451985677084,0.12595497369766234,0.2196478525797526]},{"name":"pottedplant","coordinates":[0.9348779827356338,0.2713376800219218,0.06326481699943542,0.07085988521575928]},{"name":"clock","coordinates":[0.0010732829570770236,0.20985247294108073,0.05008434057235718,0.07150433858235677]}]}
