{"src":"https://a0.muscache.com/im/pictures/2a7b85ff-69d8-4a81-b31a-087f0c799704.jpg?aki_policy=xx_large","name":"The American Dream 美国梦","listingId":23171773,"photoId":"1665-15","tags":[{"name":"diningtable","coordinates":[0.5022541893853082,0.5874259312947591,0.5610274844699435,0.4357590357462565]},{"name":"chair","coordinates":[0.22516949971516928,0.5785985946655273,0.39949044121636285,0.46848430633544924]},{"name":"chair","coordinates":[0.7690594991048177,0.5240800221761067,0.3146187040540907,0.34173628489176433]},{"name":"pottedplant","coordinates":[0.332907591925727,0.35261290868123374,0.1572922282748752,0.09695284366607666]},{"name":"chair","coordinates":[0.6470541212293837,0.3770681063334147,0.10838623046875,0.13298478921254475]},{"name":"bottle","coordinates":[0.4070074717203776,0.3553303082784017,0.03438302410973443,0.07568822701772054]}]}
