{"src":"https://a0.muscache.com/im/pictures/f861ba4d-54d2-4eda-9fba-29ca758f33fd.jpg?aki_policy=xx_large","name":"The American Dream 美国梦","listingId":23171773,"photoId":"1665-15","tags":[{"name":"sofa","coordinates":[0.1700826644897461,0.5903942108154296,0.34724106788635256,0.27693084081013997]},{"name":"sofa","coordinates":[0.14651526212692262,0.7944221496582031,0.28309333324432373,0.3244879404703776]},{"name":"chair","coordinates":[0.14651526212692262,0.7944221496582031,0.28309333324432373,0.3244879404703776]},{"name":"pottedplant","coordinates":[0.6111984729766846,0.3771436055501302,0.10346384048461914,0.33374093373616537]},{"name":"pottedplant","coordinates":[0.7863245964050293,0.48974844614664714,0.12595497369766234,0.2196478525797526]},{"name":"pottedplant","coordinates":[0.9665103912353515,0.30676762262980145,0.06326481699943542,0.07085988521575928]},{"name":"clock","coordinates":[0.026115453243255614,0.2456046422322591,0.05008434057235718,0.07150433858235677]}]}
