{"src":"https://a0.muscache.com/im/pictures/2a7b85ff-69d8-4a81-b31a-087f0c799704.jpg?aki_policy=xx_large","name":"The American Dream 美国梦","listingId":23171773,"photoId":"1665-15","tags":[{"name":"diningtable","coordinates":[0.28251798152923585,0.5874259312947591,0.31557796001434324,0.4357590357462565]},{"name":"chair","coordinates":[0.12665784358978271,0.5785985946655273,0.2247133731842041,0.46848430633544924]},{"name":"chair","coordinates":[0.43259596824645996,0.5240800221761067,0.17697302103042603,0.34173628489176433]},{"name":"pottedplant","coordinates":[0.18726052045822145,0.35261290868123374,0.0884768784046173,0.09695284366607666]},{"name":"chair","coordinates":[0.3639679431915283,0.3770681063334147,0.06096725463867188,0.13298478921254475]},{"name":"bottle","coordinates":[0.2289417028427124,0.3553303082784017,0.019340451061725616,0.07568822701772054]}]}
