{"src":"https://a0.muscache.com/im/pictures/e8e6377c-0267-479d-a1f4-38bdbd22acfb.jpg?aki_policy=xx_large","name":"The American Dream 美国梦","listingId":23171773,"photoId":"1665-11","tags":[{"name":"diningtable","coordinates":[0.8176334381103516,0.8121599833170573,0.375090217590332,0.33260307312011717]},{"name":"vase","coordinates":[0.5416360378265381,0.68304869333903,0.10068575143814087,0.4471761703491211]},{"name":"chair","coordinates":[0.6724288463592529,0.7962391535441081,0.11679121255874633,0.33912537892659506]},{"name":"pottedplant","coordinates":[0.8606077194213867,0.6838155110677083,0.1161383867263794,0.1624103864034017]},{"name":"pottedplant","coordinates":[0.9457790374755859,0.6249408086140951,0.1049446702003479,0.13103398482004802]},{"name":"chair","coordinates":[0.7663188457489014,0.6370712916056315,0.07568819522857666,0.09155494372049967]},{"name":"vase","coordinates":[0.8684004783630371,0.724493662516276,0.07224646210670471,0.06807582378387451]},{"name":"pottedplant","coordinates":[0.05547080039978027,0.3402973492940267,0.04488042294979096,0.042339098453521726]},{"name":"pottedplant","coordinates":[0.10506342649459839,0.3403481483459473,0.0382560133934021,0.03586735725402832]},{"name":"bottle","coordinates":[0.4075319290161133,0.26262200673421227,0.011379508674144745,0.03949598868687947]}]}
