{"src":"https://a0.muscache.com/im/pictures/221b2054-b197-40f0-af7d-467883666b2a.jpg?aki_policy=xx_large","name":"Palava City,Mumbai,India,AC Deluxe Apartment","listingId":23198237,"photoId":"1671-1","tags":[{"name":"sofa","coordinates":[0.7161401112874349,0.7803639729817708,0.5401578267415365,0.4419252077738444]},{"name":"tvmonitor","coordinates":[0.17445909182230632,0.3779722849527995,0.14466419219970703,0.14478615125020344]},{"name":"remote","coordinates":[0.46664129892985023,0.6951597849527995,0.11444026629130045,0.04384673039118449]},{"name":"remote","coordinates":[0.41425399780273436,0.7134726206461589,0.0915122667948405,0.03230978647867839]},{"name":"person","coordinates":[0.20443906784057617,0.3904250144958496,0.042737289269765215,0.05906475782394409]}]}
