{"src":"https://a0.muscache.com/im/pictures/221b2054-b197-40f0-af7d-467883666b2a.jpg?aki_policy=xx_large","name":"Palava City,Mumbai,India,AC Deluxe Apartment","listingId":23198237,"photoId":"1671-1","tags":[{"name":"sofa","coordinates":[0.4460611979166667,0.5594013690948486,0.5401578267415365,0.4419252077738444]},{"name":"tvmonitor","coordinates":[0.1021269957224528,0.3055792093276978,0.14466419219970703,0.14478615125020344]},{"name":"remote","coordinates":[0.4094211657842,0.6732364197572073,0.11444026629130045,0.04384673039118449]},{"name":"remote","coordinates":[0.3684978644053141,0.6973177274068197,0.0915122667948405,0.03230978647867839]},{"name":"person","coordinates":[0.18307042320569356,0.3608926355838776,0.042737289269765215,0.05906475782394409]}]}
