{"src":"https://a0.muscache.com/im/pictures/56a756ec-9b52-4f25-957b-666e1922632f.jpg?aki_policy=xx_large","name":"DEPARTAMENTO COMPLETO CON EXCELENTE UBICACIÃ“N","listingId":23202618,"photoId":"1672-3","tags":[{"name":"refrigerator","coordinates":[0.5915990829467773,0.5794113159179688,0.08633291721343994,0.6420380274454752]},{"name":"oven","coordinates":[0.22398843765258789,0.5422149022420247,0.1824146628379822,0.16593674023946126]},{"name":"microwave","coordinates":[0.6884243965148926,0.46538677215576174,0.07636703252792358,0.13413381576538086]},{"name":"sink","coordinates":[0.5112261772155762,0.5032299041748047,0.0946378767490387,0.03337375720342]},{"name":"sink","coordinates":[0.43203258514404297,0.5198255221048991,0.12119402885437011,0.021471842130025228]}]}
