{"src":"https://a0.muscache.com/im/pictures/56a756ec-9b52-4f25-957b-666e1922632f.jpg?aki_policy=xx_large","name":"DEPARTAMENTO COMPLETO CON EXCELENTE UBICACIÃ“N","listingId":23202618,"photoId":"1672-3","tags":[{"name":"refrigerator","coordinates":[0.5484326243400574,0.2583923021952312,0.08633291721343994,0.6420380274454752]},{"name":"oven","coordinates":[0.1327811062335968,0.4592465321222941,0.1824146628379822,0.16593674023946126]},{"name":"microwave","coordinates":[0.6502408802509309,0.3983198642730713,0.07636703252792358,0.13413381576538086]},{"name":"sink","coordinates":[0.46390723884105683,0.48654302557309476,0.0946378767490387,0.03337375720342]},{"name":"sink","coordinates":[0.3714355707168579,0.5090896010398864,0.12119402885437011,0.021471842130025228]}]}
