{"src":"https://a0.muscache.com/im/pictures/61f6b6fe-4c5b-466c-a728-2259069abb4e.jpg?aki_policy=xx_large","name":"北欧风情美丽遇见—三毛大厦温馨双室","listingId":23215409,"photoId":"1674-11","tags":[{"name":"refrigerator","coordinates":[0.12069384256998698,0.7509228388468424,0.2331096649169922,0.48080873489379883]},{"name":"pottedplant","coordinates":[0.8237017313639323,0.4563304583231608,0.2951425976223416,0.2571455478668213]},{"name":"pottedplant","coordinates":[0.8265018039279514,0.08550145626068115,0.2013654285007053,0.1656659762064616]},{"name":"pottedplant","coordinates":[0.1308100488450792,0.4239725748697917,0.15049747890896267,0.15997193654378256]},{"name":"pottedplant","coordinates":[0.9484074062771267,0.4590065638224284,0.10258802837795682,0.21177775065104168]},{"name":"sink","coordinates":[0.6028900570339627,0.9132035573323568,0.12908763885498048,0.1597472349802653]},{"name":"vase","coordinates":[0.8261730617947048,0.5281561533610026,0.12666508356730144,0.14582928021748862]},{"name":"vase","coordinates":[0.12848439746432835,0.45806849797566734,0.06346435546875,0.06760738690694174]}]}
