{"src":"https://a0.muscache.com/im/pictures/0525bb7b-3ab2-4421-8da7-767233d12370.jpg?aki_policy=xx_large","name":"北欧风情美丽遇见—三毛大厦温馨双室","listingId":23215409,"photoId":"1674-6","tags":[{"name":"bed","coordinates":[0.7557332296399759,0.6056922912597656,0.24546995078067044,0.18369385401407878]},{"name":"sink","coordinates":[0.2130861140853927,0.9162630716959635,0.2322636499603,0.1684645652770996]},{"name":"pottedplant","coordinates":[0.27477334585670904,0.1381503899892171,0.16389700779221533,0.21670487721761067]},{"name":"pottedplant","coordinates":[0.3517629696990333,0.4077742258707682,0.17226789117920646,0.1753745714823405]},{"name":"pottedplant","coordinates":[0.966838168814911,0.5894886016845703,0.15489134519673242,0.16150816281636557]},{"name":"pottedplant","coordinates":[0.14286306137854693,0.2541381676991781,0.14648748788352536,0.14719648361206056]},{"name":"pottedplant","coordinates":[0.4393127622519473,0.4774731318155924,0.12254418392917169,0.1746246337890625]},{"name":"pottedplant","coordinates":[0.19172213410057726,0.43267154693603516,0.1318773784694049,0.13512385686238607]},{"name":"vase","coordinates":[0.4674146974829609,0.546568489074707,0.02231458669600218,0.05888030131657918]}]}
