{"src":"https://a0.muscache.com/im/pictures/89d426a2-49bd-4fdf-8494-9669a078db5a.jpg?aki_policy=xx_large","name":"北欧风情美丽遇见—三毛大厦温馨双室","listingId":23215409,"photoId":"1674-11","tags":[{"name":"sofa","coordinates":[-0.00033210118611654016,0.3827885309855143,0.25921264224582247,0.6241334279378256]},{"name":"tvmonitor","coordinates":[0.6627704938252766,0.23588714599609376,0.2898371590508355,0.26051438649495445]},{"name":"pottedplant","coordinates":[0.5211491584777832,0.4548051357269287,0.14322956932915581,0.14906237920125326]},{"name":"vase","coordinates":[0.25001490116119385,0.6007834474245707,0.07188512484232584,0.10372091134389241]},{"name":"pottedplant","coordinates":[0.25001490116119385,0.6007834474245707,0.07188512484232584,0.10372091134389241]},{"name":"vase","coordinates":[0.5715351051754421,0.5365928272406261,0.03899596532185872,0.058561527729034425]}]}
