{"src":"https://a0.muscache.com/im/pictures/0525bb7b-3ab2-4421-8da7-767233d12370.jpg?aki_policy=xx_large","name":"北欧风情美丽遇见—三毛大厦温馨双室","listingId":23215409,"photoId":"1674-6","tags":[{"name":"bed","coordinates":[0.7074502733018663,0.6056922912597656,0.22978714836968317,0.18369385401407878]},{"name":"sink","coordinates":[0.19947227901882594,0.9162630716959635,0.2174245834350586,0.1684645652770996]},{"name":"pottedplant","coordinates":[0.2572183820936415,0.1381503899892171,0.1534258100721571,0.21670487721761067]},{"name":"pottedplant","coordinates":[0.32928922441270614,0.4077742258707682,0.16126188702053493,0.1753745714823405]},{"name":"pottedplant","coordinates":[0.9050679524739583,0.5894886016845703,0.14499550925360785,0.16150816281636557]},{"name":"pottedplant","coordinates":[0.13373569912380642,0.2541381676991781,0.13712856504652235,0.14719648361206056]},{"name":"pottedplant","coordinates":[0.41124555799696183,0.4774731318155924,0.11471497217814128,0.1746246337890625]},{"name":"pottedplant","coordinates":[0.1794732199774848,0.43267154693603516,0.12345187928941515,0.13512385686238607]},{"name":"vase","coordinates":[0.43755209181043836,0.546568489074707,0.02088893254597982,0.05888030131657918]}]}
