{"src":"https://a0.muscache.com/im/pictures/73b3b847-d973-4d95-8db3-15bd9ebb15ef.jpg?aki_policy=xx_large","name":"Downtown Memphis Luxury!! 2 blocks to Beale St!!","listingId":23218689,"photoId":"1675-0","tags":[{"name":"sofa","coordinates":[0.24083234998914932,0.5821427663167318,0.38662957085503474,0.36223611831665037]},{"name":"tvmonitor","coordinates":[0.8220290289984808,0.4003629684448242,0.10112321641710069,0.4269287427266439]},{"name":"chair","coordinates":[0.663212882147895,0.4801771799723307,0.10567191441853842,0.1907440185546875]},{"name":"chair","coordinates":[0.49412413703070746,0.4696561177571615,0.0699687745836046,0.15335555076599122]},{"name":"book","coordinates":[0.5134946187337239,0.5654940287272135,0.08817924393547906,0.05413825511932373]}]}
