{"src":"https://a0.muscache.com/im/pictures/73b3b847-d973-4d95-8db3-15bd9ebb15ef.jpg?aki_policy=xx_large","name":"Downtown Memphis Luxury!! 2 blocks to Beale St!!","listingId":23218689,"photoId":"1675-0","tags":[{"name":"sofa","coordinates":[0.04751756456163195,0.4010247071584066,0.38662957085503474,0.36223611831665037]},{"name":"tvmonitor","coordinates":[0.7714674207899305,0.18689859708150228,0.10112321641710069,0.4269287427266439]},{"name":"chair","coordinates":[0.6103769249386257,0.384805170694987,0.10567191441853842,0.1907440185546875]},{"name":"chair","coordinates":[0.45913974973890515,0.39297834237416585,0.0699687745836046,0.15335555076599122]},{"name":"book","coordinates":[0.4694049967659844,0.5384249011675517,0.08817924393547906,0.05413825511932373]}]}
