{"src":"https://a0.muscache.com/im/pictures/bcb13235-f56b-4a59-8a25-f426b99897f3.jpg?aki_policy=xx_large","name":"「独立摄影师自留地」天山九鼎旁的私宅","listingId":23240820,"photoId":"1680-1","tags":[{"name":"sofa","coordinates":[0.14682656394110785,0.8304073969523112,0.3016743977864583,0.33233763376871744]},{"name":"diningtable","coordinates":[0.4838011847601997,0.6312479654947917,0.13701350953843858,0.19858616193135578]},{"name":"person","coordinates":[0.44278890821668837,0.5892727533976237,0.08265512254503038,0.24366033871968587]},{"name":"chair","coordinates":[0.41448003980848525,0.6390329360961914,0.057793813281589085,0.184514586130778]},{"name":"chair","coordinates":[0.5446032206217448,0.6379576365152995,0.05290515687730577,0.1771491527557373]},{"name":"bottle","coordinates":[0.526006359524197,0.5525322596232096,0.010821117957433065,0.032881542046864824]},{"name":"tie","coordinates":[0.45012698703342013,0.5411813735961915,0.00992527339193556,0.03134462634722392]}]}
