{"src":"https://a0.muscache.com/im/pictures/46f1517c-1e44-4fb4-9ecf-ebb624287128.jpg?aki_policy=xx_large","name":"「A房:北欧跃层多肉空间」地处昆明滇池国家旅游度假区。坐在家中看西山，下楼就是公交站","listingId":23263832,"photoId":"1686-4","tags":[{"name":"chair","coordinates":[0.7325254440307617,0.7724737803141276,0.49300341606140136,0.47977371215820314]},{"name":"sofa","coordinates":[0.19910271167755128,0.8115697224934896,0.3913491010665894,0.3484548886617025]},{"name":"tvmonitor","coordinates":[0.11644439697265625,0.5169616381327311,0.20278637409210204,0.2399621645609538]},{"name":"chair","coordinates":[0.5901827812194824,0.5846050262451172,0.15896782875061036,0.18385038375854493]},{"name":"pottedplant","coordinates":[0.9768604278564453,0.2760116259256999,0.05111095309257507,0.08296003341674804]},{"name":"vase","coordinates":[0.35422112941741946,0.6116540273030598,0.030244925618171693,0.09793843428293864]}]}
