{"src":"https://a0.muscache.com/im/pictures/46f1517c-1e44-4fb4-9ecf-ebb624287128.jpg?aki_policy=xx_large","name":"「A房:北欧跃层多肉空间」地处昆明滇池国家旅游度假区。坐在家中看西山，下楼就是公交站","listingId":23263832,"photoId":"1686-4","tags":[{"name":"chair","coordinates":[0.486023736000061,0.5325869242350261,0.49300341606140136,0.47977371215820314]},{"name":"sofa","coordinates":[0.003428161144256592,0.6373422781626383,0.3913491010665894,0.3484548886617025]},{"name":"tvmonitor","coordinates":[0.015051209926605233,0.3969805558522542,0.20278637409210204,0.2399621645609538]},{"name":"chair","coordinates":[0.5106988668441772,0.4926798343658448,0.15896782875061036,0.18385038375854493]},{"name":"pottedplant","coordinates":[0.9513049513101578,0.23453160921732585,0.05111095309257507,0.08296003341674804]},{"name":"vase","coordinates":[0.3390986666083336,0.5626848101615906,0.030244925618171693,0.09793843428293864]}]}
