{"src":"https://a0.muscache.com/im/pictures/f2258fea-8609-4228-9150-9b0940e8daf4.jpg?aki_policy=xx_large","name":"Cozy Home in Moore, OK","listingId":23290117,"photoId":"1692-2","tags":[{"name":"sofa","coordinates":[0.19135353565216062,0.6061728318532308,0.6599965572357178,0.3573527971903483]},{"name":"chair","coordinates":[-0.006149518489837635,0.8132194519042969,0.34316585063934324,0.1768683115641276]},{"name":"pottedplant","coordinates":[0.0007580488920211764,0.6069805304209391,0.06452473998069763,0.24633747736612957]},{"name":"vase","coordinates":[0.2243876129388809,0.2658228874206543,0.023672932386398317,0.12998816172281902]},{"name":"vase","coordinates":[0.11135221421718597,0.3349131564299266,0.0365469753742218,0.06521002848943075]},{"name":"vase","coordinates":[0.05694694072008133,0.3490957736968994,0.02696252763271332,0.05858335494995117]},{"name":"vase","coordinates":[0.16987279802560806,0.3391728023687998,0.02586931884288788,0.06045730511347453]}]}
