{"src":"https://a0.muscache.com/im/pictures/f2258fea-8609-4228-9150-9b0940e8daf4.jpg?aki_policy=xx_large","name":"Cozy Home in Moore, OK","listingId":23290117,"photoId":"1692-2","tags":[{"name":"sofa","coordinates":[0.5213518142700195,0.7848492304484049,0.6599965572357178,0.3573527971903483]},{"name":"chair","coordinates":[0.16543340682983398,0.9016536076863607,0.34316585063934324,0.1768683115641276]},{"name":"pottedplant","coordinates":[0.03302041888236999,0.7301492691040039,0.06452473998069763,0.24633747736612957]},{"name":"vase","coordinates":[0.23622407913208007,0.3308169682820638,0.023672932386398317,0.12998816172281902]},{"name":"vase","coordinates":[0.12962570190429687,0.36751817067464193,0.0365469753742218,0.06521002848943075]},{"name":"vase","coordinates":[0.07042820453643799,0.378387451171875,0.02696252763271332,0.05858335494995117]},{"name":"vase","coordinates":[0.182807457447052,0.3694014549255371,0.02586931884288788,0.06045730511347453]}]}
