{"src":"https://a0.muscache.com/im/pictures/7fcc06f1-f41c-4751-b032-cbbacf753373.jpg?aki_policy=xx_large","name":"《小鼾驿站》火车站榻榻米北欧风舒适型落地窗三居室空调房","listingId":23296605,"photoId":"1694-2","tags":[{"name":"bed","coordinates":[0.02588486671447754,0.819251298904419,0.9016252517700195,0.16228310267130533]},{"name":"sofa","coordinates":[0.7434412360191346,0.524465290705363,0.24303867816925048,0.4133479118347168]},{"name":"tvmonitor","coordinates":[0.14422191977500917,0.3942030668258667,0.16361414194107055,0.19312761624654134]},{"name":"chair","coordinates":[0.4418271601200104,0.4317700544993082,0.07548578977584838,0.14767643610636394]},{"name":"chair","coordinates":[0.4147753119468689,0.432382082939148,0.07333605289459229,0.14251198768615722]},{"name":"chair","coordinates":[0.48672837316989903,0.42736854155858356,0.057303828001022336,0.13263645966847737]},{"name":"pottedplant","coordinates":[0.508576613664627,0.5994811058044434,0.07703279256820679,0.09381516774495442]},{"name":"chair","coordinates":[0.40475901067256925,0.4309377392133077,0.0435718834400177,0.13060816923777263]},{"name":"chair","coordinates":[0.37633818238973615,0.4542176445325215,0.03429544270038605,0.11363788445790608]},{"name":"pottedplant","coordinates":[0.34394934177398684,0.5536189893881479,0.048414182662963864,0.06357589960098267]},{"name":"chair","coordinates":[0.49023659378290174,0.42476795315742494,0.033507582545280454,0.030447487036387125]}]}
