{"src":"https://a0.muscache.com/im/pictures/7fcc06f1-f41c-4751-b032-cbbacf753373.jpg?aki_policy=xx_large","name":"《小鼾驿站》火车站榻榻米北欧风舒适型落地窗三居室空调房","listingId":23296605,"photoId":"1694-2","tags":[{"name":"bed","coordinates":[0.4766974925994873,0.9003928502400717,0.9016252517700195,0.16228310267130533]},{"name":"sofa","coordinates":[0.8649605751037598,0.7311392466227213,0.24303867816925048,0.4133479118347168]},{"name":"tvmonitor","coordinates":[0.22602899074554444,0.49076687494913734,0.16361414194107055,0.19312761624654134]},{"name":"chair","coordinates":[0.4795700550079346,0.5056082725524902,0.07548578977584838,0.14767643610636394]},{"name":"chair","coordinates":[0.45144333839416506,0.5036380767822266,0.07333605289459229,0.14251198768615722]},{"name":"chair","coordinates":[0.5153802871704102,0.49368677139282224,0.057303828001022336,0.13263645966847737]},{"name":"pottedplant","coordinates":[0.5470930099487304,0.6463886896769205,0.07703279256820679,0.09381516774495442]},{"name":"chair","coordinates":[0.4265449523925781,0.496241823832194,0.0435718834400177,0.13060816923777263]},{"name":"chair","coordinates":[0.3934859037399292,0.5110365867614746,0.03429544270038605,0.11363788445790608]},{"name":"pottedplant","coordinates":[0.36815643310546875,0.5854069391886393,0.048414182662963864,0.06357589960098267]},{"name":"chair","coordinates":[0.506990385055542,0.4399916966756185,0.033507582545280454,0.030447487036387125]}]}
