{"src":"https://a0.muscache.com/im/pictures/2b656b91-8a54-4e54-8e67-e07a41cc37a0.jpg?aki_policy=xx_large","name":"《小鼾驿站》火车站榻榻米北欧风舒适型落地窗三居室空调房","listingId":23296605,"photoId":"1694-4","tags":[{"name":"sofa","coordinates":[0.20528502464294435,0.7855484644571941,0.41650805473327634,0.402666982014974]},{"name":"diningtable","coordinates":[0.527370548248291,0.7998330434163411,0.21518416404724122,0.25276530583699547]},{"name":"tvmonitor","coordinates":[0.8607477188110352,0.6153478622436523,0.1279611110687256,0.21786367098490397]},{"name":"pottedplant","coordinates":[0.3312225341796875,0.5399152755737304,0.11935868263244628,0.16158310572306314]},{"name":"pottedplant","coordinates":[0.49552388191223146,0.6636850357055664,0.06850650310516357,0.15347641309102375]},{"name":"vase","coordinates":[0.5055372714996338,0.6912378946940104,0.03920297026634216,0.07950964768727621]}]}
