{"src":"https://a0.muscache.com/im/pictures/2b656b91-8a54-4e54-8e67-e07a41cc37a0.jpg?aki_policy=xx_large","name":"《小鼾驿站》火车站榻榻米北欧风舒适型落地窗三居室空调房","listingId":23296605,"photoId":"1694-4","tags":[{"name":"sofa","coordinates":[-0.0029690027236938255,0.5842149734497071,0.41650805473327634,0.402666982014974]},{"name":"diningtable","coordinates":[0.4197784662246704,0.6734503904978434,0.21518416404724122,0.25276530583699547]},{"name":"tvmonitor","coordinates":[0.7967671632766724,0.5064160267512003,0.1279611110687256,0.21786367098490397]},{"name":"pottedplant","coordinates":[0.27154319286346434,0.45912372271219887,0.11935868263244628,0.16158310572306314]},{"name":"pottedplant","coordinates":[0.46127063035964966,0.5869468291600545,0.06850650310516357,0.15347641309102375]},{"name":"vase","coordinates":[0.48593578636646273,0.6514830708503723,0.03920297026634216,0.07950964768727621]}]}
