{"src":"https://a0.muscache.com/im/pictures/62a97f0f-0a1a-4f69-8048-1782c3a4d488.jpg?aki_policy=xx_large","name":"Springfield Va","listingId":23306524,"photoId":"1698-0","tags":[{"name":"refrigerator","coordinates":[0.7838008642196655,0.21059986750284837,0.2176199436187744,0.6521031061808268]},{"name":"oven","coordinates":[0.5215871870517731,0.4423351287841797,0.19380606412887574,0.35771280924479165]},{"name":"sink","coordinates":[0.03372727632522583,0.6194637616475424,0.1850058078765869,0.09347476959228515]},{"name":"chair","coordinates":[0.7142470389604568,0.8211833794911703,0.055941957235336306,0.1669056256612142]},{"name":"microwave","coordinates":[0.4370326608419418,0.4169756611188252,0.09957244992256165,0.082063094774882]},{"name":"microwave","coordinates":[0.2923624008893967,0.4461600065231323,0.09335246682167053,0.08424108823140462]}]}
