{"src":"https://a0.muscache.com/im/pictures/62a97f0f-0a1a-4f69-8048-1782c3a4d488.jpg?aki_policy=xx_large","name":"Springfield Va","listingId":23306524,"photoId":"1698-0","tags":[{"name":"refrigerator","coordinates":[0.8926108360290528,0.5366514205932618,0.2176199436187744,0.6521031061808268]},{"name":"oven","coordinates":[0.6184902191162109,0.6211915334065755,0.19380606412887574,0.35771280924479165]},{"name":"sink","coordinates":[0.1262301802635193,0.6662011464436849,0.1850058078765869,0.09347476959228515]},{"name":"chair","coordinates":[0.742218017578125,0.9046361923217774,0.055941957235336306,0.1669056256612142]},{"name":"microwave","coordinates":[0.48681888580322263,0.45800720850626625,0.09957244992256165,0.082063094774882]},{"name":"microwave","coordinates":[0.33903863430023196,0.48828055063883463,0.09335246682167053,0.08424108823140462]}]}
