{"src":"https://a0.muscache.com/im/pictures/16800353/2fbed296_original.jpg?aki_policy=xx_large","name":"Comfortable room(s)b&amp;b in the Hague","listingId":1048565,"photoId":"17-2","tags":[{"name":"diningtable","coordinates":[0.783196767171224,0.8210689544677734,0.3868004692925347,0.3257092793782552]},{"name":"chair","coordinates":[0.4108428531222873,0.745828119913737,0.17009846369425455,0.29331267674764]},{"name":"car","coordinates":[0.10848288006252713,0.5132651964823405,0.2007282469007704,0.10231722990671793]},{"name":"pottedplant","coordinates":[0.8614857991536459,0.6476516723632812,0.09744274351331923,0.18302407264709472]},{"name":"pottedplant","coordinates":[0.7803621080186632,0.6252217610677083,0.09031989839341906,0.19660218556722006]},{"name":"vase","coordinates":[0.7822310553656684,0.6649838765462239,0.04754141171773275,0.08562448819478354]}]}
