{"src":"https://a0.muscache.com/im/pictures/a3e2cbea-b6a9-4cfd-8d85-409d4e735c49.jpg?aki_policy=xx_large","name":"Appartement de caractère à deux pas de La Haye","listingId":13196996,"photoId":"170-10","tags":[{"name":"chair","coordinates":[1.5606138441297743,0.7644343058268229,0.3599435594346788,0.4687272389729818]},{"name":"chair","coordinates":[1.1183809916178384,0.8401935577392579,0.4372555202907986,0.31051629384358725]},{"name":"diningtable","coordinates":[1.0206726921929254,0.6512154261271159,0.6244128333197699,0.2048544724782308]},{"name":"pottedplant","coordinates":[0.12233967251247829,0.7572503407796224,0.242770873175727,0.30471642812093097]},{"name":"chair","coordinates":[1.3508076985677084,0.5815394719441732,0.2190319061279297,0.14877959887186687]},{"name":"pottedplant","coordinates":[1.8549786037868923,0.6832422892252604,0.2325232399834527,0.12601360479990642]},{"name":"chair","coordinates":[0.8225536770290799,0.5091452598571777,0.13412850697835285,0.10457749366760254]},{"name":"chair","coordinates":[1.1457402547200521,0.5663468678792317,0.16691096623738608,0.05945087671279907]},{"name":"bowl","coordinates":[1.1010841369628905,0.6326622009277344,0.15623836517333983,0.046809999148050944]},{"name":"bowl","coordinates":[0.8588994344075521,0.6325001398722331,0.1709103266398112,0.04035197893778483]}]}
