{"src":"https://a0.muscache.com/im/pictures/a3c0b48b-55f2-474d-83cf-64579e47d7ba.jpg?aki_policy=xx_large","name":"Quarto privativo na Chácara Santo Antônio","listingId":23327376,"photoId":"1704-1","tags":[{"name":"refrigerator","coordinates":[0.5649389196325232,0.4904767990112305,0.8741949575918692,1.0283472696940104]},{"name":"oven","coordinates":[1.2982679578993055,0.7534045537312826,0.6408746790002894,0.47052218119303385]},{"name":"sink","coordinates":[2.1995153356481483,0.6427496592203776,0.7238483570240162,0.13384377161661784]},{"name":"pottedplant","coordinates":[2.0788881655092593,0.21737359364827474,0.2063748112431279,0.1096884568532308]},{"name":"bottle","coordinates":[2.2970782244646992,0.5131032307942708,0.0995170098763925,0.17950771649678549]},{"name":"bottle","coordinates":[1.7341156005859375,0.18981898625691732,0.10606910564281323,0.1558561642964681]},{"name":"vase","coordinates":[2.062441677517361,0.24834934870402017,0.07798095279269748,0.04218439658482869]}]}
