{"src":"https://a0.muscache.com/im/pictures/a3c0b48b-55f2-474d-83cf-64579e47d7ba.jpg?aki_policy=xx_large","name":"Quarto privativo na Chácara Santo Antônio","listingId":23327376,"photoId":"1704-1","tags":[{"name":"refrigerator","coordinates":[0.2118520948621962,0.4904767990112305,0.32782310909695095,1.0283472696940104]},{"name":"oven","coordinates":[0.4868504842122396,0.7534045537312826,0.2403280046251085,0.47052218119303385]},{"name":"sink","coordinates":[0.8248182508680556,0.6427496592203776,0.2714431338840061,0.13384377161661784]},{"name":"pottedplant","coordinates":[0.7795830620659723,0.21737359364827474,0.07739055421617295,0.1096884568532308]},{"name":"bottle","coordinates":[0.8614043341742621,0.5131032307942708,0.03731887870364719,0.17950771649678549]},{"name":"bottle","coordinates":[0.6502933502197266,0.18981898625691732,0.03977591461605496,0.1558561642964681]},{"name":"vase","coordinates":[0.7734156290690104,0.24834934870402017,0.029242857297261556,0.04218439658482869]}]}
