{"src":"https://a0.muscache.com/im/pictures/50d01e4c-6d67-45e8-9dca-eaee90ff1186.jpg?aki_policy=xx_large","name":"Habitacion VACACIONAL CON Alberca","listingId":13409682,"photoId":"171-8","tags":[{"name":"diningtable","coordinates":[0.08818964428371853,0.9487209320068359,0.11916237937079535,0.10243183771769206]},{"name":"car","coordinates":[0.041718369060092506,0.6083747227986653,0.07982743581136068,0.114960249265035]},{"name":"chair","coordinates":[0.03245173825158013,0.8547390619913737,0.04970933596293132,0.1800918738047282]},{"name":"sink","coordinates":[0.25382491217719183,0.9372193018595377,0.09578124152289497,0.09220758279164633]},{"name":"oven","coordinates":[0.5321319156222873,0.8974349339803059,0.05290671984354655,0.1492745240529378]},{"name":"car","coordinates":[0.6382787068684895,0.5818753560384115,0.05066490173339844,0.0496127446492513]},{"name":"pottedplant","coordinates":[0.09062785042656793,0.9192725499471028,0.02896020942264133,0.04228017727533976]}]}
