{"src":"https://a0.muscache.com/im/pictures/d353218e-d70c-4edb-8476-09e29970a158.jpg?aki_policy=xx_large","name":"Sunny Ocean View Appartment","listingId":13202906,"photoId":"171-8","tags":[{"name":"pottedplant","coordinates":[0.3694488992279859,0.6097570419311523,0.10062809547562261,0.18510578473409017]},{"name":"bicycle","coordinates":[0.2673864033026556,0.46995808283487955,0.07640553714502836,0.09762332439422608]},{"name":"pottedplant","coordinates":[0.21234606237504347,0.5235817909240723,0.03890283714580934,0.1882135550181071]},{"name":"bottle","coordinates":[0.3325703372875739,0.5271835327148438,0.01928218448941333,0.0975186586380005]},{"name":"vase","coordinates":[0.31971632489242874,0.553823979695638,0.02137045800602983,0.08609044551849365]},{"name":"pottedplant","coordinates":[0.17384075223156076,0.37715543111165367,0.02880504963626782,0.057855737209320066]}]}
