{"src":"https://a0.muscache.com/im/pictures/7351d41c-afd2-4b01-ae7b-42b20463dbe0.jpg?aki_policy=xx_large","name":"Habitacion VACACIONAL CON Alberca","listingId":13409682,"photoId":"171-6","tags":[{"name":"pottedplant","coordinates":[0.17992734555844908,0.40416784286499025,0.2824853685167101,0.48139546712239584]},{"name":"sink","coordinates":[0.5466909337926794,0.7506373087565105,0.5451686717845775,0.1986745039621989]},{"name":"bowl","coordinates":[0.5466909337926794,0.7506373087565105,0.5451686717845775,0.1986745039621989]},{"name":"vase","coordinates":[0.07666238149007161,0.5298721949259441,0.12875486303258826,0.18535981178283692]},{"name":"bottle","coordinates":[0.8965923733181423,0.6983403523763021,0.0797220371387623,0.10124104817708333]},{"name":"bottle","coordinates":[0.9601317229094328,0.7063195546468098,0.07311260788529007,0.1039350430170695]}]}
