{"src":"https://a0.muscache.com/im/pictures/0f63e983-53d5-4b72-acf5-52ac485a9ebb.jpg?aki_policy=xx_large","name":"Sunny Ocean View Appartment","listingId":13202906,"photoId":"171-1","tags":[{"name":"diningtable","coordinates":[0.8179013991057458,0.8171260833740235,0.31120690782146426,0.34167620340983074]},{"name":"chair","coordinates":[0.726109108109136,0.885700798034668,0.1752960990300928,0.22886565526326497]},{"name":"pottedplant","coordinates":[0.0610117162882204,0.12858213583628336,0.11778149982818477,0.2962878863016764]},{"name":"pottedplant","coordinates":[0.25595670018308847,0.3379559834798177,0.06542087496570487,0.09075624148050944]},{"name":"chair","coordinates":[0.7167097789355876,0.6821288426717123,0.0652801237782782,0.04354408582051595]},{"name":"vase","coordinates":[0.8480657543028511,0.6862734476725261,0.026190674188903043,0.06252204577128093]},{"name":"chair","coordinates":[0.7811122252314412,0.6514129002888998,0.04334667296005058,0.03719396591186523]},{"name":"bottle","coordinates":[0.16776174829135518,0.5167158762613933,0.012243059978034135,0.043852988878885904]}]}
