{"src":"https://a0.muscache.com/im/pictures/50d01e4c-6d67-45e8-9dca-eaee90ff1186.jpg?aki_policy=xx_large","name":"Habitacion VACACIONAL CON Alberca","listingId":13409682,"photoId":"171-11","tags":[{"name":"diningtable","coordinates":[0.1322844664255778,0.9487209320068359,0.17874356905619304,0.10243183771769206]},{"name":"car","coordinates":[0.06257755359013875,0.6083747227986653,0.11974115371704101,0.114960249265035]},{"name":"chair","coordinates":[0.048677607377370195,0.8547390619913737,0.07456400394439697,0.1800918738047282]},{"name":"sink","coordinates":[0.38073736826578775,0.9372193018595377,0.14367186228434245,0.09220758279164633]},{"name":"oven","coordinates":[0.798197873433431,0.8974349339803059,0.07936007976531982,0.1492745240529378]},{"name":"car","coordinates":[0.9574180603027344,0.5818753560384115,0.07599735260009766,0.0496127446492513]},{"name":"pottedplant","coordinates":[0.13594177563985188,0.9192725499471028,0.043440314133961995,0.04228017727533976]}]}
