{"src":"https://a0.muscache.com/im/pictures/50d01e4c-6d67-45e8-9dca-eaee90ff1186.jpg?aki_policy=xx_large","name":"Habitacion VACACIONAL CON Alberca","listingId":13409682,"photoId":"171-11","tags":[{"name":"diningtable","coordinates":[0.04291268189748129,0.8975050131479899,0.17874356905619304,0.10243183771769206]},{"name":"car","coordinates":[0.002706976731618245,0.5508945981661478,0.11974115371704101,0.114960249265035]},{"name":"chair","coordinates":[0.011395605405171712,0.7646931250890097,0.07456400394439697,0.1800918738047282]},{"name":"sink","coordinates":[0.3089014371236165,0.8911155104637145,0.14367186228434245,0.09220758279164633]},{"name":"oven","coordinates":[0.7585178335507711,0.822797671953837,0.07936007976531982,0.1492745240529378]},{"name":"car","coordinates":[0.9194193840026855,0.5570689837137858,0.07599735260009766,0.0496127446492513]},{"name":"pottedplant","coordinates":[0.11422161857287089,0.8981324613094329,0.043440314133961995,0.04228017727533976]}]}
