{"src":"https://a0.muscache.com/im/pictures/8b267f66-2ba5-49d7-8a64-ea1899be9fea.jpg?aki_policy=xx_large","name":"AIRPORT Bungalow Escape,mins from Downtown/Harley","listingId":23343977,"photoId":"1710-0","tags":[{"name":"sofa","coordinates":[0.7523618910047744,0.6860870997111003,0.4344519297281901,0.6217781066894531]},{"name":"diningtable","coordinates":[0.39243901570638023,0.7571949005126953,0.25902205573187936,0.4687299410502116]},{"name":"sofa","coordinates":[0.12170959048800999,0.6067144393920898,0.21933233473036023,0.371837584177653]},{"name":"chair","coordinates":[0.33901273939344617,0.46067422231038413,0.21625166998969184,0.27763166427612307]},{"name":"sofa","coordinates":[0.33901273939344617,0.46067422231038413,0.21625166998969184,0.27763166427612307]},{"name":"remote","coordinates":[0.4207662370469835,0.5995386123657227,0.08841863208346896,0.055466508865356444]}]}
