{"src":"https://a0.muscache.com/im/pictures/8b267f66-2ba5-49d7-8a64-ea1899be9fea.jpg?aki_policy=xx_large","name":"AIRPORT Bungalow Escape,mins from Downtown/Harley","listingId":23343977,"photoId":"1710-0","tags":[{"name":"sofa","coordinates":[0.5351359261406793,0.3751980463663737,0.4344519297281901,0.6217781066894531]},{"name":"diningtable","coordinates":[0.2629279878404406,0.5228299299875896,0.25902205573187936,0.4687299410502116]},{"name":"sofa","coordinates":[0.012043423122829869,0.4207956473032633,0.21933233473036023,0.371837584177653]},{"name":"chair","coordinates":[0.23088690439860027,0.3218583901723226,0.21625166998969184,0.27763166427612307]},{"name":"sofa","coordinates":[0.23088690439860027,0.3218583901723226,0.21625166998969184,0.27763166427612307]},{"name":"remote","coordinates":[0.376556921005249,0.5718053579330444,0.08841863208346896,0.055466508865356444]}]}
