{"src":"https://a0.muscache.com/im/pictures/67e144f2-9b76-4b7d-87dd-cfc115be2938.jpg?aki_policy=xx_large","name":"The Forest Cottage in the trees","listingId":23381373,"photoId":"1716-15","tags":[{"name":"chair","coordinates":[0.6524214956495497,0.5248548507690429,0.2631389829847548,0.4357382456461589]},{"name":"sofa","coordinates":[0.1542507701449924,0.6725547631581624,0.2578021791246202,0.31011813481648765]},{"name":"sofa","coordinates":[0.8424298445383707,0.7263379732767741,0.15643347634209526,0.275922966003418]},{"name":"tvmonitor","coordinates":[0.7657464716169569,0.19967951774597165,0.1382661713494195,0.16906970342000324]},{"name":"chair","coordinates":[0.3637261125776503,0.48169793287913004,0.08021752039591472,0.19211230278015137]},{"name":"chair","coordinates":[0.2941389799118042,0.47549155553181965,0.07314951684739855,0.20199591318766277]},{"name":"chair","coordinates":[0.44437071747250023,0.4529902537663778,0.02689229647318522,0.19928695360819498]},{"name":"pottedplant","coordinates":[0.6127685997221205,0.8368673364321391,0.04701020452711317,0.0959953228632609]}]}
