{"src":"https://a0.muscache.com/im/pictures/590c9b1a-1e48-4ae1-b63e-0359c7c1a573.jpg?aki_policy=xx_large","name":"The Forest Cottage in the trees","listingId":23381373,"photoId":"1716-2","tags":[{"name":"sofa","coordinates":[0.14588338004218207,0.749180285135905,0.28130533430311416,0.41747360229492186]},{"name":"chair","coordinates":[0.5956327226426866,0.811572265625,0.227896605597602,0.34137611389160155]},{"name":"diningtable","coordinates":[0.5608617146809896,0.5948874155680338,0.12375178866916232,0.16801315943400066]},{"name":"chair","coordinates":[0.4890861087375217,0.5817014058430989,0.05952615737915039,0.17062317530314128]},{"name":"chair","coordinates":[0.46832750108506943,0.5751986185709635,0.031700865427653,0.15906205177307128]},{"name":"pottedplant","coordinates":[0.23411988152398003,0.856936264038086,0.043366591135660805,0.08367509047190348]}]}
