{"src":"https://a0.muscache.com/im/pictures/67e144f2-9b76-4b7d-87dd-cfc115be2938.jpg?aki_policy=xx_large","name":"The Forest Cottage in the trees","listingId":23381373,"photoId":"1716-15","tags":[{"name":"chair","coordinates":[0.783990987141927,0.7427239735921224,0.2631389829847548,0.4357382456461589]},{"name":"sofa","coordinates":[0.2831518597073025,0.8276138305664062,0.2578021791246202,0.31011813481648765]},{"name":"sofa","coordinates":[0.9206465827094183,0.864299456278483,0.15643347634209526,0.275922966003418]},{"name":"tvmonitor","coordinates":[0.8348795572916666,0.2842143694559733,0.1382661713494195,0.16906970342000324]},{"name":"chair","coordinates":[0.40383487277560765,0.5777540842692057,0.08021752039591472,0.19211230278015137]},{"name":"chair","coordinates":[0.3307137383355035,0.576489512125651,0.07314951684739855,0.20199591318766277]},{"name":"chair","coordinates":[0.45781686570909286,0.5526337305704753,0.02689229647318522,0.19928695360819498]},{"name":"pottedplant","coordinates":[0.6362737019856771,0.8848649978637695,0.04701020452711317,0.0959953228632609]}]}
