{"src":"https://a0.muscache.com/im/pictures/590c9b1a-1e48-4ae1-b63e-0359c7c1a573.jpg?aki_policy=xx_large","name":"The Forest Cottage in the trees","listingId":23381373,"photoId":"1716-2","tags":[{"name":"sofa","coordinates":[0.005230712890624989,0.540443483988444,0.28130533430311416,0.41747360229492186]},{"name":"chair","coordinates":[0.48168441984388566,0.6408842086791992,0.227896605597602,0.34137611389160155]},{"name":"diningtable","coordinates":[0.49898582034640837,0.5108808358510335,0.12375178866916232,0.16801315943400066]},{"name":"chair","coordinates":[0.4593230300479465,0.4963898181915283,0.05952615737915039,0.17062317530314128]},{"name":"chair","coordinates":[0.4524770683712429,0.4956675926844279,0.031700865427653,0.15906205177307128]},{"name":"pottedplant","coordinates":[0.21243658595614962,0.8150987188021342,0.043366591135660805,0.08367509047190348]}]}
