{"src":"https://z0.muscache.cn/im/pictures/03b797b0-8809-4158-a494-763428555835.jpg?aki_policy=xx_large","name":"刘小喵喵喵的乌托邦之梦","listingId":23381531,"photoId":"1717-7","tags":[{"name":"toilet","coordinates":[2.140716383192274,1.9963022867838542,0.694291263156467,0.8836062113444011]},{"name":"toilet","coordinates":[0.6661055670844184,2.3889203389485676,0.6831545088026258,0.5013842900594075]},{"name":"sink","coordinates":[0.6757536146375868,1.5698978424072265,0.9969323052300347,0.17845638593037924]},{"name":"person","coordinates":[0.6614555782741971,0.7561349868774414,0.15483644273546007,0.28950732549031577]},{"name":"person","coordinates":[0.757049560546875,0.7964531580607096,0.11983648935953777,0.17811296780904134]},{"name":"bottle","coordinates":[0.3218248579237196,1.420325724283854,0.06340899997287326,0.22830408414204914]},{"name":"cup","coordinates":[0.3674862755669488,1.0681894938151042,0.12381894853379992,0.062183678150177]}]}
