{"src":"https://a0.muscache.com/im/pictures/8ccac873-7e06-461b-a3e7-4c4587afc053.jpg?aki_policy=xx_large","name":"Family home near beach - design kitchen","listingId":13213354,"photoId":"172-14","tags":[{"name":"bed","coordinates":[0.2210734398750447,0.7639150619506836,0.3911075182738734,0.36535879770914714]},{"name":"chair","coordinates":[0.6413697773465442,0.7899541854858398,0.06028249301282804,0.3333968798319499]},{"name":"chair","coordinates":[0.6410305912743651,0.6632799784342448,0.05057716642497094,0.11850330034891764]},{"name":"keyboard","coordinates":[0.7236677396280401,0.7061072667439778,0.03516746761120099,0.05429093440373738]},{"name":"mouse","coordinates":[0.6837074814606804,0.7291531880696615,0.02089902771389024,0.023748403787612914]}]}
