{"src":"https://a0.muscache.com/im/pictures/2fb6dc0a-7825-4ad0-add1-c0061f4bf32e.jpg?aki_policy=xx_large","name":"Aconchegante apartamento com garagem em Contagem","listingId":23408658,"photoId":"1723-6","tags":[{"name":"refrigerator","coordinates":[0.854310131072998,0.4749726931254069,0.26053719520568847,1.0075360616048177]},{"name":"microwave","coordinates":[0.6182938575744629,0.11279064814249674,0.18600016832351685,0.1964509169260661]},{"name":"chair","coordinates":[0.8895319938659668,0.9244163513183594,0.22319455146789552,0.14488347371419272]},{"name":"bottle","coordinates":[0.32578530311584475,0.350080935160319,0.04062152504920959,0.09069561958312988]},{"name":"bottle","coordinates":[0.2936047315597534,0.3375669797261556,0.03187946081161499,0.08799480597178141]}]}
