{"src":"https://a0.muscache.com/im/pictures/13512cf0-db88-4542-a289-f85703097f22.jpg?aki_policy=xx_large","name":"Aconchegante apartamento com garagem em Contagem","listingId":23408658,"photoId":"1723-0","tags":[{"name":"sofa","coordinates":[0.20649342536926268,0.6058742523193359,0.3281019926071167,0.57352720896403]},{"name":"chair","coordinates":[0.3426354169845581,0.8535852432250977,0.29232120513916016,0.30488287607828773]},{"name":"pottedplant","coordinates":[0.8860597610473633,0.6880467096964519,0.22640764713287354,0.327886168162028]},{"name":"diningtable","coordinates":[0.509096908569336,0.6307338078816732,0.15320414304733276,0.2683767000834147]},{"name":"tvmonitor","coordinates":[0.8028575897216796,0.5077584266662598,0.13455283641815186,0.2731295585632324]},{"name":"book","coordinates":[0.19932764768600464,0.6408152262369792,0.10976080894470215,0.04509690999984741]}]}
