{"src":"https://a0.muscache.com/im/pictures/2fb6dc0a-7825-4ad0-add1-c0061f4bf32e.jpg?aki_policy=xx_large","name":"Aconchegante apartamento com garagem em Contagem","listingId":23408658,"photoId":"1723-6","tags":[{"name":"refrigerator","coordinates":[0.7240415334701538,-0.02879533767700193,0.26053719520568847,1.0075360616048177]},{"name":"microwave","coordinates":[0.5252937734127044,0.0145651896794637,0.18600016832351685,0.1964509169260661]},{"name":"chair","coordinates":[0.7779347181320191,0.8519746144612631,0.22319455146789552,0.14488347371419272]},{"name":"bottle","coordinates":[0.30547454059123996,0.3047331253687541,0.04062152504920959,0.09069561958312988]},{"name":"bottle","coordinates":[0.27766500115394593,0.2935695767402649,0.03187946081161499,0.08799480597178141]}]}
