{"src":"https://a0.muscache.com/im/pictures/13512cf0-db88-4542-a289-f85703097f22.jpg?aki_policy=xx_large","name":"Aconchegante apartamento com garagem em Contagem","listingId":23408658,"photoId":"1723-0","tags":[{"name":"sofa","coordinates":[0.042442429065704335,0.3191106478373209,0.3281019926071167,0.57352720896403]},{"name":"chair","coordinates":[0.19647481441497805,0.7011438051859538,0.29232120513916016,0.30488287607828773]},{"name":"pottedplant","coordinates":[0.7728559374809265,0.5241036256154379,0.22640764713287354,0.327886168162028]},{"name":"diningtable","coordinates":[0.4324948370456696,0.49654545783996584,0.15320414304733276,0.2683767000834147]},{"name":"tvmonitor","coordinates":[0.7355811715126037,0.3711936473846436,0.13455283641815186,0.2731295585632324]},{"name":"book","coordinates":[0.14444724321365357,0.6182667712370554,0.10976080894470215,0.04509690999984741]}]}
