{"src":"https://a0.muscache.com/im/pictures/8bf34e36-2de0-4062-87c7-5c15207a818b.jpg?aki_policy=xx_large","name":"Affordable Home in a Exciting City [PROMO PRICE]","listingId":23429011,"photoId":"1730-4","tags":[{"name":"diningtable","coordinates":[0.4933897654215495,0.7033253351847331,0.5802825503879123,0.619599978129069]},{"name":"chair","coordinates":[0.18015109168158638,0.7036710103352865,0.36047164069281684,0.5720458984375]},{"name":"chair","coordinates":[0.8384758843315973,0.7079930623372396,0.3211033079359267,0.5455845514933269]},{"name":"cup","coordinates":[0.453816901312934,0.44894453684488933,0.06412323315938313,0.10705838998158773]},{"name":"cup","coordinates":[0.5787737952338324,0.4535977363586426,0.0681986755794949,0.09751516977945963]},{"name":"fork","coordinates":[0.6637887742784289,0.5985196431477865,0.12756883833143445,0.035235861937204994]}]}
