{"src":"https://a0.muscache.com/im/pictures/8bf34e36-2de0-4062-87c7-5c15207a818b.jpg?aki_policy=xx_large","name":"Affordable Home in a Exciting City [PROMO PRICE]","listingId":23429011,"photoId":"1730-4","tags":[{"name":"diningtable","coordinates":[0.20324849022759334,0.39352534612019857,0.5802825503879123,0.619599978129069]},{"name":"chair","coordinates":[-0.00008472866482203689,0.41764806111653646,0.36047164069281684,0.5720458984375]},{"name":"chair","coordinates":[0.6779242303636339,0.43520078659057615,0.3211033079359267,0.5455845514933269]},{"name":"cup","coordinates":[0.4217552847332424,0.39541534185409544,0.06412323315938313,0.10705838998158773]},{"name":"cup","coordinates":[0.5446744574440849,0.4048401514689128,0.0681986755794949,0.09751516977945963]},{"name":"fork","coordinates":[0.6000043551127117,0.580901712179184,0.12756883833143445,0.035235861937204994]}]}
