{"src":"https://a0.muscache.com/im/pictures/45b7caaf-251a-4c75-87c6-f5749d185720.jpg?aki_policy=xx_large","name":"Homey \"JCS HEAVEN'S NEST\" 1br Fully furnished unit","listingId":23435890,"photoId":"1732-2","tags":[{"name":"diningtable","coordinates":[0.12298088073730468,0.6167721430460612,0.8021043565538194,0.3952589670817057]},{"name":"chair","coordinates":[0.6223367902967665,0.5859680334726969,0.3798805236816406,0.40992072423299153]},{"name":"cup","coordinates":[0.41199349562327064,0.5941948771476746,0.06485790146721734,0.10067452589670817]},{"name":"cup","coordinates":[0.6071791728337605,0.5967390815416972,0.06156777805752224,0.10325454870859782]},{"name":"cup","coordinates":[0.68451439804501,0.6253835717837016,0.0689728789859348,0.06825306415557861]},{"name":"cup","coordinates":[0.34626284175448946,0.6257792472839355,0.06503843731350369,0.0638535181681315]},{"name":"vase","coordinates":[0.4981396993001302,0.6104623635609944,0.03204566107855903,0.04204282760620117]}]}
