{"src":"https://a0.muscache.com/im/pictures/45b7caaf-251a-4c75-87c6-f5749d185720.jpg?aki_policy=xx_large","name":"Homey \"JCS HEAVEN'S NEST\" 1br Fully furnished unit","listingId":23435890,"photoId":"1732-2","tags":[{"name":"diningtable","coordinates":[0.5240330590142144,0.8144016265869141,0.8021043565538194,0.3952589670817057]},{"name":"chair","coordinates":[0.8122770521375868,0.7909283955891927,0.3798805236816406,0.40992072423299153]},{"name":"cup","coordinates":[0.44442244635687933,0.6445321400960287,0.06485790146721734,0.10067452589670817]},{"name":"cup","coordinates":[0.6379630618625217,0.6483663558959961,0.06156777805752224,0.10325454870859782]},{"name":"cup","coordinates":[0.7190008375379774,0.6595101038614909,0.0689728789859348,0.06825306415557861]},{"name":"cup","coordinates":[0.3787820604112413,0.6577060063680013,0.06503843731350369,0.0638535181681315]},{"name":"vase","coordinates":[0.5141625298394097,0.631483777364095,0.03204566107855903,0.04204282760620117]}]}
