{"src":"https://a0.muscache.com/im/pictures/2ecac41a-ad1e-45b0-bdb5-8c1753c2dbba.jpg?aki_policy=xx_large","name":"2B(100m2)GARDEN apt close to beach&amp;centre,hip area","listingId":13243703,"photoId":"174-9","tags":[{"name":"chair","coordinates":[1.395428721110026,0.8782220840454101,0.2856049643622504,0.2411003271738688]},{"name":"chair","coordinates":[1.670399136013455,0.8727879842122396,0.26786651611328127,0.22683924039204914]},{"name":"oven","coordinates":[0.21439308590359157,0.6545974731445312,0.15617412990993923,0.19145727157592773]},{"name":"pottedplant","coordinates":[0.6375133938259548,0.5515202840169271,0.1288034756978353,0.1870997111002604]},{"name":"chair","coordinates":[0.9408554077148438,0.6383008321126302,0.15596606996324328,0.11930129528045655]},{"name":"vase","coordinates":[1.7848264906141493,0.6810143152872722,0.07102269596523708,0.10398356914520264]},{"name":"book","coordinates":[0.976505364312066,0.5345057169596354,0.010060295793745252,0.019378944238026937]},{"name":"book","coordinates":[0.9022082010904948,0.5370595932006836,0.009707446230782403,0.017707093556722005]},{"name":"book","coordinates":[0.939945305718316,0.5361463546752929,0.008058675792482164,0.01954092780749003]}]}
