{"src":"https://a0.muscache.com/im/pictures/7f0b3bc7-9bbc-4f69-a365-ddfa1d2b1c74.jpg?aki_policy=xx_large","name":"Уютная, светлая квартира для отдыха в Ярославле","listingId":23461471,"photoId":"1740-4","tags":[{"name":"refrigerator","coordinates":[0.313054445054796,0.5991380055745442,0.33363672892252605,0.49938567479451496]},{"name":"oven","coordinates":[0.5913565317789714,0.7021643956502278,0.33943409389919704,0.38167295455932615]},{"name":"microwave","coordinates":[0.31816143459743923,0.3680091857910156,0.23725079430474175,0.09930383364359538]},{"name":"sink","coordinates":[1.2930389404296876,0.5895667394002279,0.21442640092637805,0.05180441538492839]},{"name":"bottle","coordinates":[1.4281482272677952,0.5408658345540365,0.049365165498521595,0.09173709551493327]},{"name":"bottle","coordinates":[1.373825920952691,0.546023941040039,0.03640995820363362,0.06189481019973755]}]}
