{"src":"https://a0.muscache.com/im/pictures/7f0b3bc7-9bbc-4f69-a365-ddfa1d2b1c74.jpg?aki_policy=xx_large","name":"Уютная, светлая квартира для отдыха в Ярославле","listingId":23461471,"photoId":"1740-4","tags":[{"name":"refrigerator","coordinates":[0.16573470620548023,0.5991380055745442,0.1766312094295726,0.49938567479451496]},{"name":"oven","coordinates":[0.3130711050594554,0.7021643956502278,0.17970040265251608,0.38167295455932615]},{"name":"microwave","coordinates":[0.16843840655158548,0.3680091857910156,0.12560336169074562,0.09930383364359538]},{"name":"sink","coordinates":[0.6845500272863051,0.5895667394002279,0.11351985931396484,0.05180441538492839]},{"name":"bottle","coordinates":[0.7560784732594209,0.5408658345540365,0.026134499381570257,0.09173709551493327]},{"name":"bottle","coordinates":[0.7273196052102482,0.546023941040039,0.019275860225453096,0.06189481019973755]}]}
