{"src":"https://a0.muscache.com/im/pictures/7f0b3bc7-9bbc-4f69-a365-ddfa1d2b1c74.jpg?aki_policy=xx_large","name":"Уютная, светлая квартира для отдыха в Ярославле","listingId":23461471,"photoId":"1740-4","tags":[{"name":"refrigerator","coordinates":[0.07741910149069392,0.34944516817728677,0.1766312094295726,0.49938567479451496]},{"name":"oven","coordinates":[0.22322090373319736,0.5113279183705648,0.17970040265251608,0.38167295455932615]},{"name":"microwave","coordinates":[0.10563672570621267,0.3183572689692179,0.12560336169074562,0.09930383364359538]},{"name":"sink","coordinates":[0.6277900976293227,0.5636645317077636,0.11351985931396484,0.05180441538492839]},{"name":"bottle","coordinates":[0.7430112235686358,0.49499728679656985,0.026134499381570257,0.09173709551493327]},{"name":"bottle","coordinates":[0.7176816750975217,0.5150765359401702,0.019275860225453096,0.06189481019973755]}]}
