{"src":"https://a0.muscache.com/im/pictures/772ff51f-91f6-4ec9-832f-4f4a15e3cf7a.jpg?aki_policy=xx_large","name":"LUXURY LOFT WITH A DIGITAL SMART HOME ASSISTANT","listingId":23481404,"photoId":"1746-0","tags":[{"name":"diningtable","coordinates":[0.49804253578186036,0.7099716822306316,0.8627037048339844,0.5763732274373372]},{"name":"fork","coordinates":[0.7503583431243896,0.8345417658487956,0.20622165203094484,0.13040634791056316]},{"name":"knife","coordinates":[0.32804012298583984,0.8396887461344401,0.1596587896347046,0.13259913126627604]},{"name":"wine-glass","coordinates":[0.5076973915100098,0.6706643422444661,0.08138830065727234,0.23145065307617188]},{"name":"pottedplant","coordinates":[0.6828353404998779,0.26662840843200686,0.09044618606567383,0.19603482882181802]},{"name":"cup","coordinates":[0.4462563514709473,0.7665709813435873,0.07858895659446716,0.15845802625020344]},{"name":"wine-glass","coordinates":[0.7631477832794189,0.5627676645914713,0.06611411571502686,0.1786727746327718]},{"name":"wine-glass","coordinates":[0.2804987668991089,0.5354771931966146,0.061864298582077024,0.15385583241780598]},{"name":"spoon","coordinates":[0.6799988269805908,0.6901252110799153,0.08757853507995605,0.06699937184651693]},{"name":"wine-glass","coordinates":[0.5319629192352295,0.4658808708190918,0.04655092656612396,0.12188630104064942]},{"name":"cup","coordinates":[0.2388295888900757,0.5587062835693359,0.05019875764846802,0.09160111745198568]}]}
