{"src":"https://a0.muscache.com/im/pictures/791d2d3b-db5f-438f-b8c2-0cd96e9b3e58.jpg?aki_policy=xx_large","name":"LUXURY LOFT WITH A DIGITAL SMART HOME ASSISTANT","listingId":23481404,"photoId":"1746-1","tags":[{"name":"chair","coordinates":[0.02204174465603298,0.40377175013224287,0.47351175944010415,0.5264617284138997]},{"name":"chair","coordinates":[0.48319026099310985,0.4116075197855631,0.45699306064181855,0.5190618515014649]},{"name":"pottedplant","coordinates":[0.6068514982859294,0.2318037748336792,0.10591777165730794,0.10492399533589682]},{"name":"pottedplant","coordinates":[0.4293147193060981,0.3169829249382019,0.10255618625217014,0.07982930342356363]},{"name":"bowl","coordinates":[0.2384722656673855,0.42875795563062036,0.13580295774671766,0.046319639682769774]},{"name":"wine-glass","coordinates":[0.45195346938239206,0.4022241989771525,0.05856449339124892,0.07193404833475749]},{"name":"wine-glass","coordinates":[0.28494422435760497,0.35966341495513915,0.045878034167819555,0.07119631767272949]},{"name":"cup","coordinates":[0.41253594822353784,0.4379225532213847,0.04993183347913954,0.05909898281097412]},{"name":"cup","coordinates":[0.6492251608106825,0.3834744791189829,0.046917194790310326,0.05726801156997681]},{"name":"wine-glass","coordinates":[0.6492251608106825,0.3834744791189829,0.046917194790310326,0.05726801156997681]},{"name":"cup","coordinates":[0.6989778796831767,0.4140154292186101,0.041415985425313315,0.030654317140579222]}]}
