{"src":"https://a0.muscache.com/im/pictures/772ff51f-91f6-4ec9-832f-4f4a15e3cf7a.jpg?aki_policy=xx_large","name":"LUXURY LOFT WITH A DIGITAL SMART HOME ASSISTANT","listingId":23481404,"photoId":"1746-0","tags":[{"name":"diningtable","coordinates":[0.06669068336486816,0.42178506851196296,0.8627037048339844,0.5763732274373372]},{"name":"fork","coordinates":[0.6472475171089173,0.7693385918935141,0.20622165203094484,0.13040634791056316]},{"name":"knife","coordinates":[0.24821072816848755,0.7733891805013021,0.1596587896347046,0.13259913126627604]},{"name":"wine-glass","coordinates":[0.46700324118137365,0.5549390157063802,0.08138830065727234,0.23145065307617188]},{"name":"pottedplant","coordinates":[0.637612247467041,0.16861099402109786,0.09044618606567383,0.19603482882181802]},{"name":"cup","coordinates":[0.4069618731737137,0.6873419682184856,0.07858895659446716,0.15845802625020344]},{"name":"wine-glass","coordinates":[0.7300907254219055,0.4734312772750854,0.06611411571502686,0.1786727746327718]},{"name":"wine-glass","coordinates":[0.2495666176080704,0.4585492769877116,0.061864298582077024,0.15385583241780598]},{"name":"spoon","coordinates":[0.6362095594406127,0.6566255251566568,0.08757853507995605,0.06699937184651693]},{"name":"wine-glass","coordinates":[0.5086874559521676,0.40493772029876707,0.04655092656612396,0.12188630104064942]},{"name":"cup","coordinates":[0.21373021006584167,0.5129057248433431,0.05019875764846802,0.09160111745198568]}]}
