{"src":"https://a0.muscache.com/im/pictures/791d2d3b-db5f-438f-b8c2-0cd96e9b3e58.jpg?aki_policy=xx_large","name":"LUXURY LOFT WITH A DIGITAL SMART HOME ASSISTANT","listingId":23481404,"photoId":"1746-1","tags":[{"name":"chair","coordinates":[0.25879762437608506,0.6670026143391927,0.47351175944010415,0.5264617284138997]},{"name":"chair","coordinates":[0.7116867913140191,0.6711384455362955,0.45699306064181855,0.5190618515014649]},{"name":"pottedplant","coordinates":[0.6598103841145834,0.2842657725016276,0.10591777165730794,0.10492399533589682]},{"name":"pottedplant","coordinates":[0.48059281243218316,0.3568975766499837,0.10255618625217014,0.07982930342356363]},{"name":"bowl","coordinates":[0.30637374454074434,0.45191777547200523,0.13580295774671766,0.046319639682769774]},{"name":"wine-glass","coordinates":[0.4812357160780165,0.43819122314453124,0.05856449339124892,0.07193404833475749]},{"name":"wine-glass","coordinates":[0.30788324144151474,0.3952615737915039,0.045878034167819555,0.07119631767272949]},{"name":"cup","coordinates":[0.4375018649631076,0.46747204462687175,0.04993183347913954,0.05909898281097412]},{"name":"cup","coordinates":[0.6726837582058377,0.41210848490397134,0.046917194790310326,0.05726801156997681]},{"name":"wine-glass","coordinates":[0.6726837582058377,0.41210848490397134,0.046917194790310326,0.05726801156997681]},{"name":"cup","coordinates":[0.7196858723958334,0.4293425877888997,0.041415985425313315,0.030654317140579222]}]}
