{"src":"https://a0.muscache.com/im/pictures/791d2d3b-db5f-438f-b8c2-0cd96e9b3e58.jpg?aki_policy=xx_large","name":"LUXURY LOFT WITH A DIGITAL SMART HOME ASSISTANT","listingId":23481404,"photoId":"1746-1","tags":[{"name":"chair","coordinates":[0.15298381736517344,0.6670026143391927,0.2799084292256773,0.5264617284138997]},{"name":"chair","coordinates":[0.4207015515156763,0.6711384455362955,0.2701436811675775,0.5190618515014649]},{"name":"pottedplant","coordinates":[0.3900356950431034,0.2842657725016276,0.06261149063486184,0.10492399533589682]},{"name":"pottedplant","coordinates":[0.284094273358926,0.3568975766499837,0.060624346553006976,0.07982930342356363]},{"name":"bowl","coordinates":[0.1811076322408341,0.45191777547200523,0.08027761049067055,0.046319639682769774]},{"name":"wine-glass","coordinates":[0.28447431492296543,0.43819122314453124,0.034619404960344186,0.07193404833475749]},{"name":"wine-glass","coordinates":[0.18199994567971314,0.3952615737915039,0.027120020197725844,0.07119631767272949]},{"name":"cup","coordinates":[0.25862179209641833,0.46747204462687175,0.029516354765993815,0.05909898281097412]},{"name":"cup","coordinates":[0.39764557135320455,0.41210848490397134,0.027734302339099702,0.05726801156997681]},{"name":"wine-glass","coordinates":[0.39764557135320455,0.41210848490397134,0.027734302339099702,0.05726801156997681]},{"name":"cup","coordinates":[0.42543007235221675,0.4293425877888997,0.024482355916441368,0.030654317140579222]}]}
