{"src":"https://a0.muscache.com/im/pictures/4be45274-2693-4619-a497-e2ab5c900fca.jpg?aki_policy=xx_large","name":"佛山禅城亚艺湖畔的温馨小居","listingId":23487898,"photoId":"1748-5","tags":[{"name":"diningtable","coordinates":[0.4726279788547092,0.7960385004679362,0.6438065846761067,0.37814966837565106]},{"name":"chair","coordinates":[0.41745249430338544,0.8391476949055989,0.2884473164876302,0.32536137898763023]},{"name":"chair","coordinates":[0.16287197536892362,0.8223476409912109,0.2413348939683702,0.33575785954793297]},{"name":"chair","coordinates":[0.7862280103895399,0.7143130620320638,0.17324352264404297,0.2978104591369629]},{"name":"chair","coordinates":[0.5685103522406684,0.5996349970499675,0.14350238376193578,0.10327829519907633]},{"name":"cup","coordinates":[0.17405323452419705,0.6369997024536133,0.060543187459309894,0.05212985674540202]},{"name":"person","coordinates":[0.5311056772867838,0.27532885869344076,0.02938121689690484,0.03212045431137085]}]}
