{"src":"https://a0.muscache.com/im/pictures/7933e4c6-2dd8-492c-9749-fbdcc4e95789.jpg?aki_policy=xx_large","name":"佛山禅城亚艺湖畔的温馨小居","listingId":23487898,"photoId":"1748-5","tags":[{"name":"sink","coordinates":[0.15556490421295166,0.780892817179362,0.3031079530715942,0.38820746739705403]},{"name":"toilet","coordinates":[0.39950568675994874,0.7635935465494792,0.2136378049850464,0.4241021156311035]},{"name":"pottedplant","coordinates":[0.39228262901306155,0.47496054967244467,0.09156040549278259,0.20346948305765789]},{"name":"pottedplant","coordinates":[0.17663064002990722,0.5816716512044271,0.05774565935134888,0.1079358180363973]},{"name":"clock","coordinates":[0.5042619228363037,0.0936839739481608,0.05331992506980896,0.07981251080830892]},{"name":"vase","coordinates":[0.3768775939941406,0.5463467280069987,0.01939384788274765,0.07235387961069743]}]}
