{"src":"https://a0.muscache.com/im/pictures/cc942e01-02f9-4a7b-9f67-6efef4496bdd.jpg?aki_policy=xx_large","name":"佛山禅城亚艺湖畔的温馨小居","listingId":23487898,"photoId":"1748-1","tags":[{"name":"sofa","coordinates":[0.008898878097534202,0.6458035151163737,0.5033626079559326,0.34598655700683595]},{"name":"tvmonitor","coordinates":[0.7586633205413819,0.3920745054880779,0.22965898513793945,0.28660078048706056]},{"name":"pottedplant","coordinates":[0.6345232725143433,0.4571639140446981,0.1336876392364502,0.21585164070129395]},{"name":"chair","coordinates":[0.25865793526172637,0.5583375930786133,0.08827919363975525,0.16395556131998698]},{"name":"pottedplant","coordinates":[0.24813429415225985,0.42273321151733395,0.07378551363945007,0.1837259292602539]},{"name":"pottedplant","coordinates":[0.6065157532691955,0.48979356288909914,0.06768958568572998,0.15768272082010906]},{"name":"bowl","coordinates":[0.5128784656524658,0.7847454150517782,0.08676652908325196,0.07955307960510254]}]}
