{"src":"https://a0.muscache.com/im/pictures/cc942e01-02f9-4a7b-9f67-6efef4496bdd.jpg?aki_policy=xx_large","name":"佛山禅城亚艺湖畔的温馨小居","listingId":23487898,"photoId":"1748-1","tags":[{"name":"sofa","coordinates":[0.2605801820755005,0.8187967936197916,0.5033626079559326,0.34598655700683595]},{"name":"tvmonitor","coordinates":[0.8734928131103515,0.5353748957316081,0.22965898513793945,0.28660078048706056]},{"name":"pottedplant","coordinates":[0.7013670921325683,0.565089734395345,0.1336876392364502,0.21585164070129395]},{"name":"chair","coordinates":[0.302797532081604,0.6403153737386068,0.08827919363975525,0.16395556131998698]},{"name":"pottedplant","coordinates":[0.2850270509719849,0.5145961761474609,0.07378551363945007,0.1837259292602539]},{"name":"pottedplant","coordinates":[0.6403605461120605,0.5686349232991537,0.06768958568572998,0.15768272082010906]},{"name":"bowl","coordinates":[0.5562617301940918,0.8245219548543294,0.08676652908325196,0.07955307960510254]}]}
