{"src":"https://a0.muscache.com/im/pictures/4be45274-2693-4619-a497-e2ab5c900fca.jpg?aki_policy=xx_large","name":"佛山禅城亚艺湖畔的温馨小居","listingId":23487898,"photoId":"1748-5","tags":[{"name":"diningtable","coordinates":[0.15072468651665583,0.6069636662801107,0.6438065846761067,0.37814966837565106]},{"name":"chair","coordinates":[0.2732288360595703,0.6764670054117838,0.2884473164876302,0.32536137898763023]},{"name":"chair","coordinates":[0.04220452838473851,0.6544687112172445,0.2413348939683702,0.33575785954793297]},{"name":"chair","coordinates":[0.6996062490675184,0.5654078324635823,0.17324352264404297,0.2978104591369629]},{"name":"chair","coordinates":[0.49675916035970047,0.5479958494504293,0.14350238376193578,0.10327829519907633]},{"name":"cup","coordinates":[0.1437816407945421,0.6109347740809122,0.060543187459309894,0.05212985674540202]},{"name":"person","coordinates":[0.5164150688383314,0.2592686315377553,0.02938121689690484,0.03212045431137085]}]}
