{"src":"https://a0.muscache.com/im/pictures/f79b98c5-bdde-4b59-a7bf-c91b742a6904.jpg?aki_policy=xx_large","name":"Family friendly amazing Sunny apartment 8 Kinshasa","listingId":13491082,"photoId":"175-6","tags":[{"name":"sofa","coordinates":[0.5584575547112359,0.5934844334920247,0.25161075592041016,0.365155029296875]},{"name":"chair","coordinates":[0.05415598551432292,0.6594240347544352,0.24958691067165797,0.3348933855692546]},{"name":"sofa","coordinates":[0.7448411305745443,0.6671936988830566,0.24697918362087673,0.3174703598022461]},{"name":"chair","coordinates":[0.2877392345004612,0.6356149832407633,0.1612410439385308,0.35256980260213217]},{"name":"chair","coordinates":[0.006942198011610251,0.6321547508239747,0.15205372704399955,0.34395618438720704]},{"name":"tvmonitor","coordinates":[0.8947429445054796,0.5244724074999492,0.10667059156629774,0.12864320278167723]},{"name":"pottedplant","coordinates":[0.18493270874023438,0.5749219536781311,0.08510318332248264,0.1068553368250529]},{"name":"vase","coordinates":[0.20454114145702784,0.6440482119719187,0.04088257948557536,0.03777561585108439]}]}
