{"src":"https://a0.muscache.com/im/pictures/4111657d-8eea-4ac6-b6b9-39488493eefc.jpg?aki_policy=xx_large","name":"Fresh and Simple House","listingId":23503294,"photoId":"1752-3","tags":[{"name":"diningtable","coordinates":[-0.03513223153573497,0.47390176455179855,1.0466775399667245,0.34845234553019205]},{"name":"chair","coordinates":[0.17704874674479168,0.8052458842595418,0.44855081063729746,0.19214851061503094]},{"name":"chair","coordinates":[0.7553144101743344,0.7185427029927571,0.25023928041811344,0.26866334279378257]},{"name":"oven","coordinates":[0.2850809026647497,0.38486866156260174,0.3482460587112992,0.1330559253692627]},{"name":"microwave","coordinates":[0.32339372988100407,0.26757616599400835,0.2505202116789641,0.0867407242457072]},{"name":"sink","coordinates":[0.43548843948929394,0.5157133181889851,0.2940346046730324,0.03999708493550618]},{"name":"knife","coordinates":[0.7893186639856409,0.3643066197633743,0.01933664392541956,0.022350416580835978]}]}
