{"src":"https://a0.muscache.com/im/pictures/27f6b0c2-53ad-4d46-a440-ecef0d10e19c.jpg?aki_policy=xx_large","name":"Room to rent in a townhouse in Lachine","listingId":23522055,"photoId":"1757-11","tags":[{"name":"book","coordinates":[0.03719897270202635,0.23832921981811517,0.41834201812744143,0.5697553634643555]},{"name":"chair","coordinates":[0.7188661813735961,0.5860449314117432,0.2762275218963623,0.4095808982849121]},{"name":"sofa","coordinates":[0.7188661813735961,0.5860449314117432,0.2762275218963623,0.4095808982849121]},{"name":"sofa","coordinates":[0.0026982903480529674,0.7646243969599406,0.2887822389602661,0.2283348242441813]},{"name":"diningtable","coordinates":[0.4115073084831237,0.7158647219340006,0.20200016498565673,0.2543429692586263]},{"name":"book","coordinates":[0.3696443039923907,0.3842821657657623,0.00944710597395897,0.04572018384933472]},{"name":"book","coordinates":[0.35193392299115656,0.38753573298454286,0.009509820491075516,0.04428023894627889]}]}
