{"src":"https://a0.muscache.com/im/pictures/d4b504e4-4283-4215-8d32-8a37a8818be9.jpg?aki_policy=xx_large","name":"Room to rent in a townhouse in Lachine","listingId":23522055,"photoId":"1757-3","tags":[{"name":"sofa","coordinates":[0.8365791320800782,0.7829012552897135,0.3546626567840576,0.4044996579488119]},{"name":"sofa","coordinates":[0.5501448631286621,0.6801629384358724,0.3016133069992065,0.36813646952311196]},{"name":"chair","coordinates":[0.5501448631286621,0.6801629384358724,0.3016133069992065,0.36813646952311196]},{"name":"diningtable","coordinates":[0.20154998302459717,0.5723815282185872,0.2726792812347412,0.21176904042561848]},{"name":"diningtable","coordinates":[0.20458700656890869,0.5322875340779623,0.1671694278717041,0.13551657994588215]},{"name":"chair","coordinates":[0.25473766326904296,0.558737309773763,0.08147709965705871,0.15763142903645833]},{"name":"chair","coordinates":[0.13610496520996093,0.5406286239624023,0.07447021603584289,0.16818402608235677]},{"name":"chair","coordinates":[0.10002025365829467,0.5400950749715169,0.058717894554138186,0.17702603340148926]},{"name":"pottedplant","coordinates":[0.44700007438659667,0.39443292617797854,0.04821404218673706,0.09787590503692627]},{"name":"chair","coordinates":[0.2775221824645996,0.4581789016723633,0.02923663854598999,0.03851840098698934]}]}
