{"src":"https://a0.muscache.com/im/pictures/d4b504e4-4283-4215-8d32-8a37a8818be9.jpg?aki_policy=xx_large","name":"Room to rent in a townhouse in Lachine","listingId":23522055,"photoId":"1757-3","tags":[{"name":"sofa","coordinates":[0.6592478036880494,0.5806514263153076,0.3546626567840576,0.4044996579488119]},{"name":"sofa","coordinates":[0.3993382096290588,0.4960947036743164,0.3016133069992065,0.36813646952311196]},{"name":"chair","coordinates":[0.3993382096290588,0.4960947036743164,0.3016133069992065,0.36813646952311196]},{"name":"diningtable","coordinates":[0.06521034240722656,0.466497008005778,0.2726792812347412,0.21176904042561848]},{"name":"diningtable","coordinates":[0.12100229263305663,0.46452924410502117,0.1671694278717041,0.13551657994588215]},{"name":"chair","coordinates":[0.2139991134405136,0.47992159525553385,0.08147709965705871,0.15763142903645833]},{"name":"chair","coordinates":[0.09886985719203949,0.4565366109212239,0.07447021603584289,0.16818402608235677]},{"name":"chair","coordinates":[0.07066130638122559,0.45158205827077225,0.058717894554138186,0.17702603340148926]},{"name":"pottedplant","coordinates":[0.4228930532932281,0.3454949736595154,0.04821404218673706,0.09787590503692627]},{"name":"chair","coordinates":[0.2629038631916046,0.43891970117886864,0.02923663854598999,0.03851840098698934]}]}
