{"src":"https://a0.muscache.com/im/pictures/f317f186-e17d-4ec2-ada5-d3a9e97c2982.jpg?aki_policy=xx_large","name":"Уютная 2 комнатная квартира в 15 минутах от центра","listingId":13499564,"photoId":"176-6","tags":[{"name":"oven","coordinates":[1.6301932440863716,0.7779478708902995,0.2848896238538954,0.42919610341389974]},{"name":"chair","coordinates":[0.6228223164876302,0.8920770009358724,0.3796572791205512,0.2280101776123047]},{"name":"microwave","coordinates":[1.3382475958930122,0.5672833124796549,0.27727474636501737,0.12726651032765707]},{"name":"sink","coordinates":[0.9186503092447916,0.5826539993286133,0.4080652025010851,0.06838982105255127]},{"name":"bottle","coordinates":[0.7115687052408854,0.5387978871663411,0.03080579704708523,0.05228811502456665]},{"name":"bottle","coordinates":[0.8168789333767361,0.5293724060058593,0.024996595912509495,0.05948063532511393]},{"name":"bottle","coordinates":[0.7226040310329861,0.5344353357950846,0.026996636390686037,0.053690067927042645]}]}
