{"src":"https://a0.muscache.com/im/pictures/74951524-fc49-4062-818c-787f7dc5873b.jpg?aki_policy=xx_large","name":"< 一夕小宅&gt; 贵阳花溪区 贵州民族大学 森系日式公寓 厨房设施齐全 有观景阳台","listingId":23551486,"photoId":"1762-9","tags":[{"name":"oven","coordinates":[0.5454423501457967,0.684328842163086,0.4131018410266285,0.2565111796061198]},{"name":"sink","coordinates":[0.05711059570312499,0.7629562497138977,0.31194853446852994,0.12210830847422281]},{"name":"tvmonitor","coordinates":[0.36949753022529713,0.04507087071736654,0.09454805615922095,0.25736522674560547]},{"name":"bowl","coordinates":[0.839936151638837,0.639387559890747,0.15373055901325924,0.14449326197306314]},{"name":"knife","coordinates":[0.559715829768651,0.5228498538335165,0.017470281896456868,0.07737946510314941]},{"name":"knife","coordinates":[0.5845947722314109,0.5359568099180858,0.014117512232820753,0.06395610570907592]}]}
