{"src":"https://a0.muscache.com/im/pictures/435797c7-8677-4724-abae-1d111e9173c0.jpg?aki_policy=xx_large","name":"< 一夕小宅&gt; 贵阳花溪区 贵州民族大学 森系日式公寓 厨房设施齐全 有观景阳台","listingId":23551486,"photoId":"1762-6","tags":[{"name":"chair","coordinates":[0.8323120708804523,0.6216684977213541,0.15122108274592336,0.14474991162618]},{"name":"sofa","coordinates":[0.9418421731434269,0.6293140411376953,0.10742565888387899,0.133503786722819]},{"name":"pottedplant","coordinates":[0.7818395956652615,0.5148160934448243,0.10130213920827444,0.065463125705719]},{"name":"bowl","coordinates":[0.35696263228556646,0.5167269706726074,0.11052930643947521,0.03263489802678426]},{"name":"bottle","coordinates":[0.23667818972290236,0.49859469731648765,0.04851430914513707,0.0721033255259196]},{"name":"bowl","coordinates":[0.22366397099656704,0.8910709381103515,0.07146506240179157,0.028065556287765504]},{"name":"bowl","coordinates":[0.2853496101638227,0.8819004694620768,0.06532614219554599,0.02574897011121114]}]}
