{"src":"https://a0.muscache.com/im/pictures/435797c7-8677-4724-abae-1d111e9173c0.jpg?aki_policy=xx_large","name":"< 一夕小宅&gt; 贵阳花溪区 贵州民族大学 森系日式公寓 厨房设施齐全 有观景阳台","listingId":23551486,"photoId":"1762-6","tags":[{"name":"chair","coordinates":[0.40250091552734374,0.6216684977213541,0.07312957048416138,0.14474991162618]},{"name":"sofa","coordinates":[0.4554689884185791,0.6293140411376953,0.05195037722587585,0.133503786722819]},{"name":"pottedplant","coordinates":[0.37809274196624754,0.5148160934448243,0.048989081382751466,0.065463125705719]},{"name":"bowl","coordinates":[0.17262489795684816,0.5167269706726074,0.05345128178596496,0.03263489802678426]},{"name":"bottle","coordinates":[0.11445609331130982,0.49859469731648765,0.02346121668815613,0.0721033255259196]},{"name":"bowl","coordinates":[0.1081624984741211,0.8910709381103515,0.0345600575208664,0.028065556287765504]},{"name":"bowl","coordinates":[0.13799328804016114,0.8819004694620768,0.03159131407737732,0.02574897011121114]}]}
