{"src":"https://a0.muscache.com/im/pictures/74951524-fc49-4062-818c-787f7dc5873b.jpg?aki_policy=xx_large","name":"< 一夕小宅&gt; 贵阳花溪区 贵州民族大学 森系日式公寓 厨房设施齐全 有观景阳台","listingId":23551486,"photoId":"1762-7","tags":[{"name":"oven","coordinates":[0.7519932706591109,0.8125844319661458,0.4131018410266285,0.2565111796061198]},{"name":"sink","coordinates":[0.21308486293738996,0.8240104039510091,0.31194853446852994,0.12210830847422281]},{"name":"tvmonitor","coordinates":[0.4167715583049076,0.17375348409016927,0.09454805615922095,0.25736522674560547]},{"name":"bowl","coordinates":[0.9168014311454665,0.7116341908772786,0.15373055901325924,0.14449326197306314]},{"name":"knife","coordinates":[0.5684509707168794,0.5615395863850912,0.017470281896456868,0.07737946510314941]},{"name":"knife","coordinates":[0.5916535283478213,0.5679348627726237,0.014117512232820753,0.06395610570907592]}]}
