{"src":"https://a0.muscache.com/im/pictures/74951524-fc49-4062-818c-787f7dc5873b.jpg?aki_policy=xx_large","name":"< 一夕小宅&gt; 贵阳花溪区 贵州民族大学 森系日式公寓 厨房设施齐全 有观景阳台","listingId":23551486,"photoId":"1762-7","tags":[{"name":"oven","coordinates":[1.6763429267440149,0.8125844319661458,0.9208863646119505,0.2565111796061198]},{"name":"sink","coordinates":[0.47500864265477827,0.8240104039510091,0.695395477151197,0.12210830847422281]},{"name":"tvmonitor","coordinates":[0.9290668960643151,0.17375348409016927,0.21076646741929944,0.25736522674560547]},{"name":"bowl","coordinates":[2.0437331746099883,0.7116341908772786,0.3426960656182545,0.14449326197306314]},{"name":"knife","coordinates":[1.267190546966984,0.5615395863850912,0.03894474143323195,0.07737946510314941]},{"name":"knife","coordinates":[1.3189136738679847,0.5679348627726237,0.03147074940440419,0.06395610570907592]}]}
