{"src":"https://a0.muscache.com/im/pictures/ab65f5c6-d369-41ce-941b-838cf86f61c1.jpg?aki_policy=xx_large","name":"三毛大厦旁-北欧风情住吧-素雅温馨双室","listingId":23558150,"photoId":"1763-3","tags":[{"name":"tvmonitor","coordinates":[0.816892417271932,0.3689644654591878,0.15217741860283746,0.2456658363342285]},{"name":"sink","coordinates":[0.4747384601169162,0.8110122760136922,0.19764942593044704,0.1670406182607015]},{"name":"pottedplant","coordinates":[0.4943444781833225,0.029654630025227863,0.14966121249728734,0.18460715611775716]},{"name":"pottedplant","coordinates":[0.17088327407836912,0.12448329130808511,0.15942393408881295,0.15718051592508953]},{"name":"pottedplant","coordinates":[0.3860063446892632,0.08604832490285237,0.11905057695176867,0.16395796140034993]},{"name":"bowl","coordinates":[0.14724886152479383,0.7093507011731466,0.1439721425374349,0.11562820275624593]},{"name":"bowl","coordinates":[0.028267457750108506,0.7126601815223694,0.10556119283040365,0.08240249156951904]},{"name":"vase","coordinates":[0.5488698217603896,0.1301551103591919,0.06357483334011502,0.08809882799784342]},{"name":"vase","coordinates":[0.20841159025828043,0.20934446255366007,0.060513279173109266,0.0703877846399943]}]}
