{"src":"https://a0.muscache.com/im/pictures/fb80f4cd-ddc5-4495-8f9a-16c1c5cf7dda.jpg?aki_policy=xx_large","name":"三毛大厦旁-北欧风情住吧-素雅温馨双室","listingId":23558150,"photoId":"1763-12","tags":[{"name":"sink","coordinates":[0.21734379662407768,0.8095537821451823,0.41281810336642794,0.3500279744466146]},{"name":"toilet","coordinates":[0.4797381930881076,0.8042027791341145,0.226251220703125,0.38685954411824547]},{"name":"bottle","coordinates":[0.26275083753797746,0.6392578125,0.03752212524414063,0.11121536095937093]},{"name":"bottle","coordinates":[0.6064869350857205,0.3376316070556641,0.02669519583384196,0.09675505956013998]},{"name":"bottle","coordinates":[0.6311397552490234,0.33669376373291016,0.019749809636010064,0.094230318069458]},{"name":"toothbrush","coordinates":[0.10510293112860786,0.6693844477335612,0.02795634534623888,0.04588447014490763]}]}
