{"src":"https://a0.muscache.com/im/pictures/fb80f4cd-ddc5-4495-8f9a-16c1c5cf7dda.jpg?aki_policy=xx_large","name":"三毛大厦旁-北欧风情住吧-素雅温馨双室","listingId":23558150,"photoId":"1763-12","tags":[{"name":"sink","coordinates":[0.010934744940863717,0.634539794921875,0.41281810336642794,0.3500279744466146]},{"name":"toilet","coordinates":[0.3666125827365451,0.6107730070749918,0.226251220703125,0.38685954411824547]},{"name":"bottle","coordinates":[0.24398977491590715,0.5836501320203146,0.03752212524414063,0.11121536095937093]},{"name":"bottle","coordinates":[0.5931393371687995,0.2892540772755941,0.02669519583384196,0.09675505956013998]},{"name":"bottle","coordinates":[0.6212648504310184,0.28957860469818114,0.019749809636010064,0.094230318069458]},{"name":"toothbrush","coordinates":[0.09112475845548842,0.6464422126611074,0.02795634534623888,0.04588447014490763]}]}
