{"src":"https://a0.muscache.com/im/pictures/e8311878-ebc8-4080-9891-bffe3ecb9dce.jpg?aki_policy=xx_large","name":"4 Minutes to city center","listingId":23558551,"photoId":"1764-0","tags":[{"name":"chair","coordinates":[0.3853659391403198,0.900385030110677,0.16123690605163574,0.18880648612976075]},{"name":"chair","coordinates":[0.2321535587310791,0.7014430363972982,0.08274346590042114,0.2481483777364095]},{"name":"diningtable","coordinates":[0.374457573890686,0.6729827245076497,0.15156399011611937,0.12517120043436686]},{"name":"sink","coordinates":[0.10152651071548462,0.5640286763509115,0.06877037286758422,0.053860731919606525]},{"name":"cup","coordinates":[0.40425705909729004,0.5999307632446289,0.022244863212108612,0.04007935126622518]}]}
