{"src":"https://a0.muscache.com/im/pictures/686615ae-1ffa-451d-ab25-c2d074388d30.jpg?aki_policy=xx_large","name":"4 Minutes to city center","listingId":23558551,"photoId":"1764-4","tags":[{"name":"sink","coordinates":[0.73369386461046,0.7440399169921875,0.42399961683485243,0.24513988494873046]},{"name":"toilet","coordinates":[0.3832951439751519,0.840130360921224,0.304181162516276,0.2941316604614258]},{"name":"toilet","coordinates":[0.05051146083407932,0.8712119420369466,0.09938684039645725,0.20281174977620442]},{"name":"bottle","coordinates":[0.8757994757758246,0.682025655110677,0.05562111536661784,0.09562794367472331]},{"name":"toothbrush","coordinates":[0.9549552917480468,0.4648611068725586,0.01740497350692749,0.048233973979949954]},{"name":"toothbrush","coordinates":[0.9496410793728298,0.4577473004659017,0.018216837777031793,0.042970295747121176]},{"name":"toothbrush","coordinates":[0.9731107076009115,0.4659168243408203,0.01640720499886407,0.04307117859522502]}]}
