{"src":"https://a0.muscache.com/im/pictures/e8311878-ebc8-4080-9891-bffe3ecb9dce.jpg?aki_policy=xx_large","name":"4 Minutes to city center","listingId":23558551,"photoId":"1764-0","tags":[{"name":"chair","coordinates":[0.6850950029161241,0.900385030110677,0.28664338853624133,0.18880648612976075]},{"name":"chair","coordinates":[0.4127174377441406,0.7014430363972982,0.14709949493408203,0.2481483777364095]},{"name":"diningtable","coordinates":[0.6657023535834419,0.6729827245076497,0.2694470935397678,0.12517120043436686]},{"name":"sink","coordinates":[0.180491574605306,0.5640286763509115,0.12225844065348307,0.053860731919606525]},{"name":"cup","coordinates":[0.71867921617296,0.5999307632446289,0.03954642348819309,0.04007935126622518]}]}
