{"src":"https://a0.muscache.com/im/pictures/686615ae-1ffa-451d-ab25-c2d074388d30.jpg?aki_policy=xx_large","name":"4 Minutes to city center","listingId":23558551,"photoId":"1764-4","tags":[{"name":"sink","coordinates":[0.5216940561930339,0.6214699745178223,0.42399961683485243,0.24513988494873046]},{"name":"toilet","coordinates":[0.2312045627170139,0.693064530690511,0.304181162516276,0.2941316604614258]},{"name":"toilet","coordinates":[0.0008180406358506975,0.7698060671488445,0.09938684039645725,0.20281174977620442]},{"name":"bottle","coordinates":[0.8479889180925158,0.6342116832733153,0.05562111536661784,0.09562794367472331]},{"name":"toothbrush","coordinates":[0.9462528049945831,0.4407441198825836,0.01740497350692749,0.048233973979949954]},{"name":"toothbrush","coordinates":[0.9405326604843139,0.4362621525923411,0.018216837777031793,0.042970295747121176]},{"name":"toothbrush","coordinates":[0.9649071051014794,0.4443812350432078,0.01640720499886407,0.04307117859522502]}]}
