{"src":"https://a0.muscache.com/im/pictures/261d6e8b-4819-4a4d-9a1a-604d18d9713b.jpg?aki_policy=xx_large","name":"Sunny Double bed room, very convenience location.","listingId":23571878,"photoId":"1770-7","tags":[{"name":"chair","coordinates":[1.028024673461914,0.4826819101969401,0.19957903623580933,0.39618396759033203]},{"name":"sofa","coordinates":[1.0041810989379882,0.8290881474812826,0.2412799119949341,0.3110420862833659]},{"name":"chair","coordinates":[0.5232961177825928,0.521176274617513,0.1839655637741089,0.167542028427124]},{"name":"chair","coordinates":[0.05444537997245789,0.5261961936950683,0.1087885856628418,0.27104597091674804]},{"name":"pottedplant","coordinates":[0.9269900321960449,0.47016544342041017,0.09695372581481934,0.2423195997873942]},{"name":"tvmonitor","coordinates":[0.755433177947998,0.4659109115600586,0.13715578317642213,0.16005325317382812]}]}
