{"src":"https://a0.muscache.com/im/pictures/22510833-7247-46b7-85aa-8ab56fa077a6.jpg?aki_policy=xx_large","name":"珠江南路华晨御园翼舍简约小筑","listingId":23582498,"photoId":"1774-1","tags":[{"name":"tvmonitor","coordinates":[0.5453007698059082,0.6903221607208252,0.37501325607299807,0.30683279037475586]},{"name":"pottedplant","coordinates":[0.3236067533493042,0.5173144539197286,0.11106724739074707,0.11376090844472249]},{"name":"book","coordinates":[0.1645044654607773,0.36431310176849363,0.03670294880867005,0.09878500302632649]},{"name":"book","coordinates":[0.07735129743814469,0.34598573843638103,0.0195896714925766,0.11262084643046061]},{"name":"book","coordinates":[0.09649282097816467,0.35011773506800337,0.019474542140960692,0.10924545129140219]},{"name":"book","coordinates":[0.11232476830482482,0.3550912380218506,0.01978985071182251,0.1070616086324056]},{"name":"book","coordinates":[0.1368086189031601,0.3592188795407613,0.02008865475654602,0.10113131999969482]},{"name":"book","coordinates":[0.15531281232833863,0.5261459867159526,0.017717790603637696,0.10712676843007406]},{"name":"vase","coordinates":[0.35890454351902007,0.583634599049886,0.039543503522872926,0.047751426696777344]}]}
