{"src":"https://a0.muscache.com/im/pictures/22510833-7247-46b7-85aa-8ab56fa077a6.jpg?aki_policy=xx_large","name":"珠江南路华晨御园翼舍简约小筑","listingId":23582498,"photoId":"1774-1","tags":[{"name":"tvmonitor","coordinates":[0.7328073978424072,0.8437385559082031,0.37501325607299807,0.30683279037475586]},{"name":"pottedplant","coordinates":[0.37914037704467773,0.5741949081420898,0.11106724739074707,0.11376090844472249]},{"name":"book","coordinates":[0.1828559398651123,0.4137056032816569,0.03670294880867005,0.09878500302632649]},{"name":"book","coordinates":[0.08714613318443298,0.4022961616516113,0.0195896714925766,0.11262084643046061]},{"name":"book","coordinates":[0.10623009204864502,0.40474046071370445,0.019474542140960692,0.10924545129140219]},{"name":"book","coordinates":[0.12221969366073608,0.4086220423380534,0.01978985071182251,0.1070616086324056]},{"name":"book","coordinates":[0.1468529462814331,0.4097845395406087,0.02008865475654602,0.10113131999969482]},{"name":"book","coordinates":[0.16417170763015748,0.5797093709309896,0.017717790603637696,0.10712676843007406]},{"name":"vase","coordinates":[0.37867629528045654,0.6075103123982747,0.039543503522872926,0.047751426696777344]}]}
