{"src":"https://a0.muscache.com/im/pictures/f80dae2f-cbfd-4538-b6d0-eef8e35dc838.jpg?aki_policy=xx_large","name":"APPARTAMENTO RAFFA","listingId":23587013,"photoId":"1778-12","tags":[{"name":"diningtable","coordinates":[0.3401978969573975,0.5956215540568034,0.3047491073608398,0.3857610066731771]},{"name":"chair","coordinates":[0.4969576299190521,0.5682570457458497,0.18836318254470824,0.41027558644612633]},{"name":"chair","coordinates":[0.3759501397609711,0.546967887878418,0.1394675374031067,0.38068974812825523]},{"name":"tvmonitor","coordinates":[0.2876126885414123,0.5010247548421224,0.12778003215789796,0.14076271057128906]},{"name":"clock","coordinates":[0.7824082612991333,0.14450187285741173,0.08392691612243652,0.10806777477264404]}]}
