{"src":"https://a0.muscache.com/im/pictures/84b157d5-44ea-4318-ac3b-8951735adbb8.jpg?aki_policy=xx_large","name":"2 flr luxe appartment, top location","listingId":13260549,"photoId":"178-4","tags":[{"name":"diningtable","coordinates":[0.6595255109998915,0.7628830591837565,0.7600752936469184,0.39364118576049806]},{"name":"chair","coordinates":[0.6538129594590929,0.8242359797159831,0.3788831075032552,0.33904342651367186]},{"name":"chair","coordinates":[0.5454531775580512,0.8528521855672201,0.1746537102593316,0.2901244799296061]},{"name":"chair","coordinates":[0.39634085761176213,0.8075303395589193,0.13917899661593966,0.3404005686442057]},{"name":"chair","coordinates":[0.9392427232530381,0.8148118336995442,0.1099092165629069,0.40082451502482097]},{"name":"chair","coordinates":[0.33085604773627386,0.7401414235432943,0.06962154176500109,0.2716323216756185]},{"name":"chair","coordinates":[0.7467206319173177,0.6363245646158854,0.12945502599080402,0.05677710771560669]},{"name":"bowl","coordinates":[0.46593619452582463,0.6238645553588867,0.06571953031751844,0.051391748587290446]},{"name":"cup","coordinates":[0.5825720893012153,0.6345205942789713,0.028574016359117296,0.05357729991277059]},{"name":"bottle","coordinates":[0.2480367660522461,0.5693674723307292,0.01097826361656189,0.04917060136795044]}]}
