{"src":"https://a0.muscache.com/im/pictures/eadf2383-f788-4bb8-b6c0-bae2614177c4.jpg?aki_policy=xx_large","name":"Quarto com cozinha e banheiro exclusivos","listingId":23594552,"photoId":"1781-2","tags":[{"name":"oven","coordinates":[0.031389665603637706,0.3467381477355957,0.3425694465637207,0.5276177088419597]},{"name":"refrigerator","coordinates":[0.6034655690193177,0.34383236567179365,0.22417905330657958,0.6501437505086263]},{"name":"refrigerator","coordinates":[0.2511685132980347,0.1507290045420329,0.20107479095458985,0.475113582611084]},{"name":"chair","coordinates":[0.5194961547851562,0.3765736897786458,0.13303956985473633,0.2878075917561849]},{"name":"cup","coordinates":[0.7478859171271325,0.2988985101381938,0.04752412140369415,0.0739258368810018]}]}
