{"src":"https://a0.muscache.com/im/pictures/23bd950c-af45-4adc-a828-f299c9d87a95.jpg?aki_policy=xx_large","name":"Denize yürüme mesafesinde","listingId":23606368,"photoId":"1786-5","tags":[{"name":"microwave","coordinates":[0.5728494048118592,0.6299593607584636,0.21251251697540283,0.16305071512858074]},{"name":"sink","coordinates":[0.0017545342445373507,0.8791022777557373,0.23552989959716797,0.11179335912068684]},{"name":"bottle","coordinates":[0.024445495009422304,0.6879491329193115,0.04399346709251404,0.1986284573872884]},{"name":"cup","coordinates":[0.21490737944841384,0.6685795386632283,0.04541793763637543,0.08901356061299642]},{"name":"bottle","coordinates":[0.3597140446305275,0.6390824516614279,0.03205959498882294,0.10817581017812093]},{"name":"cup","coordinates":[0.17635638564825057,0.712760595480601,0.04285826981067657,0.06993067264556885]}]}
