{"src":"https://a0.muscache.com/im/pictures/f5ab4e11-26f4-4ca6-ab00-fc7eebfdc834.jpg?aki_policy=xx_large","name":"Denize yürüme mesafesinde","listingId":23606368,"photoId":"1786-3","tags":[{"name":"sofa","coordinates":[0.388628101348877,0.4376169204711914,0.5630058288574219,0.5624502817789714]},{"name":"bed","coordinates":[0.388628101348877,0.4376169204711914,0.5630058288574219,0.5624502817789714]},{"name":"diningtable","coordinates":[0.011438214778900141,0.3698744773864746,0.2529213666915894,0.6180486679077148]},{"name":"chair","coordinates":[0.011438214778900141,0.3698744773864746,0.2529213666915894,0.6180486679077148]},{"name":"chair","coordinates":[0.24513257145881653,0.34122622807820646,0.13317655324935912,0.4405625025431315]},{"name":"tvmonitor","coordinates":[0.5692487597465515,0.24071469306945803,0.15425436496734618,0.13942384719848633]},{"name":"pottedplant","coordinates":[0.40794804096221926,0.3510143121083577,0.04472479820251465,0.10828625361124675]},{"name":"pottedplant","coordinates":[0.45026716142892836,0.3648235241572062,0.03769037425518036,0.10037213961283366]},{"name":"cup","coordinates":[0.21217711567878722,0.3472584029038747,0.02720245122909546,0.03778509696324666]}]}
