{"src":"https://a0.muscache.com/im/pictures/23bd950c-af45-4adc-a828-f299c9d87a95.jpg?aki_policy=xx_large","name":"Denize yürüme mesafesinde","listingId":23606368,"photoId":"1786-5","tags":[{"name":"microwave","coordinates":[0.6791056632995606,0.711484718322754,0.21251251697540283,0.16305071512858074]},{"name":"sink","coordinates":[0.11951948404312134,0.9349989573160807,0.23552989959716797,0.11179335912068684]},{"name":"bottle","coordinates":[0.046442228555679324,0.7872633616129557,0.04399346709251404,0.1986284573872884]},{"name":"cup","coordinates":[0.23761634826660155,0.7130863189697265,0.04541793763637543,0.08901356061299642]},{"name":"bottle","coordinates":[0.37574384212493894,0.6931703567504883,0.03205959498882294,0.10817581017812093]},{"name":"cup","coordinates":[0.19778552055358886,0.7477259318033854,0.04285826981067657,0.06993067264556885]}]}
