{"src":"https://a0.muscache.com/im/pictures/f5ab4e11-26f4-4ca6-ab00-fc7eebfdc834.jpg?aki_policy=xx_large","name":"Denize yürüme mesafesinde","listingId":23606368,"photoId":"1786-3","tags":[{"name":"sofa","coordinates":[0.6701310157775879,0.7188420613606771,0.5630058288574219,0.5624502817789714]},{"name":"bed","coordinates":[0.6701310157775879,0.7188420613606771,0.5630058288574219,0.5624502817789714]},{"name":"diningtable","coordinates":[0.13789889812469483,0.678898811340332,0.2529213666915894,0.6180486679077148]},{"name":"chair","coordinates":[0.13789889812469483,0.678898811340332,0.2529213666915894,0.6180486679077148]},{"name":"chair","coordinates":[0.3117208480834961,0.5615074793497722,0.13317655324935912,0.4405625025431315]},{"name":"tvmonitor","coordinates":[0.6463759422302247,0.3104266166687012,0.15425436496734618,0.13942384719848633]},{"name":"pottedplant","coordinates":[0.4303104400634766,0.4051574389139811,0.04472479820251465,0.10828625361124675]},{"name":"pottedplant","coordinates":[0.46911234855651857,0.415009593963623,0.03769037425518036,0.10037213961283366]},{"name":"cup","coordinates":[0.22577834129333496,0.366150951385498,0.02720245122909546,0.03778509696324666]}]}
