{"src":"https://a0.muscache.com/im/pictures/edc658c2-63ec-4de5-9453-df359875bb51.jpg?aki_policy=xx_large","name":"Comfortable Executive Apartment \"A\"","listingId":23636054,"photoId":"1791-0","tags":[{"name":"sofa","coordinates":[0.19391796588897706,0.7828872044881184,0.3857914209365845,0.4023921966552734]},{"name":"chair","coordinates":[0.5632652759552002,0.8490380605061849,0.22345237731933593,0.24675869941711426]},{"name":"chair","coordinates":[0.8516837120056152,0.7804102579752604,0.13927727937698364,0.3643940289815267]},{"name":"diningtable","coordinates":[0.9388216018676758,0.7897200266520182,0.12058255672454835,0.3830075899759928]},{"name":"pottedplant","coordinates":[0.10222012996673584,0.4914499600728353,0.17463767528533936,0.1879907766977946]},{"name":"chair","coordinates":[0.46941661834716797,0.6449352900187174,0.1365718126296997,0.21475194295247396]},{"name":"tvmonitor","coordinates":[0.8438716888427734,0.3718388239542643,0.11010732650756835,0.11783409118652344]},{"name":"chair","coordinates":[0.953553581237793,0.59515380859375,0.07990347743034362,0.04690180619557698]}]}
