{"src":"https://a0.muscache.com/im/pictures/edc658c2-63ec-4de5-9453-df359875bb51.jpg?aki_policy=xx_large","name":"Comfortable Executive Apartment \"A\"","listingId":23636054,"photoId":"1791-0","tags":[{"name":"sofa","coordinates":[0.00102225542068482,0.5816911061604817,0.3857914209365845,0.4023921966552734]},{"name":"chair","coordinates":[0.45153908729553216,0.7256587107976278,0.22345237731933593,0.24675869941711426]},{"name":"chair","coordinates":[0.7820450723171234,0.5982132434844971,0.13927727937698364,0.3643940289815267]},{"name":"diningtable","coordinates":[0.8785303235054016,0.5982162316640218,0.12058255672454835,0.3830075899759928]},{"name":"pottedplant","coordinates":[0.01490129232406616,0.397454571723938,0.17463767528533936,0.1879907766977946]},{"name":"chair","coordinates":[0.4011307120323181,0.5375593185424804,0.1365718126296997,0.21475194295247396]},{"name":"tvmonitor","coordinates":[0.7888180255889893,0.3129217783610026,0.11010732650756835,0.11783409118652344]},{"name":"chair","coordinates":[0.9136018425226212,0.5717029054959615,0.07990347743034362,0.04690180619557698]}]}
