{"src":"https://a0.muscache.com/im/pictures/5362510e-8c33-429f-94e7-4b4f09d8e3d5.jpg?aki_policy=xx_large","name":"Comfortable Executive Apartment \"A\"","listingId":23636054,"photoId":"1791-5","tags":[{"name":"chair","coordinates":[0.31708195209503176,0.6956884066263835,0.2808835506439209,0.2911141077677409]},{"name":"chair","coordinates":[0.09754436612129211,0.6323541800181072,0.1668053984642029,0.3671911557515462]},{"name":"sofa","coordinates":[0.753645932674408,0.7515571753184,0.23412182331085205,0.2522744178771973]},{"name":"refrigerator","coordinates":[0.4315028429031372,0.38999428749084475,0.12307553291320801,0.33442843755086266]},{"name":"chair","coordinates":[0.005147969722747801,0.5989599068959555,0.10329738855361939,0.3777280489603678]},{"name":"chair","coordinates":[0.0023093506693840048,0.590612522761027,0.04955783188343048,0.3938906669616699]},{"name":"refrigerator","coordinates":[0.8817092776298523,0.5662268877029419,0.1095581293106079,0.16026803652445476]},{"name":"microwave","coordinates":[0.03894045948982239,0.46015696128209427,0.16124309301376344,0.10078459580739339]},{"name":"clock","coordinates":[0.6067905813455582,0.2854056497414907,0.04935752749443054,0.06020454168319702]}]}
