{"src":"https://a0.muscache.com/im/pictures/5362510e-8c33-429f-94e7-4b4f09d8e3d5.jpg?aki_policy=xx_large","name":"Comfortable Executive Apartment \"A\"","listingId":23636054,"photoId":"1791-5","tags":[{"name":"chair","coordinates":[0.4575237274169922,0.841245460510254,0.2808835506439209,0.2911141077677409]},{"name":"chair","coordinates":[0.18094706535339355,0.8159497578938802,0.1668053984642029,0.3671911557515462]},{"name":"sofa","coordinates":[0.870706844329834,0.8776943842569987,0.23412182331085205,0.2522744178771973]},{"name":"refrigerator","coordinates":[0.4930406093597412,0.557208506266276,0.12307553291320801,0.33442843755086266]},{"name":"chair","coordinates":[0.056796663999557497,0.7878239313761394,0.10329738855361939,0.3777280489603678]},{"name":"chair","coordinates":[0.027088266611099244,0.787557856241862,0.04955783188343048,0.3938906669616699]},{"name":"refrigerator","coordinates":[0.9364883422851562,0.6463609059651693,0.1095581293106079,0.16026803652445476]},{"name":"microwave","coordinates":[0.11956200599670411,0.510549259185791,0.16124309301376344,0.10078459580739339]},{"name":"clock","coordinates":[0.6314693450927734,0.3155079205830892,0.04935752749443054,0.06020454168319702]}]}
