{"src":"https://a0.muscache.com/im/pictures/a8ed555b-cced-4660-94b2-ea8ce855c70b.jpg?aki_policy=xx_large","name":"Stylish Loft apartment near to the centre of Kiev","listingId":23648211,"photoId":"1794-3","tags":[{"name":"chair","coordinates":[0.8626898659600152,0.7482089440027873,0.12827813890245227,0.2432606856028239]},{"name":"microwave","coordinates":[0.4437287171681722,0.5290417313575745,0.1659167077806261,0.08048312664031983]},{"name":"sink","coordinates":[0.13935747146606445,0.5930896828571955,0.18473016950819227,0.024746944506963093]},{"name":"bowl","coordinates":[0.4123997900221083,0.3680523246526718,0.04392854902479384,0.026403234402338664]},{"name":"bowl","coordinates":[0.33414506382412384,0.36967784663041436,0.04845910602145725,0.022925978899002074]}]}
