{"src":"https://a0.muscache.com/im/pictures/a8ed555b-cced-4660-94b2-ea8ce855c70b.jpg?aki_policy=xx_large","name":"Stylish Loft apartment near to the centre of Kiev","listingId":23648211,"photoId":"1794-3","tags":[{"name":"chair","coordinates":[0.9268289354112413,0.8698392868041992,0.12827813890245227,0.2432606856028239]},{"name":"microwave","coordinates":[0.5266870710584852,0.5692832946777344,0.1659167077806261,0.08048312664031983]},{"name":"sink","coordinates":[0.23172255622016058,0.605463155110677,0.18473016950819227,0.024746944506963093]},{"name":"bowl","coordinates":[0.4343640645345052,0.38125394185384115,0.04392854902479384,0.026403234402338664]},{"name":"bowl","coordinates":[0.35837461683485244,0.3811408360799154,0.04845910602145725,0.022925978899002074]}]}
