{"src":"https://a0.muscache.com/im/pictures/88192857-d9ad-47a2-a85e-d629ea8f8381.jpg?aki_policy=xx_large","name":"Modern Geo @ I-Suite, I-City Shah Alam","listingId":23652330,"photoId":"1796-1","tags":[{"name":"refrigerator","coordinates":[1.5497911771138508,0.6938346227010092,0.23842998345692953,0.5756575902303059]},{"name":"diningtable","coordinates":[0.48138614495595294,0.7158395767211914,0.47596033414204914,0.22342638969421386]},{"name":"chair","coordinates":[0.3975696961085002,0.8951683680216471,0.38807010650634766,0.16989115079243977]},{"name":"chair","coordinates":[0.5549620787302653,0.5999628702799479,0.20215274890263876,0.07882737318674723]},{"name":"pottedplant","coordinates":[0.3696034749348958,0.6363614400227865,0.08095267415046692,0.10777060985565186]},{"name":"sink","coordinates":[1.3710306485493977,0.5427422841389974,0.17959793408711752,0.036635120709737144]},{"name":"bottle","coordinates":[1.2322139739990234,0.4377658208211263,0.0518546998500824,0.0936949888865153]},{"name":"bottle","coordinates":[1.2362640698750813,0.416287899017334,0.03534340610106786,0.05335630178451538]},{"name":"bottle","coordinates":[1.3409790992736816,0.42642990748087567,0.02623227487007777,0.04387782017389933]}]}
