{"src":"https://a0.muscache.com/im/pictures/e99a4329-3907-49e5-af01-41568fc164da.jpg?aki_policy=xx_large","name":"Appartment (35m2) on top floor","listingId":10534685,"photoId":"18-3","tags":[{"name":"sofa","coordinates":[0.8045836554633247,0.8188223520914714,0.37503556145562067,0.33323357899983724]},{"name":"diningtable","coordinates":[0.6697186787923177,0.6343355178833008,0.24965699513753256,0.28128795623779296]},{"name":"sofa","coordinates":[0.3927497439914279,0.6071587880452474,0.2935431586371528,0.23691094716389974]},{"name":"chair","coordinates":[0.7463742574055989,0.6450486501057943,0.13400968975490993,0.2877293586730957]},{"name":"pottedplant","coordinates":[0.06283748944600423,0.2583329995473226,0.11660662757025825,0.18484438260396321]},{"name":"chair","coordinates":[0.5959214528401693,0.6022111256917317,0.07920610639784072,0.26701828638712566]},{"name":"pottedplant","coordinates":[0.6286014980740018,0.48541495005289714,0.06968232790629068,0.10881483554840088]},{"name":"pottedplant","coordinates":[0.3221769120958116,0.319190247853597,0.05277206632826063,0.12803072929382325]},{"name":"vase","coordinates":[0.3218825234307183,0.35859657923380533,0.027635211414761014,0.04547303517659505]},{"name":"vase","coordinates":[0.6286719428168402,0.5138894399007161,0.020661946137746176,0.042605956395467125]}]}
