{"src":"https://a0.muscache.com/im/pictures/6bbbe517-b28c-4f21-98a7-2363dec7642b.jpg?aki_policy=xx_large","name":"Appartment (35m2) on top floor","listingId":10534685,"photoId":"18-8","tags":[{"name":"chair","coordinates":[0.2489373313056098,0.7243257522583008,0.1923666212293837,0.4715013821919759]},{"name":"sofa","coordinates":[0.08542865647210016,0.50968443552653,0.18017896016438803,0.317359987894694]},{"name":"pottedplant","coordinates":[0.2932149463229709,0.4434496561686198,0.11762910419040257,0.12464965184529622]},{"name":"chair","coordinates":[0.1887957043117947,0.451020081837972,0.05510968102349175,0.12818557421366375]},{"name":"vase","coordinates":[0.29358124203152125,0.48590339024861656,0.04226305749681261,0.05159916480382284]},{"name":"apple","coordinates":[0.23584331936306424,0.4850527127583822,0.01535145574145847,0.021739854415257772]}]}
