{"src":"https://a0.muscache.com/im/pictures/029b5549-31e1-4b33-b800-58211bdb1e85.jpg?aki_policy=xx_large","name":"Appartment (35m2) on top floor","listingId":10534685,"photoId":"18-9","tags":[{"name":"sofa","coordinates":[0.18196368747287325,0.7354976018269856,0.3071119732326931,0.3412631988525391]},{"name":"tvmonitor","coordinates":[0.03702576160430908,0.2558240572611491,0.0794551001654731,0.3436505635579427]},{"name":"chair","coordinates":[0.36488189697265627,0.6104992548624675,0.08393339580959744,0.22439988454182944]},{"name":"cup","coordinates":[0.4640470716688368,0.8987139383951823,0.04696345329284668,0.12888673146565754]},{"name":"cup","coordinates":[0.42014969719780815,0.9009272257486979,0.03920918570624458,0.08815013567606608]},{"name":"pottedplant","coordinates":[0.29110374450683596,0.49652010599772134,0.05165805816650391,0.04698325395584106]}]}
