{"src":"https://a0.muscache.com/im/pictures/3f7387d6-5068-441a-a4ee-f914134ac500.jpg?aki_policy=xx_large","name":"Studio apartment in private villa","listingId":13571271,"photoId":"180-5","tags":[{"name":"bed","coordinates":[-0.0024530319940476164,0.623026974995931,0.6499534883478811,0.340402348836263]},{"name":"pottedplant","coordinates":[0.7919959506839408,0.26167375246683755,0.19851506713780429,0.41098419825236004]},{"name":"tvmonitor","coordinates":[0.701989261326251,0.42063646316528325,0.10983043201611918,0.11143131256103515]},{"name":"chair","coordinates":[0.46060568911858124,0.5335712432861328,0.0868698152651919,0.13422953287760417]},{"name":"pottedplant","coordinates":[0.6152567182268415,0.49972679615020754,0.062260278676025564,0.17585349082946777]}]}
