{"src":"https://a0.muscache.com/im/pictures/0e8c4504-d514-441d-a9e8-3694efd90b05.jpg?aki_policy=xx_large","name":"Big and nice at GREAT location","listingId":13345653,"photoId":"180-23","tags":[{"name":"chair","coordinates":[0.051258516311645505,0.7175868352254232,0.1063948843214247,0.22400550842285155]},{"name":"diningtable","coordinates":[0.267496575249566,0.4871641476949056,0.08647936715020074,0.09128573735555014]},{"name":"chair","coordinates":[0.3095281177096897,0.4920240084330241,0.028462070888943144,0.10852166016896565]},{"name":"chair","coordinates":[0.24065462748209634,0.49045546849568683,0.025869358910454644,0.0998477300008138]},{"name":"clock","coordinates":[0.36887393527560763,0.26585456530253093,0.021843332714504667,0.03287638028462728]},{"name":"chair","coordinates":[0.27038979000515406,0.4384274164835612,0.022814056608412,0.028117748101552327]},{"name":"book","coordinates":[0.4113970862494575,0.4302179018656413,0.008104983965555828,0.05709315935770671]},{"name":"book","coordinates":[0.4127518971761068,0.5086237907409668,0.005037584238582187,0.05117972294489543]},{"name":"book","coordinates":[0.42091848585340713,0.5118792215983073,0.005003783769077725,0.04870725075403849]}]}
