{"src":"https://a0.muscache.com/im/pictures/c3a18e6f-bff8-4317-bd9f-b1bb52d2297f.jpg?aki_policy=xx_large","name":"Near Airport Paranaque Beach Staycation Azure","listingId":23672965,"photoId":"1801-3","tags":[{"name":"diningtable","coordinates":[0.07559523582458497,0.6396657307942709,0.4241501808166504,0.3364137013753255]},{"name":"tvmonitor","coordinates":[0.5457930445671082,0.3282470226287842,0.25059340000152586,0.2584123929341634]},{"name":"chair","coordinates":[0.21898461580276488,0.7749817371368408,0.23283426761627196,0.21575562159220377]},{"name":"chair","coordinates":[0.383719003200531,0.6092429161071777,0.12786056995391845,0.37043221791585285]},{"name":"sink","coordinates":[0.7819291174411773,0.4750775297482808,0.10298556089401245,0.040946396191914876]},{"name":"remote","coordinates":[0.2507835924625397,0.7300331016381583,0.08685182332992554,0.047155527273813884]}]}
