{"src":"https://a0.muscache.com/im/pictures/c36f00ae-a3b2-448b-829b-33820650c29b.jpg?aki_policy=xx_large","name":"Bottom floor spacious home Bahria Town","listingId":23704701,"photoId":"1809-0","tags":[{"name":"sofa","coordinates":[0.6347795963287354,0.4046440124511719,0.36773157119750977,0.5432949066162109]},{"name":"sofa","coordinates":[0.6339631915092467,0.3813048998514811,0.352179741859436,0.2292965571085612]},{"name":"chair","coordinates":[0.2596244215965271,0.37495875358581543,0.10092456340789795,0.20066067377726238]},{"name":"chair","coordinates":[0.42077596783638,0.36993820667266847,0.0972669005393982,0.18540937105814617]},{"name":"teddy-bear","coordinates":[0.07980681657791139,0.4181824564933777,0.06067855358123779,0.07758867740631104]},{"name":"sports-ball","coordinates":[0.08907260671257973,0.8135774950186412,0.022036008536815643,0.02868111530939738]}]}
