{"src":"https://a0.muscache.com/im/pictures/c36f00ae-a3b2-448b-829b-33820650c29b.jpg?aki_policy=xx_large","name":"Bottom floor spacious home Bahria Town","listingId":23704701,"photoId":"1809-0","tags":[{"name":"sofa","coordinates":[0.8186453819274903,0.6762914657592773,0.36773157119750977,0.5432949066162109]},{"name":"sofa","coordinates":[0.8100530624389648,0.4959531784057617,0.352179741859436,0.2292965571085612]},{"name":"chair","coordinates":[0.31008670330047605,0.4752890904744466,0.10092456340789795,0.20066067377726238]},{"name":"chair","coordinates":[0.4694094181060791,0.46264289220174154,0.0972669005393982,0.18540937105814617]},{"name":"teddy-bear","coordinates":[0.11014609336853028,0.4569767951965332,0.06067855358123779,0.07758867740631104]},{"name":"sports-ball","coordinates":[0.10009061098098755,0.8279180526733398,0.022036008536815643,0.02868111530939738]}]}
