{"src":"https://a0.muscache.com/im/pictures/91361cbf-077b-4a28-91ae-a94fbfc9ba41.jpg?aki_policy=xx_large","name":"Trujillo, Urb California, Dpto de lujo, 1 dorm.","listingId":23729854,"photoId":"1817-0","tags":[{"name":"refrigerator","coordinates":[0.901698981391059,0.5043187141418457,0.18695714738633898,1.01009890238444]},{"name":"chair","coordinates":[0.37211638556586374,0.9118186314900716,0.1668482568528917,0.19173515637715657]},{"name":"chair","coordinates":[0.049787081612481014,0.8684010823567708,0.10506256951226128,0.26921284993489586]},{"name":"oven","coordinates":[0.6789925045437283,0.5740156809488932,0.20328818427191842,0.11369226773579916]},{"name":"sink","coordinates":[0.4309532165527344,0.4518039385477702,0.12979348500569662,0.0491818110148112]},{"name":"cup","coordinates":[0.18669607374403213,0.5456133524576823,0.025957242647806803,0.06608235836029053]},{"name":"cup","coordinates":[0.12264923519558377,0.5491584142049154,0.029848535855611164,0.03752381404240926]},{"name":"bottle","coordinates":[0.41845088534884983,0.3995073318481445,0.014635319179958767,0.06489582459131876]}]}
