{"src":"https://a0.muscache.com/im/pictures/91361cbf-077b-4a28-91ae-a94fbfc9ba41.jpg?aki_policy=xx_large","name":"Trujillo, Urb California, Dpto de lujo, 1 dorm.","listingId":23729854,"photoId":"1817-0","tags":[{"name":"refrigerator","coordinates":[0.8082204076978895,-0.0007307370503742971,0.18695714738633898,1.01009890238444]},{"name":"chair","coordinates":[0.2886922571394179,0.8159510533014933,0.1668482568528917,0.19173515637715657]},{"name":"chair","coordinates":[-0.0027442031436496275,0.7337946573893229,0.10506256951226128,0.26921284993489586]},{"name":"oven","coordinates":[0.577348412407769,0.5171695470809936,0.20328818427191842,0.11369226773579916]},{"name":"sink","coordinates":[0.36605647404988606,0.42721303304036456,0.12979348500569662,0.0491818110148112]},{"name":"cup","coordinates":[0.17371745242012873,0.512572173277537,0.025957242647806803,0.06608235836029053]},{"name":"cup","coordinates":[0.10772496726777818,0.5303965071837108,0.029848535855611164,0.03752381404240926]},{"name":"bottle","coordinates":[0.41113322575887046,0.3670594195524851,0.014635319179958767,0.06489582459131876]}]}
