{"src":"https://a0.muscache.com/im/pictures/d7f9d6d1-c573-477f-b564-1cd7193acd4d.jpg?aki_policy=xx_large","name":"Cozy private house near Sillim station(line no.2)2","listingId":23735580,"photoId":"1820-2","tags":[{"name":"refrigerator","coordinates":[0.009838768305893641,0.016553942362467378,0.26786994207011394,0.989220937093099]},{"name":"sink","coordinates":[0.279881662758969,0.5790231307347615,0.26241505100584694,0.06122914950052897]},{"name":"bowl","coordinates":[0.5240998371129115,0.5865800241629282,0.11291367216970596,0.04656282663345337]},{"name":"knife","coordinates":[0.6207985847696114,0.4797950367132823,0.022223919743655444,0.030738397439320882]},{"name":"knife","coordinates":[0.667717617984951,0.4896096736192703,0.01802687663135262,0.027341105540593467]}]}
