{"src":"https://a0.muscache.com/im/pictures/d7f9d6d1-c573-477f-b564-1cd7193acd4d.jpg?aki_policy=xx_large","name":"Cozy private house near Sillim station(line no.2)2","listingId":23735580,"photoId":"1820-2","tags":[{"name":"refrigerator","coordinates":[0.1437737393409506,0.5111644109090169,0.26786994207011394,0.989220937093099]},{"name":"sink","coordinates":[0.41108918826189245,0.609637705485026,0.26241505100584694,0.06122914950052897]},{"name":"bowl","coordinates":[0.5805566731977645,0.6098614374796549,0.11291367216970596,0.04656282663345337]},{"name":"knife","coordinates":[0.631910544641439,0.4951642354329427,0.022223919743655444,0.030738397439320882]},{"name":"knife","coordinates":[0.6767310563006274,0.503280226389567,0.01802687663135262,0.027341105540593467]}]}
