{"src":"https://a0.muscache.com/im/pictures/0c778f76-04bb-4792-8e8d-65bcfa2afb05.jpg?aki_policy=xx_large","name":"Fantastic apartment","listingId":23748871,"photoId":"1823-0","tags":[{"name":"chair","coordinates":[0.05531286663479275,0.4328378995259603,0.23091761271158853,0.5061950047810873]},{"name":"pottedplant","coordinates":[0.8194318400488959,0.5174032211303711,0.16200827492607964,0.38096402486165365]},{"name":"chair","coordinates":[0.3265829775068495,0.4461287975311279,0.13324668672349718,0.4279414812723796]},{"name":"tvmonitor","coordinates":[0.4678282631768121,0.4240225553512573,0.18020176357693143,0.19922197659810384]},{"name":"book","coordinates":[0.7311659918891059,0.34608883261680606,0.019340345594618055,0.06637520392735799]},{"name":"vase","coordinates":[0.6507007201512655,0.5643335123856862,0.02133610513475206,0.058661441008249916]},{"name":"book","coordinates":[0.7113562769360012,0.5395675321420034,0.021130016114976672,0.05716508626937866]},{"name":"book","coordinates":[0.7276527974340651,0.5382188717524211,0.01851930883195665,0.05768396059672038]},{"name":"book","coordinates":[0.6959352751572926,0.5439954400062561,0.017579472064971922,0.05389742056528727]}]}
