{"src":"https://a0.muscache.com/im/pictures/0c778f76-04bb-4792-8e8d-65bcfa2afb05.jpg?aki_policy=xx_large","name":"Fantastic apartment","listingId":23748871,"photoId":"1823-0","tags":[{"name":"chair","coordinates":[0.17077167299058701,0.6859354019165039,0.23091761271158853,0.5061950047810873]},{"name":"pottedplant","coordinates":[0.9004359775119357,0.7078852335611979,0.16200827492607964,0.38096402486165365]},{"name":"chair","coordinates":[0.3932063208685981,0.6600995381673177,0.13324668672349718,0.4279414812723796]},{"name":"tvmonitor","coordinates":[0.5579291449652778,0.5236335436503092,0.18020176357693143,0.19922197659810384]},{"name":"book","coordinates":[0.7408361646864149,0.37927643458048504,0.019340345594618055,0.06637520392735799]},{"name":"vase","coordinates":[0.6613687727186415,0.5936642328898112,0.02133610513475206,0.058661441008249916]},{"name":"book","coordinates":[0.7219212849934896,0.5681500752766927,0.021130016114976672,0.05716508626937866]},{"name":"book","coordinates":[0.7369124518500434,0.5670608520507813,0.01851930883195665,0.05768396059672038]},{"name":"book","coordinates":[0.7047250111897786,0.5709441502888998,0.017579472064971922,0.05389742056528727]}]}
