{"src":"https://a0.muscache.com/im/pictures/955662b2-52a4-45a3-ae68-ccc3c73e27b0.jpg?aki_policy=xx_large","name":"JJR VILLA","listingId":23757785,"photoId":"1825-3","tags":[{"name":"diningtable","coordinates":[0.3708538055419922,0.5440996170043945,0.29976463317871094,0.34431050618489584]},{"name":"refrigerator","coordinates":[0.8316016674041748,0.3330836613972982,0.14028806686401368,0.6012330373128255]},{"name":"oven","coordinates":[0.4637350678443909,0.4606890956560771,0.06888577938079835,0.071507461865743]},{"name":"microwave","coordinates":[0.4626139909029007,0.38332328796386717,0.06992601752281188,0.06503321329752604]},{"name":"sink","coordinates":[0.7555754542350769,0.5307141363620759,0.08415920734405517,0.0301440437634786]},{"name":"bowl","coordinates":[0.4753422781825066,0.5698073744773864,0.03872927725315094,0.026662564277648924]}]}
