{"src":"https://a0.muscache.com/im/pictures/30ebad15-70cb-4e2b-8035-ffc9ef438455.jpg?aki_policy=xx_large","name":"大兴西红门地铁口宜家荟聚150米，愿你有回家的感觉！","listingId":23760006,"photoId":"1826-4","tags":[{"name":"sink","coordinates":[0.2193500412835015,0.7449182907740275,0.20388995276557076,0.10176409085591634]},{"name":"person","coordinates":[0.33603622648451065,0.48784038225809734,0.08914106157090929,0.16737724939982096]},{"name":"pottedplant","coordinates":[0.563433313369751,0.37716115315755205,0.048590882619222,0.08420219421386718]},{"name":"bottle","coordinates":[0.4954850024647183,0.3786722938219706,0.029969970385233562,0.08068978786468506]},{"name":"bottle","coordinates":[0.5260135703616672,0.37320948839187623,0.022376749250623915,0.0844779094060262]}]}
