{"src":"https://a0.muscache.com/im/pictures/d0b1409c-d5e4-4466-b54d-e0fc6ffd57e6.jpg?aki_policy=xx_large","name":"Cozy House Very Close to Ataturk Airport","listingId":23785682,"photoId":"1832-1","tags":[{"name":"refrigerator","coordinates":[0.1390864054361979,0.5267978986104329,0.2709996117485894,0.8916629155476888]},{"name":"microwave","coordinates":[0.40619676378038194,0.2349928379058838,0.12386581632826063,0.17534441947937013]},{"name":"sink","coordinates":[0.5494167751736111,0.5398065567016601,0.09478715260823568,0.04208980798721314]},{"name":"bottle","coordinates":[0.471622806125217,0.4898381551106771,0.01605867412355211,0.09636027018229167]},{"name":"bottle","coordinates":[0.45658399793836807,0.48980372746785483,0.014495333035786947,0.08972614606221517]},{"name":"bottle","coordinates":[0.6074762980143229,0.42520291010538735,0.013843316502041287,0.05805662473042806]}]}
