{"src":"https://a0.muscache.com/im/pictures/d0b1409c-d5e4-4466-b54d-e0fc6ffd57e6.jpg?aki_policy=xx_large","name":"Cozy House Very Close to Ataturk Airport","listingId":23785682,"photoId":"1832-1","tags":[{"name":"refrigerator","coordinates":[0.0035865995619032143,0.0809664408365885,0.2709996117485894,0.8916629155476888]},{"name":"microwave","coordinates":[0.3442638556162516,0.14732062816619873,0.12386581632826063,0.17534441947937013]},{"name":"sink","coordinates":[0.5020231988694932,0.5187616527080535,0.09478715260823568,0.04208980798721314]},{"name":"bottle","coordinates":[0.46359346906344095,0.44165802001953125,0.01605867412355211,0.09636027018229167]},{"name":"bottle","coordinates":[0.4493363314204746,0.44494065443674724,0.014495333035786947,0.08972614606221517]},{"name":"bottle","coordinates":[0.6005546397633023,0.39617459774017333,0.013843316502041287,0.05805662473042806]}]}
