{"src":"https://a0.muscache.com/im/pictures/4310a6ef-f442-43fe-8a47-a11a24cabd47.jpg?aki_policy=xx_large","name":"Light and spacious room in two floor apt","listingId":23799148,"photoId":"1835-5","tags":[{"name":"sofa","coordinates":[1.200336710611979,0.8689936955769857,1.0772545708550347,0.23621994654337566]},{"name":"diningtable","coordinates":[0.7739964803059896,0.7344957987467448,0.4955638885498047,0.21170837084452312]},{"name":"chair","coordinates":[0.9119730631510417,0.7289921442667643,0.2502852121988932,0.2706128120422363]},{"name":"pottedplant","coordinates":[0.9243901570638021,0.5383107503255208,0.2234060287475586,0.1934485912322998]},{"name":"chair","coordinates":[0.05846901999579535,0.7977294921875,0.10608448452419705,0.3770358403523763]},{"name":"chair","coordinates":[0.64053832160102,0.7347538630167644,0.2166831758287218,0.1793221632639567]},{"name":"chair","coordinates":[0.2767403708563911,0.5902545928955079,0.09040840996636285,0.10426712036132812]},{"name":"pottedplant","coordinates":[0.7432551066080729,0.6172107060750326,0.0755610466003418,0.07830156485239664]},{"name":"chair","coordinates":[0.8734511481391058,0.6229653676350911,0.07649549378289117,0.057472825050354004]},{"name":"vase","coordinates":[0.7409466213650173,0.6222372055053711,0.044233406914605033,0.042046741644541426]},{"name":"book","coordinates":[0.8283196343315973,0.6678602218627929,0.10830684238009983,0.015700329343477884]}]}
