{"src":"https://a0.muscache.com/im/pictures/4310a6ef-f442-43fe-8a47-a11a24cabd47.jpg?aki_policy=xx_large","name":"Light and spacious room in two floor apt","listingId":23799148,"photoId":"1835-5","tags":[{"name":"sofa","coordinates":[0.6751893997192383,0.8689936955769857,0.605955696105957,0.23621994654337566]},{"name":"diningtable","coordinates":[0.43537302017211915,0.7344957987467448,0.2787546873092651,0.21170837084452312]},{"name":"chair","coordinates":[0.5129848480224609,0.7289921442667643,0.14078543186187745,0.2706128120422363]},{"name":"pottedplant","coordinates":[0.5199694633483887,0.5383107503255208,0.1256658911705017,0.1934485912322998]},{"name":"chair","coordinates":[0.03288882374763489,0.7977294921875,0.05967252254486084,0.3770358403523763]},{"name":"chair","coordinates":[0.36030280590057373,0.7347538630167644,0.121884286403656,0.1793221632639567]},{"name":"chair","coordinates":[0.15566645860671996,0.5902545928955079,0.050854730606079104,0.10426712036132812]},{"name":"pottedplant","coordinates":[0.418080997467041,0.6172107060750326,0.04250308871269226,0.07830156485239664]},{"name":"chair","coordinates":[0.4913162708282471,0.6229653676350911,0.043028715252876285,0.057472825050354004]},{"name":"vase","coordinates":[0.41678247451782224,0.6222372055053711,0.02488129138946533,0.042046741644541426]},{"name":"book","coordinates":[0.4659297943115234,0.6678602218627929,0.06092259883880615,0.015700329343477884]}]}
