{"src":"https://a0.muscache.com/im/pictures/4310a6ef-f442-43fe-8a47-a11a24cabd47.jpg?aki_policy=xx_large","name":"Light and spacious room in two floor apt","listingId":23799148,"photoId":"1835-9","tags":[{"name":"sofa","coordinates":[0.3722115516662598,0.7508837223052979,0.605955696105957,0.23621994654337566]},{"name":"diningtable","coordinates":[0.2959956765174866,0.6286416133244832,0.2787546873092651,0.21170837084452312]},{"name":"chair","coordinates":[0.4425921320915222,0.5936857382456462,0.14078543186187745,0.2706128120422363]},{"name":"pottedplant","coordinates":[0.4571365177631378,0.44158645470937086,0.1256658911705017,0.1934485912322998]},{"name":"chair","coordinates":[0.0030525624752044678,0.6092115720113118,0.05967252254486084,0.3770358403523763]},{"name":"chair","coordinates":[0.2993606626987457,0.645092781384786,0.121884286403656,0.1793221632639567]},{"name":"chair","coordinates":[0.13023909330368041,0.5381210327148438,0.050854730606079104,0.10426712036132812]},{"name":"pottedplant","coordinates":[0.3968294531106949,0.5780599236488343,0.04250308871269226,0.07830156485239664]},{"name":"chair","coordinates":[0.4698019132018089,0.5942289551099141,0.043028715252876285,0.057472825050354004]},{"name":"vase","coordinates":[0.40434182882308956,0.6012138346831004,0.02488129138946533,0.042046741644541426]},{"name":"book","coordinates":[0.43546849489212036,0.660010057191054,0.06092259883880615,0.015700329343477884]}]}
