{"src":"https://a0.muscache.com/im/pictures/96b53963-b0af-4f36-85bc-62374a48e0cb.jpg?aki_policy=xx_large","name":"Beautifully Designed Studio","listingId":23806807,"photoId":"1836-4","tags":[{"name":"chair","coordinates":[0.5681839413113065,0.8157124201456706,0.17445801628960503,0.37519677480061847]},{"name":"chair","coordinates":[0.8045857747395834,0.8407899856567382,0.20320710076226128,0.30451021194458006]},{"name":"microwave","coordinates":[0.36487503051757814,0.5229778925577799,0.1600643793741862,0.11938555240631103]},{"name":"pottedplant","coordinates":[0.9458448621961806,0.5184981664021809,0.0922642919752333,0.1957015037536621]},{"name":"bottle","coordinates":[0.028037386470370823,0.4670816739400228,0.017080659336513943,0.055046884218851726]}]}
