{"src":"https://a0.muscache.com/im/pictures/96b53963-b0af-4f36-85bc-62374a48e0cb.jpg?aki_policy=xx_large","name":"Beautifully Designed Studio","listingId":23806807,"photoId":"1836-4","tags":[{"name":"chair","coordinates":[0.5685787876916478,0.8157124201456706,0.1745792518811892,0.37519677480061847]},{"name":"chair","coordinates":[0.8051449031445448,0.8407899856567382,0.20334831486980975,0.30451021194458006]},{"name":"microwave","coordinates":[0.365128592039828,0.5229778925577799,0.16017561243837952,0.11938555240631103]},{"name":"pottedplant","coordinates":[0.9465021553596248,0.5184981664021809,0.09232840892587627,0.1957015037536621]},{"name":"bottle","coordinates":[0.02805687040815426,0.4670816739400228,0.01709252914842257,0.055046884218851726]}]}
