{"src":"https://a0.muscache.com/im/pictures/96b53963-b0af-4f36-85bc-62374a48e0cb.jpg?aki_policy=xx_large","name":"Beautifully Designed Studio","listingId":23806807,"photoId":"1836-7","tags":[{"name":"chair","coordinates":[0.48095493316650395,0.6281140327453614,0.17445801628960503,0.37519677480061847]},{"name":"chair","coordinates":[0.7029822243584527,0.6885348796844482,0.20320710076226128,0.30451021194458006]},{"name":"microwave","coordinates":[0.28484284083048506,0.46328511635462444,0.1600643793741862,0.11938555240631103]},{"name":"pottedplant","coordinates":[0.899712716208564,0.42064741452534987,0.0922642919752333,0.1957015037536621]},{"name":"bottle","coordinates":[0.019497056802113853,0.43955823183059695,0.017080659336513943,0.055046884218851726]}]}
