{"src":"https://a0.muscache.com/im/pictures/e6004a2b-95dc-47f1-843f-2108dc315cc9.jpg?aki_policy=xx_large","name":"DUSET HOTEL SUITES","listingId":23811784,"photoId":"1837-9","tags":[{"name":"diningtable","coordinates":[0.057134373982747344,0.47664017677307136,0.8990704006618924,0.5201526959737142]},{"name":"pottedplant","coordinates":[0.2753463003370497,0.13263772328694662,0.3493931028578017,0.675621223449707]},{"name":"chair","coordinates":[0.009593825870090056,0.17540771166483562,0.2285951402452257,0.4939368883768717]},{"name":"cake","coordinates":[0.14346864488389757,0.6316962242126465,0.3660769992404514,0.2528329849243164]},{"name":"chair","coordinates":[0.5275606049431695,0.10539587338765463,0.24857684241400824,0.3082548459370931]},{"name":"cup","coordinates":[0.6547485457526313,0.6008565902709961,0.2146060307820638,0.2766649881998698]},{"name":"chair","coordinates":[0.7754208087921142,0.1193705717722575,0.15907100041707356,0.229036013285319]}]}
