{"src":"https://a0.muscache.com/im/pictures/2b375d2a-6e22-45f5-baaf-de9b747dc2ba.jpg?aki_policy=xx_large","name":"躲猫猫","listingId":23817436,"photoId":"1838-1","tags":[{"name":"diningtable","coordinates":[0.5808426327175564,0.7387637456258138,0.2895478990342882,0.4024036407470703]},{"name":"chair","coordinates":[0.43266364203559027,0.7472639083862305,0.1799597210354275,0.44593880971272787]},{"name":"chair","coordinates":[0.7363327874077691,0.7174992879231771,0.16601343154907228,0.3959837277730306]},{"name":"pottedplant","coordinates":[0.2244940651787652,0.22067063649495441,0.11741305457221138,0.13786800702412924]},{"name":"tvmonitor","coordinates":[0.02561155954996745,0.3389392534891764,0.055633566114637586,0.24568888346354167]},{"name":"book","coordinates":[0.14495153427124025,0.5348048528035482,0.030424920717875163,0.10655996004740396]},{"name":"book","coordinates":[0.20216903686523438,0.5359721501668294,0.026701429155137804,0.10073345502217611]},{"name":"book","coordinates":[0.163917170630561,0.5356993357340495,0.024381910430060494,0.10169352690378824]},{"name":"bottle","coordinates":[0.5780149247911242,0.5222042083740235,0.026694790522257487,0.0905136267344157]},{"name":"book","coordinates":[0.18157189687093098,0.5359716415405273,0.024755268626742894,0.09585105578104655]},{"name":"book","coordinates":[0.12987676196628148,0.5339667638142903,0.01979343096415202,0.10949719746907552]},{"name":"cup","coordinates":[0.6427598741319445,0.5378986994425455,0.03758785989549425,0.039495086669921874]}]}
