{"src":"https://a0.muscache.com/im/pictures/822a27d2-541e-42a0-a438-7d177e27360d.jpg?aki_policy=xx_large","name":"Torre de Livorno","listingId":23821049,"photoId":"1839-12","tags":[{"name":"sofa","coordinates":[0.22626831968257194,0.533921178181966,0.22203534888269558,0.23895225524902344]},{"name":"chair","coordinates":[0.749168564571454,0.6961119492848714,0.18051162687099073,0.2845915158589681]},{"name":"chair","coordinates":[0.7278832172548779,0.5831544001897176,0.10328618849674805,0.2203270435333252]},{"name":"vase","coordinates":[0.10666071374503018,0.396418023109436,0.027286880286523298,0.1863381226857503]},{"name":"vase","coordinates":[0.025743923608694264,0.5244724750518799,0.028369041654949773,0.08411067326863607]},{"name":"person","coordinates":[0.664593888960476,0.41770642598470054,0.019232129336932857,0.10217781066894531]},{"name":"vase","coordinates":[0.17527227544478663,0.5058910846710205,0.021899759641988568,0.061169974009195965]}]}
