{"src":"https://a0.muscache.com/im/pictures/822a27d2-541e-42a0-a438-7d177e27360d.jpg?aki_policy=xx_large","name":"Torre de Livorno","listingId":23821049,"photoId":"1839-12","tags":[{"name":"sofa","coordinates":[0.33728599412391974,0.6533973058064778,0.22203534888269558,0.23895225524902344]},{"name":"chair","coordinates":[0.8394243780069494,0.8384077072143554,0.18051162687099073,0.2845915158589681]},{"name":"chair","coordinates":[0.7795263115032519,0.6933179219563802,0.10328618849674805,0.2203270435333252]},{"name":"vase","coordinates":[0.12030415388829183,0.4895870844523112,0.027286880286523298,0.1863381226857503]},{"name":"vase","coordinates":[0.03992844443616915,0.5665278116861979,0.028369041654949773,0.08411067326863607]},{"name":"person","coordinates":[0.6742099536289424,0.46879533131917317,0.019232129336932857,0.10217781066894531]},{"name":"vase","coordinates":[0.18622215526578093,0.5364760716756185,0.021899759641988568,0.061169974009195965]}]}
