{"src":"https://a0.muscache.com/im/pictures/8c82a967-0852-4d1d-b795-98529f126633.jpg?aki_policy=xx_large","name":"Fantastic Toronto West Spot One Bed room","listingId":23844041,"photoId":"1846-2","tags":[{"name":"oven","coordinates":[0.19993476867675777,0.38552045822143555,0.3456631413212529,0.2926865895589193]},{"name":"chair","coordinates":[0.589981531213831,0.5058337211608886,0.3065719039351852,0.31901276906331383]},{"name":"chair","coordinates":[0.5862700780232748,0.47602693239847815,0.16435503076623986,0.3120244026184082]},{"name":"chair","coordinates":[0.8528354786060475,0.5640880266825358,0.12936164008246528,0.3798102696736654]},{"name":"sink","coordinates":[-0.010140185885959205,0.4837056756019592,0.15583902994791668,0.046257789929707846]},{"name":"bottle","coordinates":[-0.001105804796572088,0.4204701979955037,0.05336023613258645,0.07135596275329589]}]}
