{"src":"https://a0.muscache.com/im/pictures/37d89b46-978e-4444-a345-f82b49a70b62.jpg?aki_policy=xx_large","name":"Fantastic Toronto West Spot One Bed room","listingId":23844041,"photoId":"1846-9","tags":[{"name":"chair","coordinates":[0.0012117315221715774,0.3647241115570068,0.27562377364547164,0.37141262690226234]},{"name":"chair","coordinates":[0.6743648105197482,0.5110116004943848,0.31611627649377894,0.32098738352457684]},{"name":"diningtable","coordinates":[0.15502792640968607,0.29277184009552004,0.41500122635452835,0.2221707820892334]},{"name":"chair","coordinates":[0.4507807413736979,0.2872178157170614,0.22190122251157407,0.21431527137756348]},{"name":"chair","coordinates":[0.09769814809163412,0.31547206242879233,0.214317872789171,0.20023155212402344]},{"name":"tvmonitor","coordinates":[-0.001175898092764395,0.02991517384847006,0.08846027232982494,0.149686861038208]},{"name":"remote","coordinates":[0.819217696013274,0.7093001902103424,0.16306437739619503,0.06663496096928914]}]}
