{"src":"https://a0.muscache.com/im/pictures/37d89b46-978e-4444-a345-f82b49a70b62.jpg?aki_policy=xx_large","name":"Fantastic Toronto West Spot One Bed room","listingId":23844041,"photoId":"1846-7","tags":[{"name":"chair","coordinates":[0.1390236183449074,0.550430425008138,0.27562377364547164,0.37141262690226234]},{"name":"chair","coordinates":[0.8324229487666377,0.6715052922566732,0.31611627649377894,0.32098738352457684]},{"name":"diningtable","coordinates":[0.36252853958695025,0.4038572311401367,0.41500122635452835,0.2221707820892334]},{"name":"chair","coordinates":[0.5617313526294849,0.3943754514058431,0.22190122251157407,0.21431527137756348]},{"name":"chair","coordinates":[0.20485708448621961,0.41558783849080405,0.214317872789171,0.20023155212402344]},{"name":"tvmonitor","coordinates":[0.043054238072148074,0.10475860436757406,0.08846027232982494,0.149686861038208]},{"name":"remote","coordinates":[0.9007498847113715,0.742617670694987,0.16306437739619503,0.06663496096928914]}]}
