{"src":"https://a0.muscache.com/im/pictures/1b3e7b9f-22fd-4b4b-939a-488e5331c6af.jpg?aki_policy=xx_large","name":"Aries Apartment","listingId":23869316,"photoId":"1853-2","tags":[{"name":"sofa","coordinates":[0.7834294850752801,0.739513079325358,0.43534269787016366,0.4934287389119466]},{"name":"tvmonitor","coordinates":[0.31342076320274204,0.5129765192667644,0.11352562570438332,0.16134177843729655]},{"name":"chair","coordinates":[0.6624415635394783,0.5164598782857259,0.08020578913328026,0.17453357378641765]},{"name":"chair","coordinates":[0.7367534049752713,0.5069211641947429,0.07191368444960992,0.15953744252522786]},{"name":"chair","coordinates":[0.6018554089116115,0.508425776163737,0.06354953862037979,0.16303874651590983]},{"name":"pottedplant","coordinates":[0.4088583126121542,0.5120214144388835,0.06630958428903788,0.09367068608601888]}]}
