{"src":"https://a0.muscache.com/im/pictures/1b3e7b9f-22fd-4b4b-939a-488e5331c6af.jpg?aki_policy=xx_large","name":"Aries Apartment","listingId":23869316,"photoId":"1853-2","tags":[{"name":"sofa","coordinates":[0.5657581361401982,0.49279870986938473,0.43534269787016366,0.4934287389119466]},{"name":"tvmonitor","coordinates":[0.2566579503505504,0.43230563004811606,0.11352562570438332,0.16134177843729655]},{"name":"chair","coordinates":[0.6223386689728381,0.4291930913925171,0.08020578913328026,0.17453357378641765]},{"name":"chair","coordinates":[0.7007965627504663,0.42715244293212895,0.07191368444960992,0.15953744252522786]},{"name":"chair","coordinates":[0.5700806396014216,0.4269064029057821,0.06354953862037979,0.16303874651590983]},{"name":"pottedplant","coordinates":[0.3757035204676353,0.46518607139587403,0.06630958428903788,0.09367068608601888]}]}
