{"src":"https://a0.muscache.com/im/pictures/2b6e1589-65be-4c17-8447-39afcdc6720c.jpg?aki_policy=xx_large","name":"Aries Apartment","listingId":23869316,"photoId":"1853-25","tags":[{"name":"diningtable","coordinates":[0.4994091487618754,0.8012170791625977,0.9474861418840166,0.3138587951660156]},{"name":"pottedplant","coordinates":[0.25372097544230515,0.5014159202575683,0.4812486341182486,0.45982383092244467]},{"name":"wine-glass","coordinates":[0.5539094628287737,0.6475463231404622,0.11047944210516912,0.40539805094401044]},{"name":"wine-glass","coordinates":[0.41011832315765745,0.6339197794596354,0.10539733113578136,0.3677115758260091]},{"name":"fork","coordinates":[0.2911816784229856,0.9448300043741862,0.1744087965533735,0.12492191791534424]},{"name":"pottedplant","coordinates":[0.6053677262931034,0.42832501729329425,0.07433289025217442,0.09800499280293783]}]}
