{"src":"https://a0.muscache.com/im/pictures/2b6e1589-65be-4c17-8447-39afcdc6720c.jpg?aki_policy=xx_large","name":"Aries Apartment","listingId":23869316,"photoId":"1853-25","tags":[{"name":"diningtable","coordinates":[0.025666077819867128,0.6442876815795898,0.9474861418840166,0.3138587951660156]},{"name":"pottedplant","coordinates":[0.01309665838318086,0.27150400479634595,0.4812486341182486,0.45982383092244467]},{"name":"wine-glass","coordinates":[0.49866974177618917,0.444847297668457,0.11047944210516912,0.40539805094401044]},{"name":"wine-glass","coordinates":[0.3574196575897668,0.45006399154663085,0.10539733113578136,0.3677115758260091]},{"name":"fork","coordinates":[0.20397728014629884,0.8823690454165141,0.1744087965533735,0.12492191791534424]},{"name":"pottedplant","coordinates":[0.5682012811670162,0.37932252089182533,0.07433289025217442,0.09800499280293783]}]}
