{"src":"https://a0.muscache.com/im/pictures/d67cd1ad-d5a8-4e62-a0f8-e42c27f93bbf.jpg?aki_policy=xx_large","name":"INS设计师之家","listingId":23931847,"photoId":"1862-0","tags":[{"name":"chair","coordinates":[0.8392852783203125,0.8835787455240885,0.3068598641289605,0.21629130045572917]},{"name":"bottle","coordinates":[0.5401725345187717,0.5330324172973633,0.05930378172132704,0.31898072560628254]},{"name":"remote","coordinates":[0.3579785664876302,0.7792122522989909,0.14870019488864475,0.12271193663279216]},{"name":"cup","coordinates":[0.44014451768663193,0.683058230082194,0.08591831525166829,0.17722155253092448]},{"name":"cup","coordinates":[0.4857537587483724,0.6647897084554036,0.0693195448981391,0.16627691586812338]},{"name":"vase","coordinates":[0.6432181040445963,0.5213939030965169,0.04091313680013021,0.25367492039998374]}]}
