{"src":"https://a0.muscache.com/im/pictures/9c02e1e9-ca66-4ef5-87f4-68ecb6f5bbd8.jpg?aki_policy=xx_large","name":"NICE! DOUBLE ROOM in Streatham Hill","listingId":23943130,"photoId":"1864-2","tags":[{"name":"bed","coordinates":[0.28674562242296003,0.2903646469116211,0.5289048936631945,0.4992135365804036]},{"name":"tvmonitor","coordinates":[0.06087817086113824,0.055408271153767896,0.20798827277289497,0.2966182072957357]},{"name":"bottle","coordinates":[0.9107098857561747,0.24456323385238646,0.036462240748935275,0.12922178109486898]},{"name":"book","coordinates":[0.01083563036388821,0.20288705428441367,0.03497006363338894,0.10580111344655355]},{"name":"book","coordinates":[0.03219850460688273,0.20238274733225503,0.036742970678541396,0.10059199333190919]},{"name":"book","coordinates":[0.0014639496803283691,0.20523889859517416,0.024572727415296765,0.10927464167277018]}]}
