{"src":"https://a0.muscache.com/im/pictures/0da3e437-60bf-4176-b099-15defe55a33c.jpg?aki_policy=xx_large","name":"Private Bedroom in Andheri West","listingId":23949222,"photoId":"1866-0","tags":[{"name":"sofa","coordinates":[0.4829183101654052,0.558431355158488,0.45012741088867186,0.3248554547627767]},{"name":"chair","coordinates":[0.03818104267120362,0.6606217384338379,0.4326476573944092,0.310008176167806]},{"name":"sofa","coordinates":[0.03818104267120362,0.6606217384338379,0.4326476573944092,0.310008176167806]},{"name":"sofa","coordinates":[0.6249994516372681,0.714976970354716,0.3797910213470459,0.26181915601094563]},{"name":"tvmonitor","coordinates":[0.12817356586456297,0.3514288584391276,0.15762171745300294,0.17012449900309246]},{"name":"person","coordinates":[0.18507820665836333,0.36437554359436036,0.0767183005809784,0.14571059544881185]},{"name":"laptop","coordinates":[0.590390145778656,0.6975107192993164,0.12033712863922119,0.08542289733886718]},{"name":"tvmonitor","coordinates":[0.42661379277706146,0.4383316357930501,0.0809355080127716,0.10718816121419271]},{"name":"clock","coordinates":[0.101183021068573,0.12296436230341594,0.08370981216430665,0.10316064357757568]},{"name":"remote","coordinates":[0.5712470442056656,0.7526287386814753,0.058554381132125854,0.019000309705734252]}]}
