{"src":"https://a0.muscache.com/im/pictures/0da3e437-60bf-4176-b099-15defe55a33c.jpg?aki_policy=xx_large","name":"Private Bedroom in Andheri West","listingId":23949222,"photoId":"1866-0","tags":[{"name":"sofa","coordinates":[0.7079820156097412,0.7208590825398763,0.45012741088867186,0.3248554547627767]},{"name":"chair","coordinates":[0.2545048713684082,0.8156258265177408,0.4326476573944092,0.310008176167806]},{"name":"sofa","coordinates":[0.2545048713684082,0.8156258265177408,0.4326476573944092,0.310008176167806]},{"name":"sofa","coordinates":[0.8148949623107911,0.8458865483601888,0.3797910213470459,0.26181915601094563]},{"name":"tvmonitor","coordinates":[0.20698442459106445,0.4364911079406738,0.15762171745300294,0.17012449900309246]},{"name":"person","coordinates":[0.22343735694885253,0.4372308413187663,0.0767183005809784,0.14571059544881185]},{"name":"laptop","coordinates":[0.6505587100982666,0.74022216796875,0.12033712863922119,0.08542289733886718]},{"name":"tvmonitor","coordinates":[0.46708154678344727,0.4919257164001465,0.0809355080127716,0.10718816121419271]},{"name":"clock","coordinates":[0.14303792715072633,0.17454468409220378,0.08370981216430665,0.10316064357757568]},{"name":"remote","coordinates":[0.6005242347717286,0.7621288935343424,0.058554381132125854,0.019000309705734252]}]}
