{"src":"https://a0.muscache.com/im/pictures/bfb030c9-d955-4163-b46f-459236c17462.jpg?aki_policy=xx_large","name":"Boumerdes F2 avec terasse vue sur mer","listingId":23957652,"photoId":"1868-3","tags":[{"name":"diningtable","coordinates":[0.4952797174453735,0.6355912208557128,0.28690590858459475,0.34524606068929037]},{"name":"bed","coordinates":[0.08214279413223266,0.5586732864379883,0.26655604839324953,0.2889458974202474]},{"name":"chair","coordinates":[0.7031483352184296,0.6175480524698893,0.11800504922866821,0.3518842061360677]},{"name":"chair","coordinates":[0.4199665546417236,0.5205148100852967,0.10815944671630859,0.12230096658070883]},{"name":"tvmonitor","coordinates":[0.2923721343278885,0.4562132636706034,0.09589881300926209,0.09424677689870199]},{"name":"chair","coordinates":[0.5121109426021576,0.5532629291216532,0.1081807255744934,0.07144248485565186]},{"name":"chair","coordinates":[0.5709774494171143,0.6068522542715072,0.0998122215270996,0.028979029258092245]},{"name":"bowl","coordinates":[0.7699970319867134,0.5411485811074574,0.045921310782432556,0.03943593104680379]}]}
