{"src":"https://a0.muscache.com/im/pictures/3c15a4a6-95f5-40f9-8645-a1799a1a7ec4.jpg?aki_policy=xx_large","name":"Boumerdes F2 avec terasse vue sur mer","listingId":23957652,"photoId":"1868-14","tags":[{"name":"diningtable","coordinates":[0.30988014936447145,0.6399142901102702,0.35538885593414304,0.318675168355306]},{"name":"chair","coordinates":[0.2297390460968018,0.6942186832427979,0.23749313354492188,0.2824769655863444]},{"name":"chair","coordinates":[0.4930639982223511,0.7446816126505533,0.23312935829162598,0.2522810618082682]},{"name":"chair","coordinates":[0.5654155254364014,0.6080274740854898,0.12990713119506836,0.2161669095357259]},{"name":"chair","coordinates":[0.31736108660697937,0.5898369709650676,0.11593867540359497,0.17994672457377117]},{"name":"pottedplant","coordinates":[0.4205913245677948,0.5747812867164612,0.1262396454811096,0.13076910177866619]},{"name":"pottedplant","coordinates":[0.5130447894334793,0.5884969909985861,0.06847009062767029,0.08594801425933837]},{"name":"bird","coordinates":[0.36072632372379304,0.4159031411012014,0.05592405200004578,0.055352874596913654]}]}
