{"src":"https://a0.muscache.com/im/pictures/626cb9b5-e1c2-4963-b665-7449d4fa114e.jpg?aki_policy=xx_large","name":"Welcome to J's house 貸し切り、繁華街まで徒歩5分♬","listingId":23982818,"photoId":"1873-5","tags":[{"name":"refrigerator","coordinates":[0.044609594345092776,0.5926103591918945,0.1013334035873413,0.821026102701823]},{"name":"refrigerator","coordinates":[0.17665717601776124,0.7996703465779622,0.14046926498413087,0.3400784174601237]},{"name":"sink","coordinates":[0.41072936058044435,0.6278618494669597,0.2766965389251709,0.1436555544535319]},{"name":"pottedplant","coordinates":[0.05599159598350525,0.7962904612223307,0.09612905383110046,0.32239713668823244]},{"name":"pottedplant","coordinates":[0.06942665576934814,0.3624636967976888,0.08040194511413574,0.3138875007629395]},{"name":"microwave","coordinates":[0.17044485807418824,0.5834733327229817,0.15418822765350343,0.13603905042012532]},{"name":"bottle","coordinates":[0.3179732322692871,0.4542606671651204,0.023713816702365876,0.09880940914154053]},{"name":"cup","coordinates":[0.37621469497680665,0.6420141220092773,0.04624268412590027,0.041466387112935384]},{"name":"bottle","coordinates":[0.4709725856781006,0.5663385391235352,0.019478201866149902,0.06684415340423584]}]}
