{"src":"https://a0.muscache.com/im/pictures/626cb9b5-e1c2-4963-b665-7449d4fa114e.jpg?aki_policy=xx_large","name":"Welcome to J's house 貸し切り、繁華街まで徒歩5分♬","listingId":23982818,"photoId":"1873-5","tags":[{"name":"refrigerator","coordinates":[-0.01076819101969402,0.18209730784098305,0.18014827304416234,0.821026102701823]},{"name":"refrigerator","coordinates":[0.1891956329345703,0.6296311378479004,0.24972313774956598,0.3400784174601237]},{"name":"sink","coordinates":[0.4842330508761935,0.5560340722401937,0.4919049580891927,0.1436555544535319]},{"name":"pottedplant","coordinates":[0.014092567231920025,0.6350918928782145,0.17089609569973416,0.32239713668823244]},{"name":"pottedplant","coordinates":[0.051956770155164936,0.20551994641621907,0.1429367913140191,0.3138875007629395]},{"name":"microwave","coordinates":[0.16595687866210937,0.5154538075129191,0.2741124047173394,0.13603905042012532]},{"name":"bottle","coordinates":[0.5442067980766296,0.40485596259435014,0.042157896359761554,0.09880940914154053]},{"name":"cup","coordinates":[0.6277215162913005,0.6212809284528096,0.0822092162238227,0.041466387112935384]},{"name":"bottle","coordinates":[0.8199706395467122,0.5329164624214172,0.03462791442871094,0.06684415340423584]}]}
