{"src":"https://a0.muscache.com/im/pictures/368e0a19-3a55-4b4e-8573-b43e87e297fc.jpg?aki_policy=xx_large","name":"Welcome to J's house 貸し切り、繁華街まで徒歩5分♬","listingId":23982818,"photoId":"1873-0","tags":[{"name":"pottedplant","coordinates":[0.25771198272705076,0.6010381698608398,0.30137926737467446,0.7042789459228516]},{"name":"bed","coordinates":[0.4877468532986111,0.7045800526936848,0.34667036268446183,0.28831637700398766]},{"name":"chair","coordinates":[0.8300421820746527,0.824695332845052,0.13996579911973742,0.3294405937194824]},{"name":"pottedplant","coordinates":[0.9577538384331598,0.14122405052185058,0.0781487676832411,0.2484978675842285]},{"name":"pottedplant","coordinates":[0.7473278469509549,0.36631040573120116,0.0618566354115804,0.24867442448933919]},{"name":"pottedplant","coordinates":[0.10306371053059896,0.720012919108073,0.07767450014750163,0.16832777659098308]},{"name":"microwave","coordinates":[0.7812960306803386,0.5145892461140951,0.09156601164076063,0.08382811546325683]},{"name":"pottedplant","coordinates":[0.7051909976535373,0.5934127807617188,0.05101761817932129,0.10202770233154297]},{"name":"bottle","coordinates":[0.895889875623915,0.45687160491943357,0.012965570555792914,0.051494220892588295]},{"name":"bottle","coordinates":[0.875083245171441,0.4586917877197266,0.009904781977335611,0.04376643498738607]}]}
