{"src":"https://a0.muscache.com/im/pictures/368e0a19-3a55-4b4e-8573-b43e87e297fc.jpg?aki_policy=xx_large","name":"Welcome to J's house 貸し切り、繁華街まで徒歩5分♬","listingId":23982818,"photoId":"1873-0","tags":[{"name":"pottedplant","coordinates":[0.10702234903971353,0.24889869689941402,0.30137926737467446,0.7042789459228516]},{"name":"bed","coordinates":[0.3144116719563802,0.560421864191691,0.34667036268446183,0.28831637700398766]},{"name":"chair","coordinates":[0.760059282514784,0.6599750359853108,0.13996579911973742,0.3294405937194824]},{"name":"pottedplant","coordinates":[0.9186794545915392,0.016975116729736325,0.0781487676832411,0.2484978675842285]},{"name":"pottedplant","coordinates":[0.7163995292451647,0.24197319348653157,0.0618566354115804,0.24867442448933919]},{"name":"pottedplant","coordinates":[0.06422646045684814,0.6358490308125815,0.07767450014750163,0.16832777659098308]},{"name":"microwave","coordinates":[0.7355130248599583,0.47267518838246664,0.09156601164076063,0.08382811546325683]},{"name":"pottedplant","coordinates":[0.6796821885638766,0.5423989295959473,0.05101761817932129,0.10202770233154297]},{"name":"bottle","coordinates":[0.8894070903460185,0.43112449447313944,0.012965570555792914,0.051494220892588295]},{"name":"bottle","coordinates":[0.8701308541827731,0.43680857022603353,0.009904781977335611,0.04376643498738607]}]}
