{"src":"https://a0.muscache.com/im/pictures/626cb9b5-e1c2-4963-b665-7449d4fa114e.jpg?aki_policy=xx_large","name":"Welcome to J's house 貸し切り、繁華街まで徒歩5分♬","listingId":23982818,"photoId":"1873-5","tags":[{"name":"refrigerator","coordinates":[0.07930594550238715,0.5926103591918945,0.18014827304416234,0.821026102701823]},{"name":"refrigerator","coordinates":[0.3140572018093533,0.7996703465779622,0.24972313774956598,0.3400784174601237]},{"name":"sink","coordinates":[0.7301855299207899,0.6278618494669597,0.4919049580891927,0.1436555544535319]},{"name":"pottedplant","coordinates":[0.0995406150817871,0.7962904612223307,0.17089609569973416,0.32239713668823244]},{"name":"pottedplant","coordinates":[0.12342516581217448,0.3624636967976888,0.1429367913140191,0.3138875007629395]},{"name":"microwave","coordinates":[0.30301308102077906,0.5834733327229817,0.2741124047173394,0.13603905042012532]},{"name":"bottle","coordinates":[0.5652857462565104,0.4542606671651204,0.042157896359761554,0.09880940914154053]},{"name":"cup","coordinates":[0.6688261244032118,0.6420141220092773,0.0822092162238227,0.041466387112935384]},{"name":"bottle","coordinates":[0.8372845967610677,0.5663385391235352,0.03462791442871094,0.06684415340423584]}]}
