{"src":"https://a0.muscache.com/im/pictures/a826610f-73d3-4509-a2cd-1467a2daea4e.jpg?aki_policy=xx_large","name":"cozy appartment in sparkling The Hague","listingId":1343587,"photoId":"188-5","tags":[{"name":"bed","coordinates":[0.29440767500135634,0.6602861404418945,0.6532930162217881,0.6700816472371419]},{"name":"chair","coordinates":[0.7371636284722223,0.6604342142740885,0.46135919358995225,0.6008059819539388]},{"name":"sofa","coordinates":[0.7371636284722223,0.6604342142740885,0.46135919358995225,0.6008059819539388]},{"name":"vase","coordinates":[0.5706856197781033,0.2658716678619385,0.07840796576605903,0.1293282190958659]},{"name":"bottle","coordinates":[0.23477904001871744,0.7843518575032552,0.048017628987630206,0.20127447446187338]},{"name":"bowl","coordinates":[0.33840370178222656,0.7856693267822266,0.060635418362087676,0.06490790049235026]},{"name":"book","coordinates":[0.7596946716308594,0.17923784255981445,0.011889982223510741,0.08498531182607015]},{"name":"book","coordinates":[0.7405736287434895,0.31635891596476234,0.011664729648166233,0.06908229986826579]},{"name":"book","coordinates":[0.7603921678331164,0.033164445559183756,0.010042064057456123,0.05979033708572388]},{"name":"book","coordinates":[0.7794913397894965,0.0331909437974294,0.009160591496361626,0.05355691115061442]},{"name":"book","coordinates":[0.7982590569390191,0.031697169939676924,0.009114146894878812,0.048790156841278076]}]}
