{"src":"https://a0.muscache.com/im/pictures/b80bbc5f-bfea-4975-af91-cf20cc4ece6b.jpg?aki_policy=xx_large","name":"Private room with good location","listingId":24017372,"photoId":"1882-3","tags":[{"name":"sofa","coordinates":[0.5472249031066895,0.6945631027221679,0.4000523090362549,0.4651799201965332]},{"name":"bed","coordinates":[0.1623771071434021,0.7258644104003906,0.32173857688903806,0.5173003514607747]},{"name":"pottedplant","coordinates":[0.9424375534057617,0.31493012110392254,0.11398012638092041,0.4268470764160156]},{"name":"vase","coordinates":[0.5293026924133301,0.6749765396118164,0.038393843173980716,0.10706516106923421]},{"name":"bowl","coordinates":[0.4758597850799561,0.6970677693684896,0.05585816502571106,0.03395288387934367]}]}
