{"src":"https://a0.muscache.com/im/pictures/b80bbc5f-bfea-4975-af91-cf20cc4ece6b.jpg?aki_policy=xx_large","name":"Private room with good location","listingId":24017372,"photoId":"1882-3","tags":[{"name":"sofa","coordinates":[0.34719874858856203,0.4619731426239013,0.4000523090362549,0.4651799201965332]},{"name":"bed","coordinates":[0.0015078186988830566,0.4672142346700033,0.32173857688903806,0.5173003514607747]},{"name":"pottedplant","coordinates":[0.8854474902153016,0.10150658289591474,0.11398012638092041,0.4268470764160156]},{"name":"vase","coordinates":[0.5101057708263397,0.6214439590771993,0.038393843173980716,0.10706516106923421]},{"name":"bowl","coordinates":[0.44793070256710055,0.6800913274288177,0.05585816502571106,0.03395288387934367]}]}
