{"src":"https://a0.muscache.com/im/pictures/b2b9c383-19ce-46f5-8a48-976629d71aaa.jpg?aki_policy=xx_large","name":"Room With a View!","listingId":24021877,"photoId":"1884-0","tags":[{"name":"bed","coordinates":[0.1928237067328559,0.4857395807902018,0.4218243492974175,0.6674963633219401]},{"name":"chair","coordinates":[0.6222731272379557,0.6342082977294922,0.0728020985921224,0.31829042434692384]},{"name":"book","coordinates":[0.7392781575520834,0.7743442535400391,0.18126595815022786,0.12360494136810303]},{"name":"bottle","coordinates":[0.9299285040961371,0.7656949361165365,0.061875841352674696,0.2422831694285075]},{"name":"cup","coordinates":[0.878067609998915,0.7663112004597982,0.05114506085713704,0.11099151770273845]}]}
