{"src":"https://a0.muscache.com/im/pictures/b2b9c383-19ce-46f5-8a48-976629d71aaa.jpg?aki_policy=xx_large","name":"Room With a View!","listingId":24021877,"photoId":"1884-0","tags":[{"name":"bed","coordinates":[-0.018088467915852863,0.15199139912923176,0.4218243492974175,0.6674963633219401]},{"name":"chair","coordinates":[0.5858720779418944,0.4750630855560303,0.0728020985921224,0.31829042434692384]},{"name":"book","coordinates":[0.6486451784769695,0.7125417828559876,0.18126595815022786,0.12360494136810303]},{"name":"bottle","coordinates":[0.8989905834197998,0.6445533514022828,0.061875841352674696,0.2422831694285075]},{"name":"cup","coordinates":[0.8524950795703464,0.7108154416084289,0.05114506085713704,0.11099151770273845]}]}
