{"src":"https://a0.muscache.com/im/pictures/c7652568-49ea-4e5e-a4d7-0b4bcfc9b6be.jpg?aki_policy=xx_large","name":"古城美景Lucky笑笑的舒适阳光屋","listingId":24095482,"photoId":"1892-12","tags":[{"name":"bed","coordinates":[0.37323955959743926,0.7080490748087566,0.3983208974202474,0.35592521031697594]},{"name":"pottedplant","coordinates":[0.9302127414279514,0.20029322306315103,0.10934488508436414,0.14525550206502277]},{"name":"teddy-bear","coordinates":[0.7099913279215495,0.7979637781778971,0.07034404542711047,0.15119091669718424]},{"name":"book","coordinates":[0.8708733452690972,0.7189263025919597,0.09871656629774306,0.05783077875773112]},{"name":"book","coordinates":[0.8711294386121962,0.7404696782430013,0.1013432714674208,0.051035682360331215]},{"name":"book","coordinates":[0.8707271999782986,0.697573471069336,0.09602749082777236,0.043145136038462324]},{"name":"vase","coordinates":[0.5833045959472656,0.6550263086954753,0.020601987838745117,0.04579588572184245]}]}
