{"src":"https://a0.muscache.com/im/pictures/c7652568-49ea-4e5e-a4d7-0b4bcfc9b6be.jpg?aki_policy=xx_large","name":"古城美景Lucky笑笑的舒适阳光屋","listingId":24095482,"photoId":"1892-12","tags":[{"name":"bed","coordinates":[0.3734989338570622,0.7080490748087566,0.39859770137953876,0.35592521031697594]},{"name":"pottedplant","coordinates":[0.9308591714080959,0.20029322306315103,0.10942087180089255,0.14525550206502277]},{"name":"teddy-bear","coordinates":[0.7104847200882775,0.7979637781778971,0.07039292940586453,0.15119091669718424]},{"name":"book","coordinates":[0.8714785386987491,0.7189263025919597,0.09878516710823489,0.05783077875773112]},{"name":"book","coordinates":[0.8717348100080351,0.7404696782430013,0.10141369764634187,0.051035682360331215]},{"name":"book","coordinates":[0.8713322918476373,0.697573471069336,0.09609422292702723,0.043145136038462324]},{"name":"vase","coordinates":[0.5837099500792651,0.6550263086954753,0.020616304717020827,0.04579588572184245]}]}
