{"src":"https://a0.muscache.com/im/pictures/535eee1b-aed4-4cad-bcd0-b79354b063f0.jpg?aki_policy=xx_large","name":"古城美景Lucky笑笑的舒适阳光屋","listingId":24095482,"photoId":"1892-9","tags":[{"name":"bed","coordinates":[0.4778487342691322,0.5300923665364583,0.5256850697913047,0.4597253163655599]},{"name":"pottedplant","coordinates":[0.2747013603671712,0.5602002620697022,0.10305940947489577,0.2567644437154134]},{"name":"teddy-bear","coordinates":[0.8729476557579862,0.6406131903330485,0.11702252693520891,0.16245940526326497]},{"name":"chair","coordinates":[0.43219515049598384,0.5748778502146403,0.07224010708764496,0.15005000432332358]},{"name":"chair","coordinates":[0.5831703679109299,0.5746471643447876,0.07096963528546299,0.1273388703664144]},{"name":"chair","coordinates":[0.5212940165696665,0.600555944442749,0.04647366945904274,0.0993302345275879]}]}
