{"src":"https://a0.muscache.com/im/pictures/c66b65d5-4a1a-4d86-bd0f-54b8b93636d3.jpg?aki_policy=xx_large","name":"古城美景Lucky笑笑的舒适阳光屋","listingId":24095482,"photoId":"1892-7","tags":[{"name":"bed","coordinates":[0.5754872548074835,0.757925287882487,0.580794174692712,0.47710243860880536]},{"name":"diningtable","coordinates":[0.08093482806833359,0.8855212529500326,0.14257477421657835,0.24823877016703289]},{"name":"pottedplant","coordinates":[0.06879851319377335,0.6564849217732748,0.12497623700744331,0.2022909164428711]},{"name":"chair","coordinates":[0.05161411054768937,0.7502431869506836,0.10448848679299318,0.0989918311436971]},{"name":"teddy-bear","coordinates":[0.6461605366275408,0.6220378239949544,0.08179096383630939,0.10632178783416749]}]}
