{"src":"https://a0.muscache.com/im/pictures/c7652568-49ea-4e5e-a4d7-0b4bcfc9b6be.jpg?aki_policy=xx_large","name":"古城美景Lucky笑笑的舒适阳光屋","listingId":24095482,"photoId":"1892-14","tags":[{"name":"bed","coordinates":[0.17407911088731556,0.5300864696502686,0.3983208974202474,0.35592521031697594]},{"name":"pottedplant","coordinates":[0.8755402988857693,0.12766547203063966,0.10934488508436414,0.14525550206502277]},{"name":"teddy-bear","coordinates":[0.6748193052079943,0.7223683198293049,0.07034404542711047,0.15119091669718424]},{"name":"book","coordinates":[0.8215150621202256,0.6900109132130942,0.09871656629774306,0.05783077875773112]},{"name":"book","coordinates":[0.8204578028784858,0.7149518370628356,0.1013432714674208,0.051035682360331215]},{"name":"book","coordinates":[0.8227134545644125,0.6760009030501049,0.09602749082777236,0.043145136038462324]},{"name":"vase","coordinates":[0.573003602027893,0.6321283658345541,0.020601987838745117,0.04579588572184245]}]}
