{"src":"https://a0.muscache.com/im/pictures/d28b4b1e-2a96-4a60-830a-6399aa9f47a2.jpg?aki_policy=xx_large","name":"温馨阳光双人床4号线枣园站地铁房","listingId":24110949,"photoId":"1896-4","tags":[{"name":"refrigerator","coordinates":[0.08480497466193306,0.3721787770589193,0.18416578504774306,0.3202408154805501]},{"name":"tvmonitor","coordinates":[0.7169164021809896,0.4113192558288574,0.11691754659016927,0.18868953386942547]},{"name":"pottedplant","coordinates":[0.07203116416931152,0.17956770261128743,0.11919759114583334,0.07573137283325196]},{"name":"pottedplant","coordinates":[0.6156481001112196,0.4273723920186361,0.05763686498006185,0.07601318359375]},{"name":"clock","coordinates":[0.7788516574435764,0.1177865743637085,0.043864083290100095,0.09838290214538574]},{"name":"pottedplant","coordinates":[0.5925564659966363,0.4282489458719889,0.05122256808810764,0.07086985111236573]}]}
