{"src":"https://a0.muscache.com/im/pictures/d28b4b1e-2a96-4a60-830a-6399aa9f47a2.jpg?aki_policy=xx_large","name":"温馨阳光双人床4号线枣园站地铁房","listingId":24110949,"photoId":"1896-4","tags":[{"name":"refrigerator","coordinates":[0.04770279824733734,0.3721787770589193,0.10359325408935546,0.3202408154805501]},{"name":"tvmonitor","coordinates":[0.40326547622680664,0.4113192558288574,0.06576611995697021,0.18868953386942547]},{"name":"pottedplant","coordinates":[0.04051752984523773,0.17956770261128743,0.06704864501953126,0.07573137283325196]},{"name":"pottedplant","coordinates":[0.34630205631256106,0.4273723920186361,0.03242073655128479,0.07601318359375]},{"name":"clock","coordinates":[0.43810405731201174,0.1177865743637085,0.024673546850681304,0.09838290214538574]},{"name":"pottedplant","coordinates":[0.33331301212310793,0.4282489458719889,0.028812694549560546,0.07086985111236573]}]}
