{"src":"https://a0.muscache.com/im/pictures/081c45a7-2781-470c-a9c6-1d4c5ad8253a.jpg?aki_policy=xx_large","name":"Cosy apartment at the beach Â± 30 meters","listingId":10557107,"photoId":"19-0","tags":[{"name":"chair","coordinates":[0.258584467569987,0.631549326578776,0.1976801766289605,0.5770289738972981]},{"name":"chair","coordinates":[0.4170800526936849,0.571499760945638,0.2507968478732639,0.41443096796671547]},{"name":"chair","coordinates":[0.06797419653998481,0.6477791468302408,0.13347734875149198,0.5964150746663411]},{"name":"sofa","coordinates":[0.6261773851182726,0.4891488075256348,0.37194684346516926,0.19783674875895182]},{"name":"tvmonitor","coordinates":[0.14151448143853082,0.31006015141805016,0.13946746190388998,0.16292215983072916]},{"name":"pottedplant","coordinates":[0.7221911960177951,0.3631781260172526,0.04004642698499891,0.044155518213907875]}]}
