{"src":"https://a0.muscache.com/im/pictures/2e51ec92-fc75-4002-823e-8a13011f7feb.jpg?aki_policy=xx_large","name":"Private house Meyer","listingId":10409930,"photoId":"19-0","tags":[{"name":"diningtable","coordinates":[0.6417338848114014,0.6388137817382813,0.5393590450286865,0.4097894032796224]},{"name":"pottedplant","coordinates":[0.37193539142608645,0.2759151776631673,0.14031376838684081,0.34695749282836913]},{"name":"chair","coordinates":[0.28068315982818604,0.5116961161295573,0.13227463960647584,0.21586249669392904]},{"name":"chair","coordinates":[0.17529417276382447,0.47460212707519533,0.12502622604370117,0.15595757166544597]},{"name":"sofa","coordinates":[0.17529417276382447,0.47460212707519533,0.12502622604370117,0.15595757166544597]},{"name":"chair","coordinates":[0.49044113159179686,0.4197752634684245,0.07745651006698609,0.06432677904764811]}]}
