{"src":"https://a0.muscache.com/im/pictures/2e51ec92-fc75-4002-823e-8a13011f7feb.jpg?aki_policy=xx_large","name":"Private house Meyer","listingId":10409930,"photoId":"19-0","tags":[{"name":"diningtable","coordinates":[0.3720543622970581,0.43391908009847013,0.5393590450286865,0.4097894032796224]},{"name":"pottedplant","coordinates":[0.301778507232666,0.10243643124898275,0.14031376838684081,0.34695749282836913]},{"name":"chair","coordinates":[0.21454584002494811,0.4037648677825928,0.13227463960647584,0.21586249669392904]},{"name":"chair","coordinates":[0.11278105974197389,0.39662334124247234,0.12502622604370117,0.15595757166544597]},{"name":"sofa","coordinates":[0.11278105974197389,0.39662334124247234,0.12502622604370117,0.15595757166544597]},{"name":"chair","coordinates":[0.45171287655830383,0.3876118739446004,0.07745651006698609,0.06432677904764811]}]}
