{"src":"https://a0.muscache.com/im/pictures/1905364e-2513-4c72-867f-86da694bc017.jpg?aki_policy=xx_large","name":"Private house Meyer","listingId":10409930,"photoId":"19-6","tags":[{"name":"diningtable","coordinates":[0.41941263675689694,0.5175273895263672,0.290601110458374,0.34387346903483074]},{"name":"chair","coordinates":[0.34059222936630246,0.5588894208272298,0.18869354724884033,0.3690746943155924]},{"name":"chair","coordinates":[0.5915408730506897,0.5435338020324707,0.1520857572555542,0.3543405532836914]},{"name":"diningtable","coordinates":[-0.00037047266960144043,0.6084110101064046,0.11658332347869874,0.3591413180033366]},{"name":"vase","coordinates":[0.8112844139337541,0.5032317797342936,0.09589468836784362,0.22422364552815754]},{"name":"person","coordinates":[0.37298836708068844,0.477930482228597,0.09070520401000977,0.19063065846761068]},{"name":"chair","coordinates":[0.04555081725120545,0.5199507792790731,0.079803729057312,0.14473729133605956]},{"name":"chair","coordinates":[-0.0008302778005599976,0.5399758100509644,0.060252797603607175,0.14616545041402182]},{"name":"chair","coordinates":[0.3366091221570968,0.5057452360788981,0.04515023827552796,0.07189982732137044]},{"name":"vase","coordinates":[0.5306218057870865,0.5231579303741455,0.030713576078414916,0.046509965260823564]}]}
