{"src":"https://a0.muscache.com/im/pictures/1905364e-2513-4c72-867f-86da694bc017.jpg?aki_policy=xx_large","name":"Private house Meyer","listingId":10409930,"photoId":"19-6","tags":[{"name":"diningtable","coordinates":[0.5647131919860839,0.6894641240437825,0.290601110458374,0.34387346903483074]},{"name":"chair","coordinates":[0.43493900299072263,0.743426767985026,0.18869354724884033,0.3690746943155924]},{"name":"chair","coordinates":[0.6675837516784668,0.7207040786743164,0.1520857572555542,0.3543405532836914]},{"name":"diningtable","coordinates":[0.05792118906974793,0.7879816691080729,0.11658332347869874,0.3591413180033366]},{"name":"vase","coordinates":[0.8592317581176758,0.6153436024983724,0.09589468836784362,0.22422364552815754]},{"name":"person","coordinates":[0.41834096908569335,0.5732458114624024,0.09070520401000977,0.19063065846761068]},{"name":"chair","coordinates":[0.08545268177986146,0.5923194249471029,0.079803729057312,0.14473729133605956]},{"name":"chair","coordinates":[0.02929612100124359,0.6130585352579753,0.060252797603607175,0.14616545041402182]},{"name":"chair","coordinates":[0.3591842412948608,0.5416951497395833,0.04515023827552796,0.07189982732137044]},{"name":"vase","coordinates":[0.545978593826294,0.5464129130045573,0.030713576078414916,0.046509965260823564]}]}
