{"src":"https://a0.muscache.com/im/pictures/9418272a-5fa6-40ca-9453-dbdbe277eedc.jpg?aki_policy=xx_large","name":"Yokohama Sta. 7min on foot!Man 4ppl!Luxury Open","listingId":13716822,"photoId":"190-0","tags":[{"name":"sofa","coordinates":[0.4832361009385851,0.51706067721049,0.5025670369466145,0.4645538012186686]},{"name":"diningtable","coordinates":[0.13498805363972982,0.6423172473907471,0.30187168121337893,0.3402841250101725]},{"name":"bed","coordinates":[0.2650908046298557,0.5541289170583089,0.35485494401719836,0.16881926854451498]},{"name":"tvmonitor","coordinates":[0.017966238657633457,0.537201984723409,0.15724894205729167,0.18363970120747883]},{"name":"pottedplant","coordinates":[0.5465059068467882,0.3720683654149373,0.07317894829644098,0.22015306154886882]},{"name":"pottedplant","coordinates":[0.284381972418891,0.6143773158391317,0.07470241122775607,0.09495066006978353]},{"name":"book","coordinates":[0.06019797060224745,0.7747535864512125,0.08776276376512315,0.06295620600382487]},{"name":"remote","coordinates":[0.26812747054629854,0.72396346728007,0.0712461100684272,0.03415416081746419]},{"name":"vase","coordinates":[0.5747684346305,0.5328340828418732,0.022439855999416777,0.06642157634099324]},{"name":"vase","coordinates":[0.3064881483713786,0.6720589478810629,0.03399169709947374,0.04093726476033529]}]}
