{"src":"https://a0.muscache.com/im/pictures/9418272a-5fa6-40ca-9453-dbdbe277eedc.jpg?aki_policy=xx_large","name":"Yokohama Sta. 7min on foot!Man 4ppl!Luxury Open","listingId":13716822,"photoId":"190-0","tags":[{"name":"sofa","coordinates":[0.7345196194118924,0.7493375778198242,0.5025670369466145,0.4645538012186686]},{"name":"diningtable","coordinates":[0.2859238942464193,0.8124593098958334,0.30187168121337893,0.3402841250101725]},{"name":"bed","coordinates":[0.4425182766384549,0.6385385513305664,0.35485494401719836,0.16881926854451498]},{"name":"tvmonitor","coordinates":[0.0965907096862793,0.6290218353271484,0.15724894205729167,0.18363970120747883]},{"name":"pottedplant","coordinates":[0.5830953809950087,0.48214489618937173,0.07317894829644098,0.22015306154886882]},{"name":"pottedplant","coordinates":[0.3217331780327691,0.6618526458740235,0.07470241122775607,0.09495066006978353]},{"name":"book","coordinates":[0.10407935248480903,0.806231689453125,0.08776276376512315,0.06295620600382487]},{"name":"remote","coordinates":[0.30375052558051213,0.7410405476888021,0.0712461100684272,0.03415416081746419]},{"name":"vase","coordinates":[0.5859883626302084,0.5660448710123698,0.022439855999416777,0.06642157634099324]},{"name":"vase","coordinates":[0.32348399692111546,0.6925275802612305,0.03399169709947374,0.04093726476033529]}]}
