{"src":"https://a0.muscache.com/im/pictures/95dd50ca-2a95-4e59-96fe-d199fcdfc9c6.jpg?aki_policy=xx_large","name":"Casa Tezca. Departamento con terraza privada.","listingId":24137990,"photoId":"1905-2","tags":[{"name":"refrigerator","coordinates":[0.8426804436577691,0.5662588755289714,0.17564240561591254,0.41729968388875327]},{"name":"microwave","coordinates":[0.8513291252983941,0.34280824661254883,0.16120177374945746,0.06642229159673055]},{"name":"pottedplant","coordinates":[0.3899521721733941,0.477895991007487,0.08356060981750488,0.09958069324493408]},{"name":"vase","coordinates":[0.3961417304144965,0.5028356234232585,0.036797971195644805,0.0480268120765686]},{"name":"cup","coordinates":[0.2111970901489258,0.541699473063151,0.03991372055477566,0.02104668617248535]}]}
