{"src":"https://a0.muscache.com/im/pictures/c75c838d-6582-4985-a6e6-b684124c1d26.jpg?aki_policy=xx_large","name":"Casa Tezca. Departamento con terraza privada.","listingId":24137990,"photoId":"1905-10","tags":[{"name":"diningtable","coordinates":[0.3356348593780613,0.7452784856160481,0.46954345703125,0.38983195622762046]},{"name":"pottedplant","coordinates":[0.2887490012428977,0.32978690465291344,0.18335165424406716,0.5115931193033855]},{"name":"vase","coordinates":[0.4542970089329447,0.5833374659220377,0.06452421110625552,0.22151436805725097]},{"name":"cup","coordinates":[0.34565471780711204,0.7007839838663737,0.08665731184908589,0.10581862926483154]},{"name":"bowl","coordinates":[0.34565471780711204,0.7007839838663737,0.08665731184908589,0.10581862926483154]},{"name":"clock","coordinates":[0.35269944720133717,0.5205565770467122,0.08096256076729036,0.10718484719594319]},{"name":"cup","coordinates":[0.31902621756526744,0.5833992640177409,0.06821186938629628,0.07504040400187174]}]}
