{"src":"https://a0.muscache.com/im/pictures/f5508737-831e-48b7-9501-f30171eabf85.jpg?aki_policy=xx_large","name":"Casa Tezca. Departamento con terraza privada.","listingId":24137990,"photoId":"1905-14","tags":[{"name":"diningtable","coordinates":[0.6812689463297527,0.8298912684122721,0.7803668551974826,0.3104913393656413]},{"name":"sofa","coordinates":[0.1724662250942654,0.7477821350097656,0.3430194642808702,0.4541799545288086]},{"name":"diningtable","coordinates":[1.393574947781033,0.5863296508789062,0.35973468356662325,0.292041015625]},{"name":"chair","coordinates":[1.5146338568793403,0.6013292948404948,0.27002391815185545,0.3232669194539388]},{"name":"chair","coordinates":[1.2697663201226128,0.5397942225138347,0.12373312844170464,0.2558167298634847]},{"name":"bottle","coordinates":[1.3300183614095051,0.43076333999633787,0.042166784074571396,0.09371794859568278]},{"name":"vase","coordinates":[1.401195271809896,0.4400323232014974,0.04141995641920301,0.06450028816858927]}]}
