{"src":"https://a0.muscache.com/im/pictures/95dd50ca-2a95-4e59-96fe-d199fcdfc9c6.jpg?aki_policy=xx_large","name":"Casa Tezca. Departamento con terraza privada.","listingId":24137990,"photoId":"1905-2","tags":[{"name":"refrigerator","coordinates":[0.8962037214676422,0.5662588755289714,0.1867984225161847,0.41729968388875327]},{"name":"microwave","coordinates":[0.9054017285300499,0.34280824661254883,0.17144058655776864,0.06642229159673055]},{"name":"pottedplant","coordinates":[0.41472018310907494,0.477895991007487,0.08886800453264922,0.09958069324493408]},{"name":"vase","coordinates":[0.4213028742960672,0.5028356234232585,0.03913521308842579,0.0480268120765686]},{"name":"cup","coordinates":[0.2246113809560215,0.541699473063151,0.0424488608558914,0.02104668617248535]}]}
