{"src":"https://a0.muscache.com/im/pictures/95dd50ca-2a95-4e59-96fe-d199fcdfc9c6.jpg?aki_policy=xx_large","name":"Casa Tezca. Departamento con terraza privada.","listingId":24137990,"photoId":"1905-2","tags":[{"name":"refrigerator","coordinates":[0.7548592408498128,0.3576090335845947,0.17564240561591254,0.41729968388875327]},{"name":"microwave","coordinates":[0.7707282384236653,0.30959710081418357,0.16120177374945746,0.06642229159673055]},{"name":"pottedplant","coordinates":[0.34817186726464167,0.4281056443850199,0.08356060981750488,0.09958069324493408]},{"name":"vase","coordinates":[0.37774274481667414,0.4788222173849742,0.036797971195644805,0.0480268120765686]},{"name":"cup","coordinates":[0.19124022987153796,0.5311761299769083,0.03991372055477566,0.02104668617248535]}]}
