{"src":"https://a0.muscache.com/im/pictures/2b577c74-f861-47bb-a384-010ae20cb024.jpg?aki_policy=xx_large","name":"Bedroom in European Villa, Bahria Town Lahore","listingId":24145569,"photoId":"1908-1","tags":[{"name":"refrigerator","coordinates":[0.662927794456482,-0.003548494974772165,0.33671936988830564,1.0317704518636068]},{"name":"oven","coordinates":[-0.0006650209426879855,0.5838960647583008,0.20362703800201415,0.40066630045572915]},{"name":"person","coordinates":[0.9024745523929596,0.3360965490341187,0.047699248790740965,0.13534518877665203]},{"name":"sink","coordinates":[0.30418549776077275,0.5437585989634196,0.1788098096847534,0.027646986643473308]},{"name":"person","coordinates":[0.7632419303059578,0.2598971903324127,0.025815829634666443,0.059017773469289145]},{"name":"bottle","coordinates":[0.4807314544916153,0.4898886799812317,0.01663348078727722,0.060151203473409014]},{"name":"cup","coordinates":[0.2779300525784492,0.5314092616240184,0.02916339337825775,0.03164965709050496]},{"name":"knife","coordinates":[0.08163956478238106,0.4314253886540731,0.00999612659215927,0.052013762791951496]}]}
