{"src":"https://a0.muscache.com/im/pictures/185dc3f1-dd8e-4e17-8a05-685f87b8bf42.jpg?aki_policy=xx_large","name":"Relax Playa","listingId":13731855,"photoId":"191-14","tags":[{"name":"tvmonitor","coordinates":[0.14229381349351672,0.5653405507405599,0.1998666763305664,0.245576540629069]},{"name":"chair","coordinates":[0.6948833465576172,0.6697865168253581,0.12181591457790798,0.26130329767862953]},{"name":"chair","coordinates":[0.5978672875298394,0.6260797500610351,0.06676038636101617,0.24813466072082518]},{"name":"oven","coordinates":[0.36424903869628905,0.5782706578572591,0.05668171246846517,0.21545039812723796]},{"name":"chair","coordinates":[0.7610201517740885,0.6403120040893555,0.04712343745761448,0.22223947842915853]},{"name":"chair","coordinates":[0.6237222459581163,0.5307154019673666,0.06122815873887804,0.07070832252502442]},{"name":"clock","coordinates":[0.545199457804362,0.29806222915649416,0.02230038907792833,0.04354060888290405]}]}
