{"src":"https://a0.muscache.com/im/pictures/43133472-22aa-452f-8dd4-147df3803c43.jpg?aki_policy=xx_large","name":"Relax Playa","listingId":13731855,"photoId":"191-6","tags":[{"name":"diningtable","coordinates":[0.11826275719536677,0.6998392105102539,0.6263430701361762,0.26793123881022135]},{"name":"oven","coordinates":[0.0831772698296441,0.3716612339019775,0.22936613294813368,0.3165074984232585]},{"name":"chair","coordinates":[0.4594191339280871,0.792692772547404,0.20507259368896485,0.1921757698059082]},{"name":"chair","coordinates":[0.22383080588446724,0.8034995079040527,0.2047573725382487,0.1891372044881185]},{"name":"chair","coordinates":[0.24313618342081705,0.5705463488896688,0.14613925086127388,0.12241959571838379]},{"name":"chair","coordinates":[0.40412233140733506,0.5576953848203023,0.14827889336480035,0.10423470338185628]},{"name":"bottle","coordinates":[0.8296699855062696,0.5659445842107137,0.037040474679734973,0.1720153013865153]},{"name":"wine-glass","coordinates":[0.7756798187891643,0.6095258871714274,0.04217165311177572,0.11673351923624674]},{"name":"clock","coordinates":[0.6256336914168463,0.06266809304555257,0.02501401636335585,0.09376103083292643]},{"name":"bottle","coordinates":[0.5596105370256635,0.34071640570958456,0.015414173073238797,0.045650331179300944]},{"name":"knife","coordinates":[0.40484952727953594,0.2965371350447337,0.014239950974782308,0.03846679131189982]},{"name":"knife","coordinates":[0.4046188043223487,0.3177676101525625,0.0162154926194085,0.028566253185272217]},{"name":"knife","coordinates":[0.39138184653388125,0.29189046422640486,0.010207769605848524,0.033948067824045816]},{"name":"knife","coordinates":[0.38888233171568976,0.2720676938692729,0.00852344963285658,0.033507307370503746]}]}
