{"src":"https://a0.muscache.com/im/pictures/185dc3f1-dd8e-4e17-8a05-685f87b8bf42.jpg?aki_policy=xx_large","name":"Relax Playa","listingId":13731855,"photoId":"191-14","tags":[{"name":"tvmonitor","coordinates":[0.1600805401802063,0.5653405507405599,0.22485001087188722,0.245576540629069]},{"name":"chair","coordinates":[0.7817437648773193,0.6697865168253581,0.13704290390014648,0.26130329767862953]},{"name":"chair","coordinates":[0.6726006984710693,0.6260797500610351,0.0751054346561432,0.24813466072082518]},{"name":"oven","coordinates":[0.4097801685333252,0.5782706578572591,0.06376692652702332,0.21545039812723796]},{"name":"chair","coordinates":[0.8561476707458496,0.6403120040893555,0.05301386713981628,0.22223947842915853]},{"name":"chair","coordinates":[0.7016875267028808,0.5307154019673666,0.0688816785812378,0.07070832252502442]},{"name":"clock","coordinates":[0.6133493900299072,0.29806222915649416,0.025087937712669373,0.04354060888290405]}]}
