{"src":"https://a0.muscache.com/im/pictures/93ed5f48-e32f-4775-a5d9-1428803a9a67.jpg?aki_policy=xx_large","name":"Relax Playa","listingId":13731855,"photoId":"191-7","tags":[{"name":"diningtable","coordinates":[0.1954421361287435,0.5897093454996745,0.451486078898112,0.28522847493489584]},{"name":"sofa","coordinates":[0.7530976719326443,0.3993651549021403,0.2374929428100586,0.3746846834818522]},{"name":"chair","coordinates":[0.2870732413397895,0.6734385172526043,0.233106443617079,0.324456787109375]},{"name":"chair","coordinates":[0.520629342397054,0.6320653915405274,0.14064066145155166,0.3730958302815755]},{"name":"sofa","coordinates":[0.5226300133599175,0.37068721453348796,0.16989483303493924,0.24949878056844074]},{"name":"chair","coordinates":[0.5226300133599175,0.37068721453348796,0.16989483303493924,0.24949878056844074]},{"name":"chair","coordinates":[0.3031919691297743,0.39725332260131835,0.1967646280924479,0.18020826975504559]},{"name":"chair","coordinates":[0.24880910979376897,0.5602917154630025,0.10659095976087782,0.1320675293604533]},{"name":"chair","coordinates":[0.36289632585313586,0.5463324189186096,0.10368851555718316,0.09343224366505941]},{"name":"chair","coordinates":[0.4830084032482571,0.5197431405385335,0.07990045017666286,0.08226372400919596]},{"name":"clock","coordinates":[0.33611719873216417,0.15625513792037965,0.045452488793267146,0.08004448413848878]},{"name":"bottle","coordinates":[0.9199884169631534,0.13215083678563438,0.01925897200902303,0.09111573696136474]},{"name":"bottle","coordinates":[0.8440047383308411,0.1470070441563924,0.0162468777762519,0.0777518113454183]}]}
