{"src":"https://a0.muscache.com/im/pictures/93ed5f48-e32f-4775-a5d9-1428803a9a67.jpg?aki_policy=xx_large","name":"Relax Playa","listingId":13731855,"photoId":"191-7","tags":[{"name":"diningtable","coordinates":[0.4211851755777995,0.7323235829671224,0.451486078898112,0.28522847493489584]},{"name":"sofa","coordinates":[0.8718441433376736,0.5867074966430664,0.2374929428100586,0.3746846834818522]},{"name":"chair","coordinates":[0.403626463148329,0.8356669108072917,0.233106443617079,0.324456787109375]},{"name":"chair","coordinates":[0.5909496731228299,0.8186133066813152,0.14064066145155166,0.3730958302815755]},{"name":"sofa","coordinates":[0.6075774298773872,0.49543660481770835,0.16989483303493924,0.24949878056844074]},{"name":"chair","coordinates":[0.6075774298773872,0.49543660481770835,0.16989483303493924,0.24949878056844074]},{"name":"chair","coordinates":[0.40157428317599825,0.4873574574788411,0.1967646280924479,0.18020826975504559]},{"name":"chair","coordinates":[0.3021045896742079,0.6263254801432292,0.10659095976087782,0.1320675293604533]},{"name":"chair","coordinates":[0.41474058363172744,0.5930485407511393,0.10368851555718316,0.09343224366505941]},{"name":"chair","coordinates":[0.5229586283365886,0.5608750025431315,0.07990045017666286,0.08226372400919596]},{"name":"clock","coordinates":[0.35884344312879773,0.19627737998962402,0.045452488793267146,0.08004448413848878]},{"name":"bottle","coordinates":[0.9296179029676649,0.17770870526631674,0.01925897200902303,0.09111573696136474]},{"name":"bottle","coordinates":[0.852128177218967,0.18588294982910156,0.0162468777762519,0.0777518113454183]}]}
