{"src":"https://a0.muscache.com/im/pictures/e5606ffe-91be-43a8-bcd1-7bfd1ea6e137.jpg?aki_policy=xx_large","name":"Elegant bright apartment Huys &amp; SEA","listingId":13475812,"photoId":"192-1","tags":[{"name":"diningtable","coordinates":[0.3130445624116677,0.7877436319986979,0.3722368249941112,0.43250013987223307]},{"name":"chair","coordinates":[0.2557907794588175,0.8299935022989909,0.17934421558475974,0.2791659990946452]},{"name":"chair","coordinates":[0.4586401551213097,0.7588055928548177,0.13770497384382852,0.2994019826253255]},{"name":"chair","coordinates":[0.5332686994543028,0.7178553263346354,0.06827075900743954,0.20913321177164715]},{"name":"bottle","coordinates":[0.30960288503062183,0.6215941747029622,0.0241280368824101,0.08062252203623453]},{"name":"cup","coordinates":[0.3547397019276068,0.6252543131510416,0.02815152268912924,0.03822692632675171]}]}
