{"src":"https://a0.muscache.com/im/pictures/74b43777-bc1f-4d07-9428-c690582e565a.jpg?aki_policy=xx_large","name":"Private entrance apartment شقه بمدخل خاص حي المروج","listingId":24191467,"photoId":"1920-2","tags":[{"name":"refrigerator","coordinates":[0.21796620686848958,0.6365276972452799,0.4139071570502387,0.7327856699625651]},{"name":"sink","coordinates":[0.4545050726996528,0.8312001546223958,0.11142702102661133,0.08326534430185954]},{"name":"cup","coordinates":[0.749167972140842,0.6198897043863932,0.08391564157274034,0.07342394987742105]},{"name":"cup","coordinates":[0.8292536417643229,0.6254031499226888,0.08238600095113119,0.0680732011795044]},{"name":"bottle","coordinates":[0.6473841773139106,0.6251088460286458,0.05357311036851671,0.09468257427215576]},{"name":"bottle","coordinates":[0.43016912672254776,0.5323434511820475,0.03636755413479275,0.09203505516052246]}]}
