{"src":"https://a0.muscache.com/im/pictures/74b43777-bc1f-4d07-9428-c690582e565a.jpg?aki_policy=xx_large","name":"Private entrance apartment شقه بمدخل خاص حي المروج","listingId":24191467,"photoId":"1920-2","tags":[{"name":"refrigerator","coordinates":[0.011012628343370218,0.27013486226399736,0.4139071570502387,0.7327856699625651]},{"name":"sink","coordinates":[0.39879156218634715,0.789567482471466,0.11142702102661133,0.08326534430185954]},{"name":"cup","coordinates":[0.7072101513544717,0.5831777294476828,0.08391564157274034,0.07342394987742105]},{"name":"cup","coordinates":[0.7880606412887573,0.5913665493329365,0.08238600095113119,0.0680732011795044]},{"name":"bottle","coordinates":[0.6205976221296523,0.5777675588925679,0.05357311036851671,0.09468257427215576]},{"name":"bottle","coordinates":[0.4119853496551514,0.4863259236017863,0.03636755413479275,0.09203505516052246]}]}
