{"src":"https://a0.muscache.com/im/pictures/11693dea-a913-4536-b708-ed2990fc3b12.jpg?aki_policy=xx_large","name":"City View 2 Bedrooms Apartment in Le Hong Phong","listingId":24194567,"photoId":"1921-13","tags":[{"name":"sofa","coordinates":[0.6497326162864239,0.4853205362955729,0.3495311046377198,0.4903481801350911]},{"name":"pottedplant","coordinates":[0.6156264546853918,0.3487552245457967,0.08995590634996845,0.11704039573669434]},{"name":"chair","coordinates":[0.403923093110406,0.3611031691233317,0.06273905082001327,0.1530316988627116]},{"name":"chair","coordinates":[0.4619136587158883,0.36564420064290365,0.05523915410373868,0.13803768157958984]},{"name":"chair","coordinates":[0.3902489906566057,0.35498817761739093,0.037079922668117,0.15280427932739257]},{"name":"remote","coordinates":[0.5957921593966259,0.9110341370105743,0.05857328452107634,0.05754013458887736]},{"name":"chair","coordinates":[0.3893143752159183,0.34782271087169647,0.03856228586691004,0.03217580119768779]},{"name":"chair","coordinates":[0.4395824820218312,0.3435356120268504,0.03818153338844066,0.021100556850433348]}]}
