{"src":"https://a0.muscache.com/im/pictures/11693dea-a913-4536-b708-ed2990fc3b12.jpg?aki_policy=xx_large","name":"City View 2 Bedrooms Apartment in Le Hong Phong","listingId":24194567,"photoId":"1921-13","tags":[{"name":"sofa","coordinates":[0.8244981686052838,0.7304946263631185,0.3495311046377198,0.4903481801350911]},{"name":"pottedplant","coordinates":[0.660604407860376,0.4072754224141439,0.08995590634996845,0.11704039573669434]},{"name":"chair","coordinates":[0.4352926185204126,0.4376190185546875,0.06273905082001327,0.1530316988627116]},{"name":"chair","coordinates":[0.48953323576775765,0.43466304143269857,0.05523915410373868,0.13803768157958984]},{"name":"chair","coordinates":[0.4087889519906642,0.43139031728108723,0.037079922668117,0.15280427932739257]},{"name":"remote","coordinates":[0.625078801657164,0.939804204305013,0.05857328452107634,0.05754013458887736]},{"name":"chair","coordinates":[0.4085955181493733,0.3639106114705404,0.03856228586691004,0.03217580119768779]},{"name":"chair","coordinates":[0.45867324871605153,0.35408589045206706,0.03818153338844066,0.021100556850433348]}]}
