{"src":"https://a0.muscache.com/im/pictures/97b70de9-9476-46b7-86e0-3e2c50c147ab.jpg?aki_policy=xx_large","name":"Квартира с прекрасным расположением","listingId":24210624,"photoId":"1924-2","tags":[{"name":"diningtable","coordinates":[0.03322446346282959,0.5786411444346111,0.4229567527770996,0.39804849624633787]},{"name":"refrigerator","coordinates":[0.4696966767311096,0.2895118395487468,0.21600730419158937,0.5891687393188476]},{"name":"oven","coordinates":[0.7616778492927552,0.6726253032684326,0.23231942653656007,0.31648823420206706]},{"name":"oven","coordinates":[0.6364691078662873,0.6624577522277831,0.1396595358848572,0.33787606557210287]},{"name":"microwave","coordinates":[0.404312390089035,0.4640476981798808,0.08586536645889283,0.08972413539886474]},{"name":"chair","coordinates":[0.25012136101722715,0.5745908319950104,0.09403132200241089,0.049044883251190184]}]}
