{"src":"https://a0.muscache.com/im/pictures/97b70de9-9476-46b7-86e0-3e2c50c147ab.jpg?aki_policy=xx_large","name":"Квартира с прекрасным расположением","listingId":24210624,"photoId":"1924-2","tags":[{"name":"diningtable","coordinates":[0.2447028398513794,0.77766539255778,0.4229567527770996,0.39804849624633787]},{"name":"refrigerator","coordinates":[0.5777003288269043,0.5840962092081706,0.21600730419158937,0.5891687393188476]},{"name":"oven","coordinates":[0.8778375625610352,0.8308694203694661,0.23231942653656007,0.31648823420206706]},{"name":"oven","coordinates":[0.7062988758087159,0.8313957850138346,0.1396595358848572,0.33787606557210287]},{"name":"microwave","coordinates":[0.44724507331848146,0.5089097658793131,0.08586536645889283,0.08972413539886474]},{"name":"chair","coordinates":[0.2971370220184326,0.5991132736206055,0.09403132200241089,0.049044883251190184]}]}
