{"src":"https://a0.muscache.com/im/pictures/80144c08-df67-4c21-ae3f-4910c621b505.jpg?aki_policy=xx_large","name":"纹身师的家","listingId":24272606,"photoId":"1938-5","tags":[{"name":"diningtable","coordinates":[0.5158045874701606,0.7912333170572917,0.8427946302625868,0.4058170000712077]},{"name":"pottedplant","coordinates":[0.5293338775634766,0.4775512377421061,0.23085742526584202,0.283819325764974]},{"name":"chair","coordinates":[0.08344745635986328,0.8585887273152669,0.13627986907958983,0.26578149795532224]},{"name":"chair","coordinates":[0.9394966973198785,0.8587690989176432,0.11386685901217991,0.2769522984822591]},{"name":"chair","coordinates":[0.8436918470594618,0.7154307683308919,0.08392314381069607,0.1562804381052653]},{"name":"chair","coordinates":[0.22839491102430556,0.718707529703776,0.07262249522738987,0.1547899087270101]},{"name":"clock","coordinates":[0.4953782399495443,0.17719826698303223,0.04531381395128038,0.03542396624883016]},{"name":"clock","coordinates":[0.6333243052164713,0.20139133135477702,0.04168866210513645,0.030077614386876426]}]}
