{"src":"https://a0.muscache.com/im/pictures/2d27686a-ef1b-4c1f-bcd3-4acbe2ac01c0.jpg?aki_policy=xx_large","name":"纹身师的家","listingId":24272606,"photoId":"1938-4","tags":[{"name":"tvmonitor","coordinates":[0.5473975499471029,0.3254940748214722,0.36618597242567275,0.21318389574686686]},{"name":"pottedplant","coordinates":[0.03247555626763238,0.7109474380811056,0.18155089484320747,0.13024338881174724]},{"name":"person","coordinates":[0.6854317135281033,0.3565003156661988,0.11021804809570312,0.14075748125712076]},{"name":"sink","coordinates":[0.8021307097540961,0.7893963297208151,0.1810448752509223,0.0760563294092814]},{"name":"knife","coordinates":[0.9189063959651523,0.6975579301516215,0.021211255921257867,0.037994821866353355]},{"name":"knife","coordinates":[0.9409327454037136,0.6963233212629955,0.015163114335801866,0.040566400686899824]}]}
