{"src":"https://a0.muscache.com/im/pictures/66a5dc4b-a233-427a-8d16-a3cc89d2a695.jpg?aki_policy=xx_large","name":"Chic and peaceful flat or room in Moda Kadıköy","listingId":24273880,"photoId":"1939-1","tags":[{"name":"sofa","coordinates":[0.3408236026763916,0.5343602498372396,0.7302408695220948,0.33605012893676756]},{"name":"chair","coordinates":[0.8291460037231445,0.7406315485636393,0.3293968677520752,0.4698388417561849]},{"name":"pottedplant","coordinates":[0.6642439842224122,0.42258825302124026,0.14009560346603395,0.30661716461181643]},{"name":"pottedplant","coordinates":[0.47077369689941406,0.5160648345947265,0.15517544746398926,0.16076086362202963]},{"name":"laptop","coordinates":[0.12248040437698364,0.5908088048299154,0.16608501672744752,0.12443297704060872]},{"name":"vase","coordinates":[0.45610852241516114,0.5874790827433268,0.06905150413513184,0.07678438822428385]},{"name":"cup","coordinates":[0.2631030559539795,0.5692594528198243,0.028197166323661805,0.031167435646057128]},{"name":"remote","coordinates":[0.2631030559539795,0.5692594528198243,0.028197166323661805,0.031167435646057128]}]}
