{"src":"https://a0.muscache.com/im/pictures/66a5dc4b-a233-427a-8d16-a3cc89d2a695.jpg?aki_policy=xx_large","name":"Chic and peaceful flat or room in Moda Kadıköy","listingId":24273880,"photoId":"1939-1","tags":[{"name":"sofa","coordinates":[-0.024296832084655773,0.36633518536885584,0.7302408695220948,0.33605012893676756]},{"name":"chair","coordinates":[0.6644475698471068,0.5057121276855469,0.3293968677520752,0.4698388417561849]},{"name":"pottedplant","coordinates":[0.5941961824893952,0.26927967071533204,0.14009560346603395,0.30661716461181643]},{"name":"pottedplant","coordinates":[0.39318597316741943,0.4356844027837117,0.15517544746398926,0.16076086362202963]},{"name":"laptop","coordinates":[0.03943789601325988,0.528592316309611,0.16608501672744752,0.12443297704060872]},{"name":"vase","coordinates":[0.4215827703475952,0.5490868886311849,0.06905150413513184,0.07678438822428385]},{"name":"cup","coordinates":[0.24900447279214857,0.5536757349967957,0.028197166323661805,0.031167435646057128]},{"name":"remote","coordinates":[0.24900447279214857,0.5536757349967957,0.028197166323661805,0.031167435646057128]}]}
