{"src":"https://a0.muscache.com/im/pictures/be8f9f5c-c3a5-46f3-acb2-9bf2e6b8c44e.jpg?aki_policy=xx_large","name":"Great Apartment Center (Poznan International Fair)","listingId":13748701,"photoId":"194-5","tags":[{"name":"diningtable","coordinates":[0.19943203349106833,0.8001983642578125,0.30178544385376826,0.4302631060282389]},{"name":"chair","coordinates":[0.32363872501548374,0.7988916397094726,0.2017495018716316,0.4284890492757161]},{"name":"teddy-bear","coordinates":[0.6409105239889387,0.18822819391886395,0.0828511976897302,0.12222480773925781]},{"name":"bottle","coordinates":[0.17956411390874913,0.5761873245239257,0.02806439088017619,0.11141672134399414]},{"name":"bottle","coordinates":[0.15175435539744328,0.5754015604654948,0.02548140577547076,0.11406319936116537]}]}
