{"src":"https://a0.muscache.com/im/pictures/be8f9f5c-c3a5-46f3-acb2-9bf2e6b8c44e.jpg?aki_policy=xx_large","name":"Great Apartment Center (Poznan International Fair)","listingId":13748701,"photoId":"194-5","tags":[{"name":"diningtable","coordinates":[0.19929344277981673,0.8001983642578125,0.3015757249907705,0.4302631060282389]},{"name":"chair","coordinates":[0.32341381971665434,0.7988916397094726,0.201609300688955,0.4284890492757161]},{"name":"teddy-bear","coordinates":[0.6404651379403015,0.18822819391886395,0.08279362215276723,0.12222480773925781]},{"name":"bottle","coordinates":[0.179439329951898,0.5761873245239257,0.028044888176298372,0.11141672134399414]},{"name":"bottle","coordinates":[0.15164889719355346,0.5754015604654948,0.025463698057767166,0.11406319936116537]}]}
