{"src":"https://a0.muscache.com/im/pictures/705a09f0-8deb-477c-a40b-e0be92a9766c.jpg?aki_policy=xx_large","name":"Cosy private renovated fishermans cottage near sea","listingId":13485744,"photoId":"194-0","tags":[{"name":"diningtable","coordinates":[0.705641508102417,0.7291911443074545,0.4052030086517334,0.49755096435546875]},{"name":"chair","coordinates":[0.8008510589599609,0.7787211736043295,0.20208361148834228,0.4351158142089844]},{"name":"chair","coordinates":[0.5616696357727051,0.6853514353434245,0.1488931655883789,0.4480812390645345]},{"name":"oven","coordinates":[0.16550577878952027,0.4780333201090495,0.08709260821342468,0.43676878611246744]},{"name":"oven","coordinates":[0.16696144342422486,0.35785500208536786,0.08491896986961364,0.1642016092936198]},{"name":"bottle","coordinates":[0.7912412643432617,0.5120359102884928,0.017651933431625366,0.10193138122558594]}]}
