{"src":"https://a0.muscache.com/im/pictures/e2b40793-8858-43c6-a976-aa130c10fd6b.jpg?aki_policy=xx_large","name":"Tree Tops","listingId":24294248,"photoId":"1942-1","tags":[{"name":"diningtable","coordinates":[0.3377310858832465,0.7211912155151368,0.3915194193522135,0.431395149230957]},{"name":"refrigerator","coordinates":[0.16259976492987738,0.5187215805053711,0.14676331414116753,0.4806044260660807]},{"name":"chair","coordinates":[0.24801688724093968,0.8313936869303385,0.17136642667982313,0.34137261708577477]},{"name":"chair","coordinates":[0.38948198954264324,0.8419518788655599,0.1615028805202908,0.27815999984741213]},{"name":"chair","coordinates":[0.025504697693718804,0.8943810780843099,0.049894126256306966,0.21699601809183758]},{"name":"microwave","coordinates":[0.43670175340440537,0.25948562622070315,0.08454719649420844,0.08749365011850993]},{"name":"sink","coordinates":[0.6056086222330729,0.44050623575846354,0.10427638159857856,0.03134121298789978]}]}
