{"src":"https://a0.muscache.com/im/pictures/f12b31e2-da4e-4551-b727-7c90f78b697d.jpg?aki_policy=xx_large","name":"Flat Beira Mar com Estrutura Completa Piedade PE","listingId":24302618,"photoId":"1943-5","tags":[{"name":"chair","coordinates":[0.14408652782440184,0.8271095911661784,0.2098907709121704,0.3244509696960449]},{"name":"diningtable","coordinates":[0.20291237831115722,0.6091071446736653,0.2646889925003052,0.1361836274464925]},{"name":"vase","coordinates":[0.44036140441894533,0.8327410380045573,0.04677961468696594,0.21899606386820475]},{"name":"chair","coordinates":[0.10431938171386719,0.5467678070068359,0.07690196633338928,0.09750793774922689]},{"name":"pottedplant","coordinates":[0.2002105951309204,0.5656665802001953,0.06291539669036865,0.08343522548675537]}]}
