{"src":"https://a0.muscache.com/im/pictures/32c9536b-ff88-4e3c-81ff-5b92df8681ba.jpg?aki_policy=xx_large","name":"Home Sweet Home","listingId":13755216,"photoId":"195-9","tags":[{"name":"sofa","coordinates":[0.012222925821940067,0.6321407159169515,0.9798466152615017,0.3678315798441569]},{"name":"diningtable","coordinates":[0.015520222981770804,0.5470646460851034,0.5743930392795139,0.17831918398539226]},{"name":"refrigerator","coordinates":[0.007308477825588647,0.3289104382197062,0.10306625366210938,0.23444685935974122]},{"name":"chair","coordinates":[0.1741373380025228,0.5870326876640319,0.2070415284898546,0.10070154666900635]},{"name":"chair","coordinates":[0.3762785646650526,0.5810128688812256,0.17019711600409615,0.079088560740153]},{"name":"chair","coordinates":[0.09880371623569063,0.5280866742134094,0.15317648781670465,0.050024135907491045]},{"name":"chair","coordinates":[0.25528705384996203,0.5196445763111114,0.12141585879855686,0.05027815898259481]},{"name":"chair","coordinates":[0.5750638829337227,0.5289869705835978,0.07065105968051487,0.08397959073384603]}]}
