{"src":"https://a0.muscache.com/im/pictures/49c47f58-ccc8-4f64-900c-c10b84cbb22f.jpg?aki_policy=xx_large","name":"Home Sweet Home","listingId":13755216,"photoId":"195-16","tags":[{"name":"sink","coordinates":[0.5759861416286893,0.5212776104609171,0.4201270209418403,0.23307687441507977]},{"name":"toilet","coordinates":[0.20699759589301214,0.4549641132354736,0.231695556640625,0.3846152305603027]},{"name":"pottedplant","coordinates":[0.022557380464341907,0.5502642790476481,0.11780567169189453,0.06771523157755534]},{"name":"bottle","coordinates":[0.039276414447360575,0.6687382102012634,0.055605708228217234,0.10256798267364502]},{"name":"bottle","coordinates":[0.7982844511667888,0.442187237739563,0.04646122190687391,0.0898297150929769]},{"name":"bottle","coordinates":[0.8207158168156942,0.43278278509775797,0.042419650819566515,0.08400890032450357]}]}
