{"src":"https://a0.muscache.com/im/pictures/789722c0-1afd-447b-815a-62de0332090d.jpg?aki_policy=xx_large","name":"Home Sweet Home","listingId":13755216,"photoId":"195-2","tags":[{"name":"pottedplant","coordinates":[-0.01236594915390013,0.2331096172332764,0.3673033475875854,0.521430492401123]},{"name":"sofa","coordinates":[0.6676649332046509,0.6291476249694824,0.29436659812927246,0.323924191792806]},{"name":"chair","coordinates":[0.6676649332046509,0.6291476249694824,0.29436659812927246,0.323924191792806]},{"name":"sofa","coordinates":[0.1389474153518677,0.6179116090138753,0.27411956787109376,0.2962573687235514]},{"name":"chair","coordinates":[0.1389474153518677,0.6179116090138753,0.27411956787109376,0.2962573687235514]},{"name":"tvmonitor","coordinates":[0.434082555770874,0.5121175527572632,0.19705400466918946,0.16351526578267414]},{"name":"chair","coordinates":[0.4658019542694092,0.690937089920044,0.12578554153442384,0.1515498161315918]},{"name":"clock","coordinates":[0.5368257701396941,0.32215564648310346,0.07029787302017212,0.07738123734792074]},{"name":"vase","coordinates":[0.1107054591178894,0.6201078057289123,0.0389939546585083,0.08082778453826904]}]}
