{"src":"https://a0.muscache.com/im/pictures/49c47f58-ccc8-4f64-900c-c10b84cbb22f.jpg?aki_policy=xx_large","name":"Home Sweet Home","listingId":13755216,"photoId":"195-14","tags":[{"name":"sink","coordinates":[0.7860496520996094,0.637816047668457,0.4201270209418403,0.23307687441507977]},{"name":"toilet","coordinates":[0.32284537421332465,0.647271728515625,0.231695556640625,0.3846152305603027]},{"name":"pottedplant","coordinates":[0.08146021631028917,0.5841218948364257,0.11780567169189453,0.06771523157755534]},{"name":"bottle","coordinates":[0.06707926856146919,0.7200222015380859,0.055605708228217234,0.10256798267364502]},{"name":"bottle","coordinates":[0.8215150621202257,0.4871020952860514,0.04646122190687391,0.0898297150929769]},{"name":"bottle","coordinates":[0.8419256422254774,0.47478723526000977,0.042419650819566515,0.08400890032450357]}]}
