{"src":"https://a0.muscache.com/im/pictures/789722c0-1afd-447b-815a-62de0332090d.jpg?aki_policy=xx_large","name":"Home Sweet Home","listingId":13755216,"photoId":"195-2","tags":[{"name":"pottedplant","coordinates":[0.17128572463989258,0.4938248634338379,0.3673033475875854,0.521430492401123]},{"name":"sofa","coordinates":[0.8148482322692872,0.7911097208658854,0.29436659812927246,0.323924191792806]},{"name":"chair","coordinates":[0.8148482322692872,0.7911097208658854,0.29436659812927246,0.323924191792806]},{"name":"sofa","coordinates":[0.2760071992874146,0.766040293375651,0.27411956787109376,0.2962573687235514]},{"name":"chair","coordinates":[0.2760071992874146,0.766040293375651,0.27411956787109376,0.2962573687235514]},{"name":"tvmonitor","coordinates":[0.5326095581054687,0.5938751856486003,0.19705400466918946,0.16351526578267414]},{"name":"chair","coordinates":[0.5286947250366211,0.7667119979858399,0.12578554153442384,0.1515498161315918]},{"name":"clock","coordinates":[0.5719747066497802,0.3608462651570638,0.07029787302017212,0.07738123734792074]},{"name":"vase","coordinates":[0.13020243644714355,0.6605216979980468,0.0389939546585083,0.08082778453826904]}]}
