{"src":"https://a0.muscache.com/im/pictures/fc914bed-f072-4dae-98df-381c514c9f67.jpg?aki_policy=xx_large","name":"\"La Chiglia\" Monolocale in centro storico a Genova","listingId":24345877,"photoId":"1952-2","tags":[{"name":"bed","coordinates":[0.7883803473578559,0.8729313532511394,0.4056421067979601,0.24425177574157714]},{"name":"sofa","coordinates":[0.7883803473578559,0.8729313532511394,0.4056421067979601,0.24425177574157714]},{"name":"chair","coordinates":[0.5519508785671658,0.8330050150553385,0.14194597668117948,0.3028143882751465]},{"name":"chair","coordinates":[0.6612318674723308,0.7540858586629232,0.11870481703016493,0.23521504402160645]},{"name":"chair","coordinates":[0.45435481601291233,0.7738574981689453,0.08351632754007975,0.29257736206054685]},{"name":"diningtable","coordinates":[0.555135006374783,0.6937688827514649,0.20218427446153428,0.12031866709391276]},{"name":"vase","coordinates":[0.8000218709309895,0.3240676244099935,0.0717647287580702,0.1320625384648641]},{"name":"clock","coordinates":[0.07174640231662327,0.17074645360310872,0.07181218994988335,0.1007260004679362]},{"name":"bottle","coordinates":[0.0859707514444987,0.40860233306884763,0.022874246703253852,0.08003111680348714]},{"name":"cup","coordinates":[0.12416559855143229,0.6048317591349284,0.02995299498240153,0.034406518936157225]},{"name":"cup","coordinates":[0.6072120242648654,0.663453737894694,0.02736738787757026,0.03681501547495524]},{"name":"cup","coordinates":[0.5046678331163195,0.6599402109781901,0.022468513912624784,0.029977647463480632]}]}
