{"src":"https://a0.muscache.com/im/pictures/fc914bed-f072-4dae-98df-381c514c9f67.jpg?aki_policy=xx_large","name":"\"La Chiglia\" Monolocale in centro storico a Genova","listingId":24345877,"photoId":"1952-2","tags":[{"name":"bed","coordinates":[0.5855592939588758,0.7508054653803508,0.4056421067979601,0.24425177574157714]},{"name":"sofa","coordinates":[0.5855592939588758,0.7508054653803508,0.4056421067979601,0.24425177574157714]},{"name":"chair","coordinates":[0.4809778902265761,0.6815978209177653,0.14194597668117948,0.3028143882751465]},{"name":"chair","coordinates":[0.6018794589572483,0.63647833665212,0.11870481703016493,0.23521504402160645]},{"name":"chair","coordinates":[0.41259665224287245,0.627568817138672,0.08351632754007975,0.29257736206054685]},{"name":"diningtable","coordinates":[0.4540428691440158,0.6336095492045085,0.20218427446153428,0.12031866709391276]},{"name":"vase","coordinates":[0.7641395065519544,0.2580363551775614,0.0717647287580702,0.1320625384648641]},{"name":"clock","coordinates":[0.035840307341681595,0.12038345336914062,0.07181218994988335,0.1007260004679362]},{"name":"bottle","coordinates":[0.07453362809287177,0.36858677466710404,0.022874246703253852,0.08003111680348714]},{"name":"cup","coordinates":[0.10918910106023152,0.5876284996668497,0.02995299498240153,0.034406518936157225]},{"name":"cup","coordinates":[0.5935283303260803,0.6450462301572164,0.02736738787757026,0.03681501547495524]},{"name":"cup","coordinates":[0.49343357616000705,0.6449513872464498,0.022468513912624784,0.029977647463480632]}]}
