{"src":"https://a0.muscache.com/im/pictures/a5cbf598-ac15-4617-bb76-175cb0b4f232.jpg?aki_policy=xx_large","name":"\"La Chiglia\" Monolocale in centro storico a Genova","listingId":24345877,"photoId":"1952-1","tags":[{"name":"diningtable","coordinates":[0.237540774875217,0.6923646767934164,0.3866695827907986,0.2741328239440918]},{"name":"bed","coordinates":[0.8225687503814697,0.6320843855539957,0.17441121207343208,0.3810646375020345]},{"name":"chair","coordinates":[0.7120336055755615,0.6000595251719157,0.16067145665486654,0.4121215502421061]},{"name":"chair","coordinates":[0.11432321336534287,0.7904141743977865,0.17496905856662326,0.20362892150878906]},{"name":"chair","coordinates":[0.2128970570034451,0.6331341822942098,0.14892923567030164,0.21312197049458823]},{"name":"chair","coordinates":[0.48732210265265574,0.7889297803243002,0.14475454754299588,0.20046634674072267]},{"name":"cup","coordinates":[0.3089584562513563,0.720615824063619,0.06715829637315539,0.07119104067484537]},{"name":"bowl","coordinates":[0.4020204491085476,0.6674132605393728,0.07323588265313043,0.041663753986358645]},{"name":"cup","coordinates":[0.49218418863084584,0.6746843715508779,0.044620354970296226,0.060291850566864015]},{"name":"orange","coordinates":[0.4115652071105109,0.671101180712382,0.040500092506408694,0.028776184717814127]},{"name":"orange","coordinates":[0.4410451306237115,0.663595375418663,0.03178472518920898,0.029305424292882284]}]}
