{"src":"https://a0.muscache.com/im/pictures/1b86f194-2785-435e-967b-9eec33a09ad5.jpg?aki_policy=xx_large","name":"\"La Chiglia\" Monolocale in centro storico a Genova","listingId":24345877,"photoId":"1952-3","tags":[{"name":"diningtable","coordinates":[0.47035980224609375,0.6996164321899414,0.8893919203016493,0.5802510579427084]},{"name":"chair","coordinates":[0.6032697041829427,0.34065837860107423,0.33608023325602215,0.24509201049804688]},{"name":"cup","coordinates":[0.20347705417209203,0.6842994054158529,0.2547151353624132,0.2823435147603353]},{"name":"bowl","coordinates":[0.3663497077094184,0.4828339576721191,0.29496606190999347,0.21607422828674316]},{"name":"cup","coordinates":[0.6817996554904514,0.5671689351399739,0.17598615222507052,0.23856484095255534]},{"name":"banana","coordinates":[0.2825042936537001,0.3964440663655599,0.15876587761773003,0.12858983675638835]},{"name":"orange","coordinates":[0.4072414822048611,0.3728692054748535,0.12564142015245225,0.15665874481201172]},{"name":"apple","coordinates":[0.37993414137098525,0.2308130423227946,0.1161815537346734,0.1561169465382894]}]}
