{"src":"https://a0.muscache.com/im/pictures/a5cbf598-ac15-4617-bb76-175cb0b4f232.jpg?aki_policy=xx_large","name":"\"La Chiglia\" Monolocale in centro storico a Genova","listingId":24345877,"photoId":"1952-1","tags":[{"name":"diningtable","coordinates":[0.4308755662706163,0.8294310887654622,0.3866695827907986,0.2741328239440918]},{"name":"bed","coordinates":[0.9097743564181857,0.822616704305013,0.17441121207343208,0.3810646375020345]},{"name":"chair","coordinates":[0.7923693339029948,0.8061203002929688,0.16067145665486654,0.4121215502421061]},{"name":"chair","coordinates":[0.2018077426486545,0.892228635152181,0.17496905856662326,0.20362892150878906]},{"name":"chair","coordinates":[0.2873616748385959,0.7396951675415039,0.14892923567030164,0.21312197049458823]},{"name":"chair","coordinates":[0.5596993764241537,0.8891629536946615,0.14475454754299588,0.20046634674072267]},{"name":"cup","coordinates":[0.342537604437934,0.7562113444010417,0.06715829637315539,0.07119104067484537]},{"name":"bowl","coordinates":[0.4386383904351128,0.6882451375325521,0.07323588265313043,0.041663753986358645]},{"name":"cup","coordinates":[0.514494366115994,0.7048302968343099,0.044620354970296226,0.060291850566864015]},{"name":"orange","coordinates":[0.4318152533637153,0.685489273071289,0.040500092506408694,0.028776184717814127]},{"name":"orange","coordinates":[0.45693749321831595,0.6782480875651041,0.03178472518920898,0.029305424292882284]}]}
