{"src":"https://a0.muscache.com/im/pictures/1b86f194-2785-435e-967b-9eec33a09ad5.jpg?aki_policy=xx_large","name":"\"La Chiglia\" Monolocale in centro storico a Genova","listingId":24345877,"photoId":"1952-3","tags":[{"name":"diningtable","coordinates":[0.025663842095269118,0.4094909032185872,0.8893919203016493,0.5802510579427084]},{"name":"chair","coordinates":[0.4352295875549316,0.2181123733520508,0.33608023325602215,0.24509201049804688]},{"name":"cup","coordinates":[0.07611948649088543,0.5431276480356853,0.2547151353624132,0.2823435147603353]},{"name":"bowl","coordinates":[0.21886667675442165,0.37479684352874754,0.29496606190999347,0.21607422828674316]},{"name":"cup","coordinates":[0.5938065793779161,0.4478865146636962,0.17598615222507052,0.23856484095255534]},{"name":"banana","coordinates":[0.2031213548448351,0.3321491479873657,0.15876587761773003,0.12858983675638835]},{"name":"orange","coordinates":[0.344420772128635,0.2945398330688477,0.12564142015245225,0.15665874481201172]},{"name":"apple","coordinates":[0.32184336450364853,0.1527545690536499,0.1161815537346734,0.1561169465382894]}]}
