{"src":"https://a0.muscache.com/im/pictures/ee864a88-0f2a-4427-a1fb-8bb658e5ba83.jpg?aki_policy=xx_large","name":"Joanna&amp;Alex Cosy Apartment","listingId":24361131,"photoId":"1954-2","tags":[{"name":"diningtable","coordinates":[0.5234946250915528,0.6942953745524089,0.8350414276123047,0.565868886311849]},{"name":"chair","coordinates":[0.8651553153991699,0.5882308324178059,0.19654046297073363,0.3603445370992025]},{"name":"chair","coordinates":[0.1723799467086792,0.6188287734985352,0.16445276737213135,0.38677978515625]},{"name":"chair","coordinates":[0.5837846279144288,0.9344205856323242,0.40455241203308107,0.12834758758544923]},{"name":"pottedplant","coordinates":[0.5659134387969971,0.26753257115681967,0.2137917995452881,0.23110825220743816]},{"name":"chair","coordinates":[0.2445221185684204,0.48910462061564125,0.12624022960662842,0.25243824323018393]},{"name":"chair","coordinates":[0.30270562171936033,0.4304955800374349,0.0713120937347412,0.19158425331115722]},{"name":"bowl","coordinates":[0.5238952159881591,0.5228464126586914,0.14799482822418214,0.08808198769887289]},{"name":"pottedplant","coordinates":[0.4752525329589844,0.3512924830118815,0.06476067304611206,0.09759090741475424]}]}
