{"src":"https://a0.muscache.com/im/pictures/a939f152-1363-4ac3-a47e-07efdca469e3.jpg?aki_policy=xx_large","name":"Joanna&amp;Alex Cosy Apartment","listingId":24361131,"photoId":"1954-2","tags":[{"name":"sofa","coordinates":[0.6263273239135743,0.6721524715423584,0.3619848251342773,0.2911436398824056]},{"name":"diningtable","coordinates":[0.3451149702072144,0.6922132809956868,0.3499631404876709,0.2828976313273112]},{"name":"sofa","coordinates":[0.11933412551879885,0.7064645608266196,0.323505163192749,0.2751550356547038]},{"name":"chair","coordinates":[0.11933412551879885,0.7064645608266196,0.323505163192749,0.2751550356547038]},{"name":"sofa","coordinates":[0.5609218597412109,0.6216614484786988,0.3443140029907227,0.1937295118967692]},{"name":"tvmonitor","coordinates":[0.22462544441223148,0.4124551296234131,0.13681302070617676,0.16803134282430013]}]}
