{"src":"https://a0.muscache.com/im/pictures/a939f152-1363-4ac3-a47e-07efdca469e3.jpg?aki_policy=xx_large","name":"Joanna&amp;Alex Cosy Apartment","listingId":24361131,"photoId":"1954-1","tags":[{"name":"sofa","coordinates":[1.435235087076823,0.8177242914835612,0.6435285780164931,0.2911436398824056]},{"name":"diningtable","coordinates":[0.9246160719129775,0.8336620966593424,0.6221566942003038,0.2828976313273112]},{"name":"sofa","coordinates":[0.4997097015380859,0.8440420786539714,0.5751202901204427,0.2751550356547038]},{"name":"chair","coordinates":[0.4997097015380859,0.8440420786539714,0.5751202901204427,0.2751550356547038]},{"name":"sofa","coordinates":[1.3032513088650173,0.7185262044270834,0.6121137830946181,0.1937295118967692]},{"name":"tvmonitor","coordinates":[0.5209456973605686,0.4964708010355631,0.24322314792209201,0.16803134282430013]}]}
