{"src":"https://a0.muscache.com/im/pictures/a939f152-1363-4ac3-a47e-07efdca469e3.jpg?aki_policy=xx_large","name":"Joanna&amp;Alex Cosy Apartment","listingId":24361131,"photoId":"1954-1","tags":[{"name":"sofa","coordinates":[0.8073197364807129,0.8177242914835612,0.3619848251342773,0.2911436398824056]},{"name":"diningtable","coordinates":[0.5200965404510498,0.8336620966593424,0.3499631404876709,0.2828976313273112]},{"name":"sofa","coordinates":[0.28108670711517336,0.8440420786539714,0.323505163192749,0.2751550356547038]},{"name":"chair","coordinates":[0.28108670711517336,0.8440420786539714,0.323505163192749,0.2751550356547038]},{"name":"sofa","coordinates":[0.7330788612365723,0.7185262044270834,0.3443140029907227,0.1937295118967692]},{"name":"tvmonitor","coordinates":[0.29303195476531985,0.4964708010355631,0.13681302070617676,0.16803134282430013]}]}
