{"src":"https://a0.muscache.com/im/pictures/ae33e513-1ea0-4aa9-8fd9-056c5d611ac4.jpg?aki_policy=xx_large","name":"Charming bright and clean room near the beach","listingId":13509056,"photoId":"196-5","tags":[{"name":"oven","coordinates":[0.5830646514892578,0.5790255864461263,0.16775577068328856,0.11317397753397623]},{"name":"microwave","coordinates":[0.5194588661193847,0.4358354568481445,0.14508769512176514,0.12635326385498047]},{"name":"pottedplant","coordinates":[0.12002099752426147,0.48866202036539713,0.06591672897338867,0.07687189579010009]},{"name":"sink","coordinates":[0.3602026700973511,0.49374891916910807,0.11712275743484497,0.028105632464090983]},{"name":"bottle","coordinates":[0.3371076822280884,0.4562428792317708,0.017374394834041594,0.05364083449045817]}]}
