{"src":"https://a0.muscache.com/im/pictures/01cfbc97-1cd9-4f2c-b3d6-2719c9c86e57.jpg?aki_policy=xx_large","name":"地铁口时尚复式loft，木渎灵岩山天平山旁享受自然","listingId":24399684,"photoId":"1961-1","tags":[{"name":"chair","coordinates":[0.6072391351064046,0.6393270492553711,0.15698525110880535,0.3603302001953125]},{"name":"bowl","coordinates":[0.02769061194525825,0.48910425901412957,0.15143956078423393,0.0677837610244751]},{"name":"sink","coordinates":[0.48301694128248424,0.5078167617321014,0.11928589079115126,0.028407283624013267]},{"name":"bottle","coordinates":[0.45910838180118135,0.4299585819244385,0.016583447986178928,0.07222528457641601]},{"name":"cup","coordinates":[0.6920377492904664,0.4258729338645935,0.022409317228529187,0.04857450326283773]},{"name":"knife","coordinates":[0.2000496354367998,0.4184941778580348,0.012091102865007189,0.028697679440180462]},{"name":"knife","coordinates":[0.4030306124024921,0.43556339939435323,0.00892443193329705,0.035837121804555255]},{"name":"knife","coordinates":[0.3925445208946864,0.43661994735399884,0.008335522148344252,0.03399054606755574]}]}
