{"src":"https://a0.muscache.com/im/pictures/3a75dfc6-20b1-44dd-8943-5c7eb7fcc797.jpg?aki_policy=xx_large","name":"Private bedroom inside brand new 5 bedroom home","listingId":24400965,"photoId":"1962-1","tags":[{"name":"diningtable","coordinates":[0.42849663628472223,0.6988836288452148,0.5199985504150391,0.5746018727620442]},{"name":"chair","coordinates":[0.2531396230061849,0.7451645533243815,0.2204318576388889,0.5444115320841472]},{"name":"chair","coordinates":[0.5268678029378255,0.7421193440755208,0.21195555792914497,0.5349531173706055]},{"name":"chair","coordinates":[0.6777225070529513,0.7093425114949544,0.16097465091281468,0.4970788637797038]},{"name":"refrigerator","coordinates":[0.9383243984646268,0.47164077758789064,0.11885930167304146,0.618275006612142]},{"name":"chair","coordinates":[0.12364702224731446,0.6875844955444336,0.09341208140055339,0.5724285125732422]},{"name":"pottedplant","coordinates":[0.45195299784342446,0.2954766591389974,0.12554426193237306,0.3590504010518392]},{"name":"oven","coordinates":[0.7233538309733073,0.4127397855122884,0.16652278900146483,0.15618217786153157]},{"name":"microwave","coordinates":[0.726137203640408,0.2152516523996989,0.1136545287238227,0.11452316443125407]},{"name":"pottedplant","coordinates":[0.6357281155056423,0.3723656018575033,0.07352948718600803,0.16555453936258951]},{"name":"pottedplant","coordinates":[0.03206341796451145,0.35061238606770834,0.048045306735568574,0.10364792346954346]},{"name":"bowl","coordinates":[0.41685138278537326,0.4379053751627604,0.07610269652472602,0.06448073784510294]},{"name":"wine-glass","coordinates":[0.3749600728352865,0.4648021697998047,0.036697120136684844,0.10722484588623046]},{"name":"wine-glass","coordinates":[0.27271364000108506,0.42576462427775064,0.03370510737101237,0.10746960639953614]},{"name":"vase","coordinates":[0.4475035349527995,0.31730292638142904,0.032449923621283634,0.10453911622365315]},{"name":"pottedplant","coordinates":[0.36083314683702256,0.3322175979614258,0.0428442292743259,0.0711773157119751]},{"name":"vase","coordinates":[0.6273031446668836,0.4206583023071289,0.024792657958136663,0.06879807313283284]},{"name":"wine-glass","coordinates":[0.6273031446668836,0.4206583023071289,0.024792657958136663,0.06879807313283284]},{"name":"vase","coordinates":[0.029699328210618763,0.37399044036865237,0.02843714025285509,0.04131569067637126]}]}
