{"src":"https://a0.muscache.com/im/pictures/3a75dfc6-20b1-44dd-8943-5c7eb7fcc797.jpg?aki_policy=xx_large","name":"Private bedroom inside brand new 5 bedroom home","listingId":24400965,"photoId":"1962-1","tags":[{"name":"diningtable","coordinates":[0.1684973610772027,0.4115826924641927,0.5199985504150391,0.5746018727620442]},{"name":"chair","coordinates":[0.14292369418674047,0.4729587872823079,0.2204318576388889,0.5444115320841472]},{"name":"chair","coordinates":[0.42089002397325304,0.4746427853902181,0.21195555792914497,0.5349531173706055]},{"name":"chair","coordinates":[0.597235181596544,0.46080307960510253,0.16097465091281468,0.4970788637797038]},{"name":"refrigerator","coordinates":[0.878894747628106,0.16250327428181965,0.11885930167304146,0.618275006612142]},{"name":"chair","coordinates":[0.07694098154703777,0.40137023925781246,0.09341208140055339,0.5724285125732422]},{"name":"pottedplant","coordinates":[0.38918086687723796,0.11595145861307779,0.12554426193237306,0.3590504010518392]},{"name":"oven","coordinates":[0.6400924364725749,0.33464869658152263,0.16652278900146483,0.15618217786153157]},{"name":"microwave","coordinates":[0.6693099392784967,0.15799007018407185,0.1136545287238227,0.11452316443125407]},{"name":"pottedplant","coordinates":[0.5989633719126384,0.2895883321762085,0.07352948718600803,0.16555453936258951]},{"name":"pottedplant","coordinates":[0.00804076459672716,0.2987884243329366,0.048045306735568574,0.10364792346954346]},{"name":"bowl","coordinates":[0.37880003452301025,0.40566500624020896,0.07610269652472602,0.06448073784510294]},{"name":"wine-glass","coordinates":[0.3566115127669441,0.41118974685668946,0.036697120136684844,0.10722484588623046]},{"name":"wine-glass","coordinates":[0.25586108631557886,0.37202982107798255,0.03370510737101237,0.10746960639953614]},{"name":"vase","coordinates":[0.4312785731421577,0.26503336826960244,0.032449923621283634,0.10453911622365315]},{"name":"pottedplant","coordinates":[0.33941103219985963,0.2966289401054383,0.0428442292743259,0.0711773157119751]},{"name":"vase","coordinates":[0.6149068156878154,0.3862592657407125,0.024792657958136663,0.06879807313283284]},{"name":"wine-glass","coordinates":[0.6149068156878154,0.3862592657407125,0.024792657958136663,0.06879807313283284]},{"name":"vase","coordinates":[0.015480758084191217,0.3533325950304667,0.02843714025285509,0.04131569067637126]}]}
