{"src":"https://a0.muscache.com/im/pictures/f80be387-225d-42e1-8036-64ebd53c0e6f.jpg?aki_policy=xx_large","name":"Comfy, Convenient Apartment in Sandringham","listingId":24440647,"photoId":"1969-1","tags":[{"name":"diningtable","coordinates":[0.6238497495651245,0.5594366550445556,0.2476733684539795,0.28999967575073243]},{"name":"chair","coordinates":[0.7284152090549469,0.6400991757710774,0.1779910922050476,0.35744075775146483]},{"name":"sofa","coordinates":[0.5229426145553588,0.4044514020284017,0.23407435417175293,0.23084742228190105]},{"name":"sofa","coordinates":[0.38384371995925903,0.3785379449526469,0.17146804332733154,0.12074406147003174]},{"name":"chair","coordinates":[0.5998005419969559,0.5666940689086913,0.06124209761619568,0.32912139892578124]},{"name":"tvmonitor","coordinates":[0.1270391345024109,0.3128334124883016,0.10668866634368897,0.13961726824442547]},{"name":"chair","coordinates":[0.725026422739029,0.3792779763539632,0.07536553144454956,0.10420357386271159]},{"name":"chair","coordinates":[0.7532985806465149,0.5217347860336304,0.09817883968353272,0.06559885342915853]},{"name":"vase","coordinates":[0.8648761808872223,0.5387245019276937,0.0482080340385437,0.10733098983764648]}]}
