{"src":"https://a0.muscache.com/im/pictures/f80be387-225d-42e1-8036-64ebd53c0e6f.jpg?aki_policy=xx_large","name":"Comfy, Convenient Apartment in Sandringham","listingId":24440647,"photoId":"1969-1","tags":[{"name":"diningtable","coordinates":[0.7476864337921143,0.7044364929199218,0.2476733684539795,0.28999967575073243]},{"name":"chair","coordinates":[0.8174107551574707,0.8188195546468099,0.1779910922050476,0.35744075775146483]},{"name":"sofa","coordinates":[0.6399797916412353,0.5198751131693522,0.23407435417175293,0.23084742228190105]},{"name":"sofa","coordinates":[0.4695777416229248,0.43890997568766277,0.17146804332733154,0.12074406147003174]},{"name":"chair","coordinates":[0.6304215908050537,0.731254768371582,0.06124209761619568,0.32912139892578124]},{"name":"tvmonitor","coordinates":[0.18038346767425537,0.3826420466105143,0.10668866634368897,0.13961726824442547]},{"name":"chair","coordinates":[0.7627091884613038,0.431379763285319,0.07536553144454956,0.10420357386271159]},{"name":"chair","coordinates":[0.8023880004882813,0.5545342127482097,0.09817883968353272,0.06559885342915853]},{"name":"vase","coordinates":[0.8889801979064942,0.5923899968465169,0.0482080340385437,0.10733098983764648]}]}
