{"src":"https://a0.muscache.com/im/pictures/43646957/370a2cbb_original.jpg?aki_policy=xx_large","name":"Awesome apartment nearby the sea","listingId":1351919,"photoId":"197-0","tags":[{"name":"chair","coordinates":[0.1724024534225464,0.6432903289794922,0.2465064525604248,0.36057135264078777]},{"name":"chair","coordinates":[0.4017449378967285,0.5218687057495117,0.17467938661575316,0.27068799336751304]},{"name":"tvmonitor","coordinates":[0.8405552864074707,0.45929025014241537,0.1757386803627014,0.13960564931233724]},{"name":"pottedplant","coordinates":[0.26292872428894043,0.4047955195109049,0.07676290273666382,0.16757097244262695]},{"name":"vase","coordinates":[0.2643702507019043,0.4400417963663737,0.029244130849838255,0.09328132470448812]}]}
