{"src":"https://a0.muscache.com/im/pictures/20709943/295f36b5_original.jpg?aki_policy=xx_large","name":"Friendly and quiet room in Prague","listingId":1377061,"photoId":"197-6","tags":[{"name":"diningtable","coordinates":[0.3737383948432075,0.7297537485758464,0.5212518056233724,0.3391979217529297]},{"name":"person","coordinates":[0.7967727661132813,0.5857701619466146,0.21622193654378255,0.4648718516031901]},{"name":"chair","coordinates":[0.5279682159423829,0.8156671524047852,0.31404745313856336,0.31228774388631186]},{"name":"chair","coordinates":[0.2095357682969835,0.7548622767130534,0.27389628092447915,0.31051718393961586]},{"name":"person","coordinates":[0.9592196994357639,0.6718598047892252,0.07642859882778591,0.27457879384358724]},{"name":"chair","coordinates":[0.13261858622233072,0.5838724772135416,0.12034691704644097,0.08986912568410238]},{"name":"bowl","coordinates":[0.3677064683702257,0.5722048441569011,0.10850176281399197,0.0406715194384257]},{"name":"wine-glass","coordinates":[0.45768347846137153,0.5673944473266601,0.03137063185373942,0.031208004554112753]}]}
