{"src":"https://a0.muscache.com/im/pictures/20381567/1dc63d38_original.jpg?aki_policy=xx_large","name":"Awesome apartment nearby the sea","listingId":1351919,"photoId":"197-7","tags":[{"name":"pottedplant","coordinates":[0.16921530961990355,0.802772331237793,0.19468694925308228,0.31908702850341797]},{"name":"chair","coordinates":[0.5111922264099121,0.9475784301757812,0.32964696884155276,0.11207659244537353]},{"name":"vase","coordinates":[0.1703751802444458,0.8690665562947592,0.08374581336975098,0.1276700019836426]},{"name":"car","coordinates":[0.8385187149047851,0.5052128473917643,0.10863300561904907,0.05787961880366008]},{"name":"car","coordinates":[0.22621240615844726,0.4767237663269043,0.04081616401672363,0.06497470140457154]}]}
