{"src":"https://a0.muscache.com/im/pictures/20709943/295f36b5_original.jpg?aki_policy=xx_large","name":"Friendly and quiet room in Prague","listingId":1377061,"photoId":"197-6","tags":[{"name":"diningtable","coordinates":[0.2102278470993042,0.7297537485758464,0.293204140663147,0.3391979217529297]},{"name":"person","coordinates":[0.4481846809387207,0.5857701619466146,0.12162483930587768,0.4648718516031901]},{"name":"chair","coordinates":[0.29698212146759034,0.8156671524047852,0.1766516923904419,0.31228774388631186]},{"name":"chair","coordinates":[0.11786386966705323,0.7548622767130534,0.15406665802001954,0.31051718393961586]},{"name":"person","coordinates":[0.5395610809326172,0.6718598047892252,0.04299108684062958,0.27457879384358724]},{"name":"chair","coordinates":[0.07459795475006104,0.5838724772135416,0.06769514083862305,0.08986912568410238]},{"name":"bowl","coordinates":[0.20683488845825196,0.5722048441569011,0.06103224158287048,0.0406715194384257]},{"name":"wine-glass","coordinates":[0.2574469566345215,0.5673944473266601,0.017645980417728423,0.031208004554112753]}]}
