{"src":"https://a0.muscache.com/im/pictures/20709943/295f36b5_original.jpg?aki_policy=xx_large","name":"Friendly and quiet room in Prague","listingId":1377061,"photoId":"197-6","tags":[{"name":"diningtable","coordinates":[0.1131124920315213,0.5601547876993815,0.5212518056233724,0.3391979217529297]},{"name":"person","coordinates":[0.68866179784139,0.3533342361450195,0.21622193654378255,0.4648718516031901]},{"name":"chair","coordinates":[0.3709444893731012,0.6595232804616292,0.31404745313856336,0.31228774388631186]},{"name":"chair","coordinates":[0.07258762783474393,0.5996036847432454,0.27389628092447915,0.31051718393961586]},{"name":"person","coordinates":[0.9210054000218709,0.5345704078674316,0.07642859882778591,0.27457879384358724]},{"name":"chair","coordinates":[0.07244512769911024,0.5389379143714904,0.12034691704644097,0.08986912568410238]},{"name":"bowl","coordinates":[0.3134555869632297,0.5518690844376882,0.10850176281399197,0.0406715194384257]},{"name":"wine-glass","coordinates":[0.4419981625345018,0.5517904450496037,0.03137063185373942,0.031208004554112753]}]}
