{"src":"https://a0.muscache.com/im/pictures/36c79b98-ed0f-49f7-b0e2-a301a1314082.jpg?aki_policy=xx_large","name":"Habitación N°5 en “Posada Del Cerro”","listingId":24452132,"photoId":"1971-7","tags":[{"name":"diningtable","coordinates":[0.6640732235378689,0.8055411020914713,0.6102982838948567,0.3627793312072754]},{"name":"diningtable","coordinates":[0.26555731031629776,0.6416138966878255,0.322959476047092,0.28611367543538413]},{"name":"chair","coordinates":[0.1277921676635742,0.6707573572794596,0.28004974789089626,0.30372864405314126]},{"name":"tvmonitor","coordinates":[0.8675459120008681,0.17997411092122395,0.26545590294731986,0.22399608294169107]},{"name":"chair","coordinates":[0.364607662624783,0.6286551793416341,0.17559901343451606,0.2986067454020182]},{"name":"chair","coordinates":[0.3371984905666775,0.4776591936747233,0.12293455335828993,0.0681752363840739]},{"name":"chair","coordinates":[0.05174682405259874,0.5069140752156576,0.10938395394219293,0.06825663248697916]},{"name":"bowl","coordinates":[0.7626011318630642,0.7027870814005533,0.10624595218234592,0.07015329202016195]},{"name":"cup","coordinates":[0.6692543029785156,0.772240956624349,0.0973256958855523,0.0747265338897705]},{"name":"cup","coordinates":[0.7332653469509549,0.6453103383382162,0.08110778066847059,0.051286621888478594]}]}
