{"src":"https://a0.muscache.com/im/pictures/1f92231a-ebee-41ee-958b-cd178d689b62.jpg?aki_policy=xx_large","name":"Studio near to central Helsinki","listingId":24485128,"photoId":"1976-4","tags":[{"name":"oven","coordinates":[0.5481813430786132,0.5469205061594645,0.20807867050170897,0.3423237164815267]},{"name":"diningtable","coordinates":[0.7877277135848999,0.7435006539026896,0.2100893497467041,0.2552062829335531]},{"name":"chair","coordinates":[0.7877277135848999,0.7435006539026896,0.2100893497467041,0.2552062829335531]},{"name":"microwave","coordinates":[0.732684051990509,0.17451788584391276,0.17832620143890382,0.1566348393758138]},{"name":"clock","coordinates":[0.23708652853965761,0.08709360758463541,0.0714849591255188,0.1429436683654785]},{"name":"sink","coordinates":[0.08839387893676756,0.540920341014862,0.19147439002990724,0.04232237339019775]}]}
