{"src":"https://a0.muscache.com/im/pictures/f3615874-9522-42a2-8c27-f8e46194b1c8.jpg?aki_policy=xx_large","name":"Sua casa em Sorocaba","listingId":24498935,"photoId":"1978-2","tags":[{"name":"toilet","coordinates":[0.43476421833038326,0.7102486928304036,0.22513346672058104,0.2627457936604818]},{"name":"sink","coordinates":[0.030037140846252447,0.42542313734690346,0.263934326171875,0.21774134635925294]},{"name":"pottedplant","coordinates":[0.7074014484882355,0.16279830932617187,0.1463124632835388,0.17224769592285155]},{"name":"vase","coordinates":[0.26153627783060074,0.44795088370641073,0.036159631609916684,0.09418313503265381]},{"name":"bottle","coordinates":[0.2927059054374695,0.49407068490982053,0.03280947208404541,0.0847328265508016]}]}
