{"src":"https://a0.muscache.com/im/pictures/f3615874-9522-42a2-8c27-f8e46194b1c8.jpg?aki_policy=xx_large","name":"Sua casa em Sorocaba","listingId":24498935,"photoId":"1978-2","tags":[{"name":"toilet","coordinates":[0.5473309516906738,0.8416215896606445,0.22513346672058104,0.2627457936604818]},{"name":"sink","coordinates":[0.16200430393218995,0.5342938105265299,0.263934326171875,0.21774134635925294]},{"name":"pottedplant","coordinates":[0.7805576801300049,0.24892215728759765,0.1463124632835388,0.17224769592285155]},{"name":"vase","coordinates":[0.27961609363555906,0.49504245122273766,0.036159631609916684,0.09418313503265381]},{"name":"bottle","coordinates":[0.3091106414794922,0.5364370981852213,0.03280947208404541,0.0847328265508016]}]}
