{"src":"https://a0.muscache.com/im/pictures/c44d6ccf-5a64-45a9-8628-47a87c514922.jpg?aki_policy=xx_large","name":"PROMO karyaSUITE @ I-City Shah Alam [3 pax]","listingId":24503810,"photoId":"1979-1","tags":[{"name":"diningtable","coordinates":[0.03614692687988286,0.6555914878845215,0.9519779205322265,0.34412873586018883]},{"name":"sofa","coordinates":[0.11140575408935546,0.48188141187032063,0.2699246883392334,0.28985363642374673]},{"name":"chair","coordinates":[0.11140575408935546,0.48188141187032063,0.2699246883392334,0.28985363642374673]},{"name":"vase","coordinates":[0.3455661773681641,0.6437826951344807,0.14142227172851562,0.3449747403462728]},{"name":"cup","coordinates":[0.024526518583297727,0.7443634430567423,0.15944451093673706,0.25187891324361167]},{"name":"cup","coordinates":[0.6369019865989685,0.814662512143453,0.20398991107940673,0.17636090914408367]},{"name":"bowl","coordinates":[0.26434434652328487,0.7108535051345826,0.13353126049041747,0.14581325848897297]},{"name":"tvmonitor","coordinates":[0.6467762708663941,0.3996105750401815,0.11138501167297363,0.1719651699066162]},{"name":"fork","coordinates":[0.5099793076515198,0.7828157583872477,0.07971799373626709,0.0793669064839681]},{"name":"vase","coordinates":[0.7736044615507126,0.4830726067225138,0.02515788674354553,0.10905531247456869]},{"name":"spoon","coordinates":[0.18413672894239425,0.8288923660914104,0.03519758284091949,0.07360870043436686]}]}
