{"src":"https://a0.muscache.com/im/pictures/9fbfe2a5-8286-4180-9462-c87af36d17ba.jpg?aki_policy=xx_large","name":"PROMO karyaSUITE @ I-City Shah Alam [3 pax]","listingId":24503810,"photoId":"1979-1","tags":[{"name":"diningtable","coordinates":[0.2555851936340332,0.7886383692423503,0.38089900016784667,0.41086540222167967]},{"name":"chair","coordinates":[0.4272746562957764,0.7988007863362631,0.2928220510482788,0.40031506220499674]},{"name":"chair","coordinates":[0.13594408035278321,0.7799032847086589,0.19994823932647704,0.4051292101542155]},{"name":"vase","coordinates":[0.25282676219940187,0.5900859196980794,0.025221729278564455,0.09731566905975342]},{"name":"cup","coordinates":[0.1822439193725586,0.6114496866861979,0.0352079838514328,0.05375525156656901]}]}
