{"src":"https://a0.muscache.com/im/pictures/6a955524-e1fc-47d2-ab99-48aaeae492fc.jpg?aki_policy=xx_large","name":"Wonderful Bright Beach Apartment - Clear Sea View","listingId":13543111,"photoId":"198-0","tags":[{"name":"sofa","coordinates":[0.20900724199083115,0.7577113469441732,0.45258797539605033,0.4919560114542643]},{"name":"sofa","coordinates":[0.8315213521321615,0.5478172938028971,0.376147206624349,0.2764079729715983]},{"name":"chair","coordinates":[0.04301885498894586,0.48350273768107094,0.06908389197455513,0.19731103579203288]},{"name":"wine-glass","coordinates":[0.15578371683756512,0.3816816012064616,0.0456677171919081,0.15947758356730143]},{"name":"vase","coordinates":[0.35024770100911456,0.3795549710591634,0.04554374482896593,0.13999029795328777]},{"name":"wine-glass","coordinates":[0.35024770100911456,0.3795549710591634,0.04554374482896593,0.13999029795328777]},{"name":"cup","coordinates":[0.8141060723198785,0.5427803675333659,0.024764906035529242,0.04976078669230143]}]}
