{"src":"https://a0.muscache.com/im/pictures/9e0abd14-0f68-40b4-a311-0959610a9fe9.jpg?aki_policy=xx_large","name":"Shinjuku 3min!! Quiet! Close to Shibuya, Harajuku!","listingId":13772531,"photoId":"198-40","tags":[{"name":"pottedplant","coordinates":[0.007643646664089621,0.7372607866923014,0.24588150448269314,0.24716383616129559]},{"name":"bicycle","coordinates":[0.9437260786692302,0.686268965403239,0.053130118052164714,0.25159511566162107]},{"name":"bicycle","coordinates":[0.6273623625437419,0.6334414601325988,0.10239027871025932,0.1043228546778361]},{"name":"clock","coordinates":[0.18046019607120092,0.23902436097462976,0.0769898149702284,0.10727060635884603]},{"name":"person","coordinates":[0.6810583194096883,0.6151492277781169,0.045731804105970594,0.10333979924519857]}]}
