{"src":"https://a0.muscache.com/im/pictures/3b7d052d-e787-4f1c-9376-17d9be71ba7c.jpg?aki_policy=xx_large","name":"泰山好房 高铁十五分钟 上泰山十分钟","listingId":24513325,"photoId":"1981-0","tags":[{"name":"tvmonitor","coordinates":[0.1854943169487847,0.5379043579101562,0.23728933042566175,0.29312524795532224]},{"name":"person","coordinates":[0.8759237833069142,0.9089200973510743,0.194518625256328,0.16660464604695638]},{"name":"pottedplant","coordinates":[0.8647412777714876,0.7755694071451823,0.17090804488570602,0.18335447311401368]},{"name":"remote","coordinates":[0.5927409542163598,0.9504990895589193,0.06527703203824792,0.03448853095372518]},{"name":"vase","coordinates":[0.37138258585415407,0.7293024063110352,0.028114693560270104,0.050840290387471516]}]}
