{"src":"https://a0.muscache.com/im/pictures/3b7d052d-e787-4f1c-9376-17d9be71ba7c.jpg?aki_policy=xx_large","name":"泰山好房 高铁十五分钟 上泰山十分钟","listingId":24513325,"photoId":"1981-0","tags":[{"name":"tvmonitor","coordinates":[0.06684965173595384,0.3913417339324951,0.23728933042566175,0.29312524795532224]},{"name":"person","coordinates":[0.7786644706787502,0.8256177743275961,0.194518625256328,0.16660464604695638]},{"name":"pottedplant","coordinates":[0.7792872553286345,0.6838921705881754,0.17090804488570602,0.18335447311401368]},{"name":"remote","coordinates":[0.5601024381972358,0.9332548240820566,0.06527703203824792,0.03448853095372518]},{"name":"vase","coordinates":[0.35732523907401903,0.7038822611172993,0.028114693560270104,0.050840290387471516]}]}
