{"src":"https://a0.muscache.com/im/pictures/f6ed0301-d8e7-4aab-aea9-a8d093f42607.jpg?aki_policy=xx_large","name":"Apartament NÂº10","listingId":24532919,"photoId":"1984-3","tags":[{"name":"chair","coordinates":[-0.0034833537207709445,0.7466319004694622,0.12238553365071615,0.2527297496795654]},{"name":"sink","coordinates":[0.6887567414177789,0.6414570033550263,0.27197822994656035,0.055315999190012614]},{"name":"sink","coordinates":[0.6018791887495253,0.5802458167076111,0.12792463302612306,0.02359472115834554]},{"name":"cup","coordinates":[0.8737409697638617,0.4115528722604116,0.036907132466634116,0.034588881333669025]},{"name":"cup","coordinates":[0.8287772562768724,0.41674620111783345,0.03323952092064752,0.02904777924219767]},{"name":"cup","coordinates":[0.8064021905263266,0.42025182247161863,0.031743992699517144,0.024169715245564778]},{"name":"bowl","coordinates":[0.754238055811988,0.42514159679412844,0.039359853002760146,0.016795523961385093]}]}
