{"src":"https://a0.muscache.com/im/pictures/213f304d-e207-4068-8f4e-54d99675f956.jpg?aki_policy=xx_large","name":"Apartament NÂº10","listingId":24532919,"photoId":"1984-5","tags":[{"name":"diningtable","coordinates":[0.25396413803100587,0.873709233601888,0.25712611675262453,0.2631740887959798]},{"name":"chair","coordinates":[0.3306004762649536,0.8791617711385091,0.1447805404663086,0.25167805353800454]},{"name":"chair","coordinates":[0.1598397374153137,0.8678288141886393,0.14600670337677002,0.24833443959554036]},{"name":"sink","coordinates":[0.8135281562805176,0.6440682729085286,0.08953313827514649,0.029532398780186972]},{"name":"bowl","coordinates":[0.938750171661377,0.452668285369873,0.037685588002204895,0.049748802185058595]}]}
