{"src":"https://a0.muscache.com/im/pictures/788e7ae1-bbba-42f6-b965-90f8b552f8f6.jpg?aki_policy=xx_large","name":"Apartament NÂº10","listingId":24532919,"photoId":"1984-5","tags":[{"name":"chair","coordinates":[-0.0037138303120930957,0.7464401563008627,0.12216755549112955,0.25368645985921223]},{"name":"sink","coordinates":[0.6882653978135851,0.6432804346084595,0.27390933566623266,0.054815117518107095]},{"name":"sink","coordinates":[0.6022783279418946,0.5798596789439519,0.12287839253743489,0.023999641338984173]},{"name":"cup","coordinates":[0.8734017411867778,0.4109383483727773,0.03804081016116672,0.03541675011316935]},{"name":"cup","coordinates":[0.8291335437032912,0.41569997469584147,0.0329560571246677,0.030125013987223306]},{"name":"cup","coordinates":[0.8067340585920546,0.4199399749437968,0.030182361602783203,0.02412710984547933]},{"name":"bowl","coordinates":[0.7543477720684475,0.42382127344608306,0.03956936200459798,0.01748457153638204]}]}
