{"src":"https://a0.muscache.com/im/pictures/89aeabbc-60e0-42c3-b8e6-27908a1a4917.jpg?aki_policy=xx_large","name":"Новая Квартира в новом доме.","listingId":24550638,"photoId":"1987-6","tags":[{"name":"bed","coordinates":[1.441008756153262,0.5900685628255208,0.9199474179258914,0.5371289571126302]},{"name":"sofa","coordinates":[0.4776284627406201,0.5739175160725911,0.9210335184414185,0.4040342648824056]},{"name":"book","coordinates":[1.6402989689459249,0.569357172648112,0.2178484877822541,0.061750797430674235]},{"name":"book","coordinates":[0.6002879845311275,0.6856349309285482,0.14618370749733664,0.0541172981262207]},{"name":"remote","coordinates":[0.3089300412743069,0.6566411972045898,0.05062707763480542,0.03759664297103882]},{"name":"remote","coordinates":[0.3424857925845538,0.6564444859822591,0.04717071078787777,0.03793958822886149]}]}
