{"src":"https://a0.muscache.com/im/pictures/1eeec254-bf56-44b4-9617-bd08e852bf81.jpg?aki_policy=xx_large","name":"悦客之家","listingId":24562303,"photoId":"1989-7","tags":[{"name":"diningtable","coordinates":[0.31813888549804686,0.36039015452067064,0.6588045120239258,0.49667510986328123]},{"name":"sofa","coordinates":[-0.015124201774597168,0.6899534861246744,0.7272057056427002,0.310879389444987]},{"name":"pottedplant","coordinates":[0.5891314625740051,0.2490282456080119,0.16231982707977294,0.21987837155659992]},{"name":"cup","coordinates":[0.6574075937271119,0.4575183351834615,0.09224648475646972,0.09083567460378011]},{"name":"bowl","coordinates":[0.769878500699997,0.43064624071121216,0.08473926782608032,0.07230203151702881]}]}
