{"src":"https://z0.muscache.cn/im/pictures/770e1b04-a8d7-47be-978b-655b6d4bc659.jpg?aki_policy=xx_large","name":"南通市区江景苑豪华房","listingId":24564866,"photoId":"1990-0","tags":[{"name":"sofa","coordinates":[0.46247005462646484,0.396396001180013,0.5463809967041016,0.5892318725585938]},{"name":"pottedplant","coordinates":[0.24966440200805662,0.4931410868962606,0.13500871658325195,0.13918182055155437]},{"name":"chair","coordinates":[0.36801110804080966,0.405519421895345,0.09473902583122254,0.15628846486409506]},{"name":"chair","coordinates":[0.47446668446063994,0.40162594318389894,0.0783216893672943,0.1415149211883545]},{"name":"pottedplant","coordinates":[0.004697084426879883,0.7433229128519694,0.07845532894134521,0.11613992055257162]},{"name":"pottedplant","coordinates":[0.2485350847244263,0.47267657121022544,0.0742365837097168,0.08077836036682129]},{"name":"pottedplant","coordinates":[0.5815808326005936,0.380372679233551,0.07618197798728943,0.07505811850229899]},{"name":"pottedplant","coordinates":[0.20946477204561234,0.4152976314226786,0.04876845777034759,0.08951016267140706]},{"name":"cell-phone","coordinates":[0.5017237409949303,0.650899092356364,0.045100358128547666,0.02212835947672526]},{"name":"remote","coordinates":[0.5017237409949303,0.650899092356364,0.045100358128547666,0.02212835947672526]}]}
