{"src":"https://z0.muscache.cn/im/pictures/770e1b04-a8d7-47be-978b-655b6d4bc659.jpg?aki_policy=xx_large","name":"南通市区江景苑豪华房","listingId":24564866,"photoId":"1990-0","tags":[{"name":"sofa","coordinates":[0.7356605529785156,0.6910119374593099,0.5463809967041016,0.5892318725585938]},{"name":"pottedplant","coordinates":[0.3171687602996826,0.5627319971720378,0.13500871658325195,0.13918182055155437]},{"name":"chair","coordinates":[0.4153806209564209,0.48366365432739256,0.09473902583122254,0.15628846486409506]},{"name":"chair","coordinates":[0.5136275291442871,0.4723834037780762,0.0783216893672943,0.1415149211883545]},{"name":"pottedplant","coordinates":[0.04392474889755249,0.8013928731282552,0.07845532894134521,0.11613992055257162]},{"name":"pottedplant","coordinates":[0.2856533765792847,0.5130657513936361,0.0742365837097168,0.08077836036682129]},{"name":"pottedplant","coordinates":[0.6196718215942383,0.4179017384847005,0.07618197798728943,0.07505811850229899]},{"name":"pottedplant","coordinates":[0.23384900093078614,0.46005271275838217,0.04876845777034759,0.08951016267140706]},{"name":"cell-phone","coordinates":[0.5242739200592041,0.6619632720947266,0.045100358128547666,0.02212835947672526]},{"name":"remote","coordinates":[0.5242739200592041,0.6619632720947266,0.045100358128547666,0.02212835947672526]}]}
