{"src":"https://a0.muscache.com/im/pictures/6119a938-8833-4e26-a147-88f20c249e77.jpg?aki_policy=xx_large","name":"【起一公寓·伍】宜家风格紧邻高新CBD，高新管委会，绿地笔克","listingId":24595110,"photoId":"1997-5","tags":[{"name":"diningtable","coordinates":[0.40897174411349824,0.7317525227864583,0.6027066548665364,0.522367286682129]},{"name":"chair","coordinates":[0.674027082655165,0.7450012842814128,0.38196504380967883,0.49970782597859703]},{"name":"chair","coordinates":[0.2615091111924913,0.7356632868448894,0.2528739505343967,0.47756013870239256]},{"name":"tvmonitor","coordinates":[0.10205101437038845,0.3328757921854655,0.11515765719943577,0.24112512270609537]},{"name":"pottedplant","coordinates":[0.4164784749348958,0.4243213653564453,0.07900377379523384,0.14007641474405924]},{"name":"chair","coordinates":[0.22447490692138672,0.4843579292297363,0.12008884218004015,0.06125662326812744]},{"name":"pottedplant","coordinates":[0.03464652962154812,0.5066112836201986,0.06756090588039822,0.09961760838826497]}]}
