{"src":"https://a0.muscache.com/im/pictures/6119a938-8833-4e26-a147-88f20c249e77.jpg?aki_policy=xx_large","name":"【起一公寓·伍】宜家风格紧邻高新CBD，高新管委会，绿地笔克","listingId":24595110,"photoId":"1997-5","tags":[{"name":"diningtable","coordinates":[0.10761841668023003,0.47056887944539383,0.6027066548665364,0.522367286682129]},{"name":"chair","coordinates":[0.48304456075032554,0.4951473712921143,0.38196504380967883,0.49970782597859703]},{"name":"chair","coordinates":[0.13507213592529296,0.4968832174936931,0.2528739505343967,0.47756013870239256]},{"name":"tvmonitor","coordinates":[0.044472185770670566,0.2123132308324178,0.11515765719943577,0.24112512270609537]},{"name":"pottedplant","coordinates":[0.3769765880372789,0.3542831579844157,0.07900377379523384,0.14007641474405924]},{"name":"chair","coordinates":[0.16443048583136666,0.4537296175956726,0.12008884218004015,0.06125662326812744]},{"name":"pottedplant","coordinates":[0.0008660766813490123,0.4568024794260661,0.06756090588039822,0.09961760838826497]}]}
