{"src":"https://a0.muscache.com/im/pictures/c1f3cd09-cba4-4899-9680-27721d98b58b.jpg?aki_policy=xx_large","name":"Quarto inteiro - Conforto e boa localização!","listingId":24634824,"photoId":"2000-3","tags":[{"name":"diningtable","coordinates":[0.48720511330498584,0.6606828689575195,0.29838877783881296,0.3323336283365885]},{"name":"chair","coordinates":[0.46291520330641006,0.6562097867329915,0.139282406700982,0.34453067779541013]},{"name":"chair","coordinates":[0.6674951023525661,0.7181054433186849,0.14827582041422527,0.280465825398763]},{"name":"tvmonitor","coordinates":[0.13195341957939996,0.3309216340382894,0.16163374582926432,0.19304335912068685]},{"name":"vase","coordinates":[0.1735215637418959,0.7058372020721435,0.08437149789598253,0.20260464350382487]},{"name":"orange","coordinates":[0.5632064289516873,0.6573700527350108,0.03550747765435113,0.046632015705108644]}]}
