{"src":"https://a0.muscache.com/im/pictures/8df2ff25-09f9-43ed-b087-1d204ac67b01.jpg?aki_policy=xx_large","name":"Quarto inteiro - Conforto e boa localização!","listingId":24634824,"photoId":"2000-9","tags":[{"name":"toilet","coordinates":[0.5744046105278862,0.7485300540924071,0.41453758522316264,0.24061218897501627]},{"name":"sink","coordinates":[0.033808206628870074,0.7837352355321248,0.4106789200394242,0.11418871879577637]},{"name":"bottle","coordinates":[0.3477208278797291,0.6601428786913554,0.08516758812798395,0.08764398097991943]},{"name":"pottedplant","coordinates":[0.7095432352136684,0.588068429629008,0.07960918567798755,0.06858919461568197]},{"name":"pottedplant","coordinates":[0.7763847668965658,0.5895657797654469,0.07614903626618562,0.06063309907913208]}]}
