{"src":"https://a0.muscache.com/im/pictures/8df2ff25-09f9-43ed-b087-1d204ac67b01.jpg?aki_policy=xx_large","name":"Quarto inteiro - Conforto e boa localização!","listingId":24634824,"photoId":"2000-6","tags":[{"name":"toilet","coordinates":[0.29312752617730037,0.8688361485799153,0.15545159445868598,0.24061218897501627]},{"name":"sink","coordinates":[0.08968037499321832,0.840829594930013,0.15400459501478408,0.11418871879577637]},{"name":"bottle","coordinates":[0.1463642332288954,0.7039648691813151,0.031937845547993976,0.08764398097991943]},{"name":"pottedplant","coordinates":[0.28100543551974827,0.622363026936849,0.029853444629245333,0.06858919461568197]},{"name":"pottedplant","coordinates":[0.30542223188612194,0.619882329305013,0.02855588859981961,0.06063309907913208]}]}
