{"src":"https://a0.muscache.com/im/pictures/8df2ff25-09f9-43ed-b087-1d204ac67b01.jpg?aki_policy=xx_large","name":"Quarto inteiro - Conforto e boa localização!","listingId":24634824,"photoId":"2000-6","tags":[{"name":"toilet","coordinates":[0.7816734031394675,0.8688361485799153,0.41453758522316264,0.24061218897501627]},{"name":"sink","coordinates":[0.23914766664858217,0.840829594930013,0.4106789200394242,0.11418871879577637]},{"name":"bottle","coordinates":[0.39030462194372106,0.7039648691813151,0.08516758812798395,0.08764398097991943]},{"name":"pottedplant","coordinates":[0.7493478280526621,0.622363026936849,0.07960918567798755,0.06858919461568197]},{"name":"pottedplant","coordinates":[0.8144592850296586,0.619882329305013,0.07614903626618562,0.06063309907913208]}]}
