{"src":"https://a0.muscache.com/im/pictures/c1f3cd09-cba4-4899-9680-27721d98b58b.jpg?aki_policy=xx_large","name":"Quarto inteiro - Conforto e boa localização!","listingId":24634824,"photoId":"2000-3","tags":[{"name":"diningtable","coordinates":[0.6363995022243923,0.8268496831258138,0.29838877783881296,0.3323336283365885]},{"name":"chair","coordinates":[0.5325564066569011,0.8284751256306966,0.139282406700982,0.34453067779541013]},{"name":"chair","coordinates":[0.7416330125596788,0.8583383560180664,0.14827582041422527,0.280465825398763]},{"name":"tvmonitor","coordinates":[0.21277029249403212,0.4274433135986328,0.16163374582926432,0.19304335912068685]},{"name":"vase","coordinates":[0.21570731268988716,0.807139523824056,0.08437149789598253,0.20260464350382487]},{"name":"orange","coordinates":[0.5809601677788628,0.6806860605875651,0.03550747765435113,0.046632015705108644]}]}
