{"src":"https://a0.muscache.com/im/pictures/c36ef4dd-ef8b-45fc-862d-365aed72cf81.jpg?aki_policy=xx_large","name":"【地铁超便利】#旅かえる旅行蛙#旅欧游日de巴黎东京设计师的新房*可住5人*开业特惠*","listingId":24642751,"photoId":"2001-4","tags":[{"name":"chair","coordinates":[0.013572955131530784,0.5634044647216797,0.36160907745361326,0.44243507385253905]},{"name":"bed","coordinates":[0.7131759285926819,0.5929434299468994,0.27415549755096436,0.3885050773620605]},{"name":"clock","coordinates":[0.6278628796339035,0.4734432458877563,0.06380396485328674,0.1107575257619222]},{"name":"bottle","coordinates":[0.58353633582592,0.10287956396738687,0.03628492951393127,0.13399958610534668]},{"name":"bottle","coordinates":[0.5376458689570427,0.1014777978261312,0.03376015722751617,0.1362357457478841]},{"name":"bottle","coordinates":[0.6333345711231232,0.21077174345652264,0.035901200771331784,0.1268929958343506]},{"name":"bottle","coordinates":[0.6700154781341553,0.20576056639353435,0.032648563385009766,0.13420189221700032]},{"name":"bowl","coordinates":[0.2375320106744766,0.5294000387191773,0.0800609290599823,0.05258908271789551]}]}
