{"src":"https://a0.muscache.com/im/pictures/ef07fb02-dd96-4b65-9968-def2a694e8f4.jpg?aki_policy=xx_large","name":"Shah Alam Accomodation @ Suria Jaya Soho","listingId":24680062,"photoId":"2003-0","tags":[{"name":"diningtable","coordinates":[0.531337308883667,0.5944997469584148,0.4522963523864746,0.40337111155192057]},{"name":"chair","coordinates":[0.5430728942155838,0.5732929229736328,0.09374341368675232,0.4334611256917318]},{"name":"microwave","coordinates":[0.4962123394012451,0.4017729123433431,0.12974185943603517,0.08597272237141927]},{"name":"bowl","coordinates":[0.6494446933269501,0.704665744304657,0.10008074045181274,0.08150522708892823]},{"name":"sink","coordinates":[0.6909521102905273,0.4780566096305847,0.14576320648193358,0.03339896996815999]},{"name":"bottle","coordinates":[0.8693107686936855,0.3908960223197937,0.021776182949542998,0.10611956119537354]}]}
