{"src":"https://a0.muscache.com/im/pictures/ef07fb02-dd96-4b65-9968-def2a694e8f4.jpg?aki_policy=xx_large","name":"Shah Alam Accomodation @ Suria Jaya Soho","listingId":24680062,"photoId":"2003-0","tags":[{"name":"diningtable","coordinates":[0.7574854850769043,0.796185302734375,0.4522963523864746,0.40337111155192057]},{"name":"chair","coordinates":[0.58994460105896,0.7900234858194987,0.09374341368675232,0.4334611256917318]},{"name":"microwave","coordinates":[0.5610832691192627,0.44475927352905276,0.12974185943603517,0.08597272237141927]},{"name":"bowl","coordinates":[0.6994850635528564,0.7454183578491211,0.10008074045181274,0.08150522708892823]},{"name":"sink","coordinates":[0.7638337135314941,0.4947560946146647,0.14576320648193358,0.03339896996815999]},{"name":"bottle","coordinates":[0.880198860168457,0.4439558029174805,0.021776182949542998,0.10611956119537354]}]}
