{"src":"https://a0.muscache.com/im/pictures/e66cab14-7bb0-4803-b157-c06e44572cb5.jpg?aki_policy=xx_large","name":"小巴黎精品公寓(哈西客站、万达、西城红场、医大二院、学府路、地铁)","listingId":24707109,"photoId":"2006-0","tags":[{"name":"diningtable","coordinates":[0.25539321899414064,0.7791817347208659,0.4852440357208252,0.28847169876098633]},{"name":"chair","coordinates":[0.2697922706604004,0.9072521209716797,0.25919170379638673,0.17836707433064777]},{"name":"tvmonitor","coordinates":[0.7246558189392089,0.44444700876871746,0.13137000799179077,0.16924730936686197]},{"name":"chair","coordinates":[0.12960753440856934,0.6276283899943034,0.14469599723815918,0.13802242279052734]},{"name":"vase","coordinates":[0.12670611143112182,0.6748065312703451,0.07381945848464966,0.15806879997253417]}]}
