{"src":"https://a0.muscache.com/im/pictures/e66cab14-7bb0-4803-b157-c06e44572cb5.jpg?aki_policy=xx_large","name":"小巴黎精品公寓(哈西客站、万达、西城红场、医大二院、学府路、地铁)","listingId":24707109,"photoId":"2006-0","tags":[{"name":"diningtable","coordinates":[0.012771201133728038,0.6349458853403728,0.4852440357208252,0.28847169876098633]},{"name":"chair","coordinates":[0.14019641876220704,0.8180685838063558,0.25919170379638673,0.17836707433064777]},{"name":"tvmonitor","coordinates":[0.6589708149433136,0.3598233540852865,0.13137000799179077,0.16924730936686197]},{"name":"chair","coordinates":[0.05725953578948975,0.5586171785990397,0.14469599723815918,0.13802242279052734]},{"name":"vase","coordinates":[0.08979638218879699,0.595772131284078,0.07381945848464966,0.15806879997253417]}]}
