{"src":"https://a0.muscache.com/im/pictures/3e54b602-52e7-4ba2-be97-d9706420e674.jpg?aki_policy=xx_large","name":"Double room with private bathroom","listingId":24715037,"photoId":"2008-1","tags":[{"name":"chair","coordinates":[0.5356447089360444,0.8034401575724284,0.27651719894298127,0.3740624745686849]},{"name":"diningtable","coordinates":[0.5356447089360444,0.8034401575724284,0.27651719894298127,0.3740624745686849]},{"name":"sofa","coordinates":[0.09900393201447644,0.7744479497273763,0.18831500146413302,0.36684048970540367]},{"name":"chair","coordinates":[0.7318962796806768,0.7788466771443685,0.15641492596533274,0.41388349533081054]},{"name":"chair","coordinates":[0.4026349774267649,0.7683646519978841,0.08973427318589657,0.44421968460083006]},{"name":"tvmonitor","coordinates":[0.20946048475595888,0.3725400924682617,0.08880460869623931,0.15255109469095865]},{"name":"chair","coordinates":[0.6017544897709698,0.5474340438842773,0.09085001383285855,0.14746950467427572]}]}
