{"src":"https://a0.muscache.com/im/pictures/73821027-a49e-4b16-af25-92f950bcd49c.jpg?aki_policy=xx_large","name":"Double room with private bathroom","listingId":24715037,"photoId":"2008-2","tags":[{"name":"sofa","coordinates":[0.8657954092461265,0.7433729807535807,0.6127665182862011,0.35952628453572594]},{"name":"diningtable","coordinates":[0.3559565477468983,0.5706130981445312,0.2595288791283201,0.28461376825968426]},{"name":"microwave","coordinates":[0.07519097519276416,0.23218150138854982,0.14151326630122174,0.30099271138509115]},{"name":"chair","coordinates":[0.42504527295513456,0.5630146662394205,0.13685583735001164,0.2523097038269043]},{"name":"chair","coordinates":[0.26699294404014734,0.5721869150797526,0.11711777600859885,0.24002688725789387]},{"name":"sofa","coordinates":[1.142086885848672,0.8938427607218424,0.11320740201155492,0.2135037104288737]},{"name":"oven","coordinates":[0.78437547781483,0.41009114583333334,0.08534736313335493,0.23869237899780274]},{"name":"chair","coordinates":[0.3166243098988671,0.43621333440144855,0.06692288017450708,0.06399019956588745]},{"name":"pottedplant","coordinates":[0.6094600965458994,0.3870053291320801,0.028402262720568425,0.03184389670689901]}]}
