{"src":"https://a0.muscache.com/im/pictures/cebab3df-03fd-4a68-97e3-ccf000aef02a.jpg?aki_policy=xx_large","name":"Double room with private bathroom","listingId":24715037,"photoId":"2008-2","tags":[{"name":"sofa","coordinates":[0.2756832297006057,0.6381043910980224,0.7373449604642358,0.3595934232076009]},{"name":"sofa","coordinates":[0.42655078784839523,0.42097837130228677,0.5076645480508796,0.27677710851033527]},{"name":"tvmonitor","coordinates":[-0.002642579092006214,0.15163602034250895,0.17597315806933686,0.2290556748708089]},{"name":"diningtable","coordinates":[0.5184412206985743,0.33032567501068116,0.13935261892583586,0.09688356717427572]},{"name":"chair","coordinates":[0.5506080954517034,0.29821710983912153,0.07827722526329872,0.12346336841583253]},{"name":"chair","coordinates":[0.45480901997220485,0.3057684501012166,0.05769487507189976,0.15082723299662273]}]}
