{"src":"https://a0.muscache.com/im/pictures/73821027-a49e-4b16-af25-92f950bcd49c.jpg?aki_policy=xx_large","name":"Double room with private bathroom","listingId":24715037,"photoId":"2008-2","tags":[{"name":"sofa","coordinates":[0.7257800579071045,0.7433729807535807,0.5136706829071045,0.35952628453572594]},{"name":"diningtable","coordinates":[0.2983916997909546,0.5706130981445312,0.2175581932067871,0.28461376825968426]},{"name":"microwave","coordinates":[0.06303118467330933,0.23218150138854982,0.11862791776657104,0.30099271138509115]},{"name":"chair","coordinates":[0.35630748271942136,0.5630146662394205,0.11472368240356445,0.2523097038269043]},{"name":"chair","coordinates":[0.2238151788711548,0.5721869150797526,0.09817763566970825,0.24002688725789387]},{"name":"sofa","coordinates":[0.957390022277832,0.8938427607218424,0.09489964246749878,0.2135037104288737]},{"name":"oven","coordinates":[0.6575272560119629,0.41009114583333334,0.07154509425163269,0.23869237899780274]},{"name":"chair","coordinates":[0.2654202222824097,0.43621333440144855,0.05610019564628601,0.06399019956588745]},{"name":"pottedplant","coordinates":[0.5108989715576172,0.3870053291320801,0.023809084296226503,0.03184389670689901]}]}
