{"src":"https://a0.muscache.com/im/pictures/28293a29-6d71-45c5-90d8-f335fbf13718.jpg?aki_policy=xx_large","name":"Private room in  peaceful area in Tullinge","listingId":24731970,"photoId":"2009-2","tags":[{"name":"chair","coordinates":[0.6869935777452257,0.6677546819051107,0.41517160203721787,0.40113865534464516]},{"name":"diningtable","coordinates":[0.4782987806532118,0.5920558929443359,0.34383583068847656,0.21502882639567059]},{"name":"chair","coordinates":[0.330504396226671,0.5560932795206706,0.23307757907443577,0.2405124028523763]},{"name":"chair","coordinates":[0.8737053765190972,0.5951056798299154,0.15649884541829426,0.25646700859069826]},{"name":"chair","coordinates":[0.464106453789605,0.458174196879069,0.13771713044908312,0.0840811570485433]},{"name":"pottedplant","coordinates":[0.5649136861165365,0.48787225087483727,0.08395382563273111,0.056398534774780275]},{"name":"vase","coordinates":[0.5638925340440538,0.5026794115702311,0.057526281144883895,0.026210776964823403]}]}
