{"src":"https://a0.muscache.com/im/pictures/28293a29-6d71-45c5-90d8-f335fbf13718.jpg?aki_policy=xx_large","name":"Private room in  peaceful area in Tullinge","listingId":24731970,"photoId":"2009-2","tags":[{"name":"chair","coordinates":[0.38643388748168944,0.6677546819051107,0.23353402614593505,0.40113865534464516]},{"name":"diningtable","coordinates":[0.2690430641174316,0.5920558929443359,0.19340765476226807,0.21502882639567059]},{"name":"chair","coordinates":[0.18590872287750243,0.5560932795206706,0.13110613822937012,0.2405124028523763]},{"name":"chair","coordinates":[0.4914592742919922,0.5951056798299154,0.08803060054779052,0.25646700859069826]},{"name":"chair","coordinates":[0.26105988025665283,0.458174196879069,0.07746588587760925,0.0840811570485433]},{"name":"pottedplant","coordinates":[0.3177639484405518,0.48787225087483727,0.04722402691841125,0.056398534774780275]},{"name":"vase","coordinates":[0.31718955039978025,0.5026794115702311,0.03235853314399719,0.026210776964823403]}]}
