{"src":"https://a0.muscache.com/im/pictures/33118809-a7ba-4835-a65f-86b95e357ee7.jpg?aki_policy=xx_large","name":"Unieke plek bij zee, strand en stad voor 4 pers.","listingId":13611185,"photoId":"201-1","tags":[{"name":"diningtable","coordinates":[0.45145111083984374,0.760918935139974,0.2674844529893663,0.357427438100179]},{"name":"chair","coordinates":[0.5298367818196614,0.7948407491048177,0.1492333836025662,0.3403286933898926]},{"name":"chair","coordinates":[0.3793927934434679,0.7641747792561849,0.11954430474175347,0.3181110064188639]},{"name":"chair","coordinates":[0.32434713575575086,0.7091620127360027,0.04639927546183268,0.24582626024881998]},{"name":"pottedplant","coordinates":[0.42786293029785155,0.5715230941772461,0.068873749838935,0.09480681419372558]},{"name":"tvmonitor","coordinates":[0.6780264536539714,0.5416423797607421,0.04176750712924533,0.06562747160593668]},{"name":"vase","coordinates":[0.43132587009006074,0.6012025833129883,0.022574170430501302,0.03769090970357259]},{"name":"book","coordinates":[0.5866017235649956,0.566661008199056,0.007924325598610771,0.0318592369556427]},{"name":"book","coordinates":[0.5709545559353298,0.5707144419352214,0.005847816997104221,0.028601884841918945]}]}
