{"src":"https://a0.muscache.com/im/pictures/3398137/aeab2bba_original.jpg?aki_policy=xx_large","name":"CASA BELLA 10min downtown WIFI INCLUDED LASTMINUTE","listingId":255221,"photoId":"2015-13","tags":[{"name":"chair","coordinates":[0.6281030750807437,0.9477507909138997,0.5909036817497382,0.09963057041168213]},{"name":"pottedplant","coordinates":[0.5792715402954783,0.682667350769043,0.24100494384765625,0.20887285868326824]},{"name":"bowl","coordinates":[0.49677153006612257,0.5022561073303222,0.18174882174870155,0.057530144850413]},{"name":"bowl","coordinates":[0.17743843760570335,0.5140138943990071,0.08974155234224969,0.03341564337412516]},{"name":"bottle","coordinates":[0.55612391466535,0.4505319595336914,0.03945698285236039,0.06562308073043824]},{"name":"knife","coordinates":[0.4630031905360728,0.1989411989847819,0.011290239888196552,0.07584633032480875]}]}
