{"src":"https://a0.muscache.com/im/pictures/3398137/aeab2bba_original.jpg?aki_policy=xx_large","name":"CASA BELLA 10min downtown WIFI INCLUDED LASTMINUTE","listingId":255221,"photoId":"2015-13","tags":[{"name":"chair","coordinates":[0.351345157623291,0.9477507909138997,0.3305367469787598,0.09963057041168213]},{"name":"pottedplant","coordinates":[0.3240300178527832,0.682667350769043,0.1348121404647827,0.20887285868326824]},{"name":"bowl","coordinates":[0.2778815746307373,0.5022561073303222,0.10166574716567993,0.057530144850413]},{"name":"bowl","coordinates":[0.09925462603569031,0.5140138943990071,0.05019918084144592,0.03341564337412516]},{"name":"bottle","coordinates":[0.31108181476593016,0.4505319595336914,0.022071249783039093,0.06562308073043824]},{"name":"knife","coordinates":[0.2589924097061157,0.1989411989847819,0.0063154779374599455,0.07584633032480875]}]}
