{"src":"https://a0.muscache.com/im/pictures/12051972/4edbffdd_original.jpg?aki_policy=xx_large","name":"Room walking to BLUE mousqu أهلا i have other room","listingId":256825,"photoId":"2016-7","tags":[{"name":"person","coordinates":[0.8718417167663575,0.6124293645222981,0.25247313976287844,0.7866725285847982]},{"name":"person","coordinates":[0.7178730010986328,0.5159481048583985,0.21839580535888672,0.7412108103434245]},{"name":"person","coordinates":[0.32829699516296384,0.4732661247253418,0.2163691282272339,0.7149262110392253]},{"name":"diningtable","coordinates":[0.4088748931884766,0.8774128595987956,0.5381336688995362,0.2336294968922933]},{"name":"person","coordinates":[0.5276636123657227,0.4908197085062663,0.21813318729400635,0.571725336710612]},{"name":"person","coordinates":[0.4561009883880615,0.28661702473958334,0.12460825443267823,0.31496995290120444]},{"name":"bottle","coordinates":[0.14581871032714844,0.763786252339681,0.056145590543746945,0.21322749455769857]},{"name":"cake","coordinates":[0.47298383712768555,0.838427988688151,0.061568939685821535,0.07785719235738119]}]}
