{"src":"https://a0.muscache.com/im/pictures/12051972/4edbffdd_original.jpg?aki_policy=xx_large","name":"Room walking to BLUE mousqu أهلا i have other room","listingId":256825,"photoId":"2016-7","tags":[{"name":"person","coordinates":[0.7749704149034288,0.6124293645222981,0.22442056867811416,0.7866725285847982]},{"name":"person","coordinates":[0.6381093343098958,0.5159481048583985,0.19412960476345487,0.7412108103434245]},{"name":"person","coordinates":[0.29181955125596787,0.4732661247253418,0.19232811397976346,0.7149262110392253]},{"name":"diningtable","coordinates":[0.36344434950086807,0.8774128595987956,0.4783410390218099,0.2336294968922933]},{"name":"person","coordinates":[0.4690343221028646,0.4908197085062663,0.1938961664835612,0.571725336710612]},{"name":"person","coordinates":[0.40542310078938804,0.28661702473958334,0.1107628928290473,0.31496995290120444]},{"name":"bottle","coordinates":[0.1296166314019097,0.763786252339681,0.04990719159444173,0.21322749455769857]},{"name":"cake","coordinates":[0.4204300774468316,0.838427988688151,0.05472794638739692,0.07785719235738119]}]}
