{"src":"https://a0.muscache.com/im/pictures/34389000/560521c4_original.jpg?aki_policy=xx_large","name":"Executive Apartment","listingId":2617053,"photoId":"2017-0","tags":[{"name":"diningtable","coordinates":[0.27168582280476894,0.3900089184443156,0.31405794355604383,0.24429678916931152]},{"name":"chair","coordinates":[0.3083975738949246,0.4198526859283447,0.16234863069322375,0.2506459871927897]},{"name":"chair","coordinates":[0.5385110987557306,0.37769026756286617,0.08130062421162923,0.1991251309712728]},{"name":"pottedplant","coordinates":[0.35405765904320613,0.32244281371434524,0.06722571584913466,0.07667459646860758]},{"name":"chair","coordinates":[0.4612662686241998,0.34872613946596787,0.08794516457451715,0.047745271523793535]},{"name":"vase","coordinates":[0.36940394242604574,0.3635876268148422,0.033387719260321726,0.032119001944859824]}]}
