{"src":"https://a0.muscache.com/im/pictures/34389000/560521c4_original.jpg?aki_policy=xx_large","name":"Executive Apartment","listingId":2617053,"photoId":"2017-0","tags":[{"name":"diningtable","coordinates":[0.4287147945827908,0.5121573130289714,0.31405794355604383,0.24429678916931152]},{"name":"chair","coordinates":[0.38957188924153646,0.5451756795247396,0.16234863069322375,0.2506459871927897]},{"name":"chair","coordinates":[0.5791614108615452,0.4772528330485026,0.08130062421162923,0.1991251309712728]},{"name":"pottedplant","coordinates":[0.38767051696777344,0.36078011194864906,0.06722571584913466,0.07667459646860758]},{"name":"chair","coordinates":[0.5052388509114584,0.3725987752278646,0.08794516457451715,0.047745271523793535]},{"name":"vase","coordinates":[0.3860978020562066,0.3796471277872721,0.033387719260321726,0.032119001944859824]}]}
