{"src":"https://a0.muscache.com/im/pictures/34389000/560521c4_original.jpg?aki_policy=xx_large","name":"Executive Apartment","listingId":2617053,"photoId":"2017-0","tags":[{"name":"diningtable","coordinates":[0.24115207195281982,0.5121573130289714,0.17665759325027466,0.24429678916931152]},{"name":"chair","coordinates":[0.21913418769836426,0.5451756795247396,0.09132110476493835,0.2506459871927897]},{"name":"chair","coordinates":[0.32577829360961913,0.4772528330485026,0.04573160111904144,0.1991251309712728]},{"name":"pottedplant","coordinates":[0.21806466579437256,0.36078011194864906,0.03781446516513824,0.07667459646860758]},{"name":"chair","coordinates":[0.2841968536376953,0.3725987752278646,0.04946915507316589,0.047745271523793535]},{"name":"vase","coordinates":[0.2171800136566162,0.3796471277872721,0.01878059208393097,0.032119001944859824]}]}
