{"src":"https://a0.muscache.com/im/pictures/cd84afae-0d66-4345-a762-fdca390d9091.jpg?aki_policy=xx_large","name":"Light Loft Apartment in the centre of The Hague","listingId":13613161,"photoId":"202-10","tags":[{"name":"sofa","coordinates":[0.501449712117513,0.8783872604370118,0.9910100301106771,0.23548375765482585]},{"name":"chair","coordinates":[0.6655914730495877,0.6826945622762044,0.16181046168009441,0.2709647178649902]},{"name":"tvmonitor","coordinates":[0.10355381435818142,0.5534905115763347,0.18274459838867188,0.18593339920043944]},{"name":"pottedplant","coordinates":[0.9526990254720052,0.5278062184651693,0.10314486821492513,0.22612438201904297]},{"name":"pottedplant","coordinates":[0.4859049055311415,0.6040332794189454,0.08077768749660916,0.16606319745381673]},{"name":"vase","coordinates":[0.6993217044406467,0.32107474009195963,0.021765392356448702,0.052942128976186116]}]}
