{"src":"https://a0.muscache.com/im/pictures/3031145/4eb9cf50_original.jpg?aki_policy=xx_large","name":"DeluxeLOFT 2BR + WiFi","listingId":291058,"photoId":"2026-2","tags":[{"name":"refrigerator","coordinates":[0.58757426738739,0.21839466094970705,0.07435688972473145,0.5240838368733723]},{"name":"oven","coordinates":[0.6568125516176224,0.4678194046020508,0.08263563513755798,0.2305474599202474]},{"name":"bowl","coordinates":[0.891484409570694,0.0027150551478068025,0.11095570325851441,0.08338303565979004]},{"name":"vase","coordinates":[0.7329995065927506,0.07962924440701802,0.07553216814994812,0.04966132243474324]},{"name":"bowl","coordinates":[0.7329995065927506,0.07962924440701802,0.07553216814994812,0.04966132243474324]},{"name":"bowl","coordinates":[0.6465760350227355,0.12171736160914104,0.06542394161224366,0.03214329878489176]}]}
