{"src":"https://a0.muscache.com/im/pictures/3031145/4eb9cf50_original.jpg?aki_policy=xx_large","name":"DeluxeLOFT 2BR + WiFi","listingId":291058,"photoId":"2026-2","tags":[{"name":"refrigerator","coordinates":[0.6247527122497558,0.4804365793863932,0.07435688972473145,0.5240838368733723]},{"name":"oven","coordinates":[0.6981303691864014,0.5830931345621745,0.08263563513755798,0.2305474599202474]},{"name":"bowl","coordinates":[0.9469622611999512,0.04440657297770182,0.11095570325851441,0.08338303565979004]},{"name":"vase","coordinates":[0.7707655906677247,0.10445990562438964,0.07553216814994812,0.04966132243474324]},{"name":"bowl","coordinates":[0.7707655906677247,0.10445990562438964,0.07553216814994812,0.04966132243474324]},{"name":"bowl","coordinates":[0.6792880058288574,0.13778901100158691,0.06542394161224366,0.03214329878489176]}]}
