{"src":"https://a0.muscache.com/im/pictures/85723ebe-d4e9-4879-8c47-df298ecf438d.jpg?aki_policy=xx_large","name":"Teerth Villa. Stay in Peace, Comfort &amp; Excellence","listingId":324412,"photoId":"2030-13","tags":[{"name":"sofa","coordinates":[0.4993289470672607,0.5174374739329021,0.42482690811157225,0.42399841944376626]},{"name":"bed","coordinates":[0.10259068012237549,0.6117982546488444,0.28304176330566405,0.3490278244018555]},{"name":"book","coordinates":[0.3678985953330994,0.7648952643076579,0.1613471269607544,0.11604572931925455]},{"name":"book","coordinates":[0.3854728996753693,0.7872758626937866,0.09397081136703492,0.07811093330383301]},{"name":"vase","coordinates":[0.5095505610108375,0.5394541422526041,0.04514782130718231,0.08187395731608073]}]}
