{"src":"https://a0.muscache.com/im/pictures/85723ebe-d4e9-4879-8c47-df298ecf438d.jpg?aki_policy=xx_large","name":"Teerth Villa. Stay in Peace, Comfort &amp; Excellence","listingId":324412,"photoId":"2030-13","tags":[{"name":"sofa","coordinates":[0.7117424011230469,0.7294366836547852,0.42482690811157225,0.42399841944376626]},{"name":"bed","coordinates":[0.24411156177520751,0.7863121668497721,0.28304176330566405,0.3490278244018555]},{"name":"book","coordinates":[0.44857215881347656,0.8229181289672851,0.1613471269607544,0.11604572931925455]},{"name":"book","coordinates":[0.43245830535888674,0.8263313293457031,0.09397081136703492,0.07811093330383301]},{"name":"vase","coordinates":[0.5321244716644287,0.5803911209106445,0.04514782130718231,0.08187395731608073]}]}
