{"src":"https://a0.muscache.com/im/pictures/42514811/84826892_original.jpg?aki_policy=xx_large","name":"Sunny, spacious apt in Dedham Center","listingId":3354360,"photoId":"2034-2","tags":[{"name":"diningtable","coordinates":[0.20094068315294056,0.5060746987660726,0.39060868157280815,0.27914546330769857]},{"name":"chair","coordinates":[0.2379254553053114,0.5608229319254557,0.19207774268256295,0.24352251688639323]},{"name":"chair","coordinates":[0.49643276532491054,0.5401997804641724,0.17054168913099502,0.2049979050954183]},{"name":"sink","coordinates":[0.8066325399610732,0.5256677945454915,0.11971764034695095,0.05514303843180338]},{"name":"chair","coordinates":[0.18370600276523166,0.5147109309832255,0.0983122189839681,0.03777377605438233]},{"name":"pottedplant","coordinates":[0.36178900400797526,0.45705649455388386,0.05787247551812066,0.05485146045684815]},{"name":"vase","coordinates":[0.37575460407469,0.48953336179256446,0.03227748076121013,0.027245201667149863]}]}
