{"src":"https://a0.muscache.com/im/pictures/42514811/84826892_original.jpg?aki_policy=xx_large","name":"Sunny, spacious apt in Dedham Center","listingId":3354360,"photoId":"2034-2","tags":[{"name":"diningtable","coordinates":[0.39624502393934463,0.6456474304199219,0.39060868157280815,0.27914546330769857]},{"name":"chair","coordinates":[0.33396432664659287,0.6825841903686524,0.19207774268256295,0.24352251688639323]},{"name":"chair","coordinates":[0.581703609890408,0.6426987330118815,0.17054168913099502,0.2049979050954183]},{"name":"sink","coordinates":[0.8664913601345486,0.5532393137613932,0.11971764034695095,0.05514303843180338]},{"name":"chair","coordinates":[0.2328621122572157,0.5335978190104167,0.0983122189839681,0.03777377605438233]},{"name":"pottedplant","coordinates":[0.3907252417670356,0.48448222478230796,0.05787247551812066,0.05485146045684815]},{"name":"vase","coordinates":[0.3918933444552951,0.5031559626261394,0.03227748076121013,0.027245201667149863]}]}
