{"src":"https://a0.muscache.com/im/pictures/1968418d-e807-495d-b4b6-790ba2cfcae2.jpg?aki_policy=xx_large","name":"bedroom with panthouse","listingId":3571582,"photoId":"2037-6","tags":[{"name":"diningtable","coordinates":[0.48637716505262585,0.603993542989095,0.8778377956814236,0.12755702336629232]},{"name":"chair","coordinates":[0.3317471822102865,0.8087317148844401,0.2887025197347005,0.3473917325337728]},{"name":"chair","coordinates":[0.6221199459499783,0.8110809961954752,0.24962484571668836,0.3375967025756836]},{"name":"pottedplant","coordinates":[0.5172684987386068,0.35959088007609047,0.16888530519273545,0.37949946721394856]},{"name":"chair","coordinates":[0.2078528086344401,0.5475631713867187,0.10699883566962348,0.0778733491897583]},{"name":"vase","coordinates":[0.48497038947211374,0.5177366256713867,0.03911612828572591,0.13914008140563966]},{"name":"chair","coordinates":[0.6297412448459201,0.5341807047526042,0.10637779235839843,0.04811160564422608]},{"name":"chair","coordinates":[0.39199858771430124,0.5131897926330566,0.03564061323801677,0.047847314675649004]}]}
