{"src":"https://a0.muscache.com/im/pictures/1968418d-e807-495d-b4b6-790ba2cfcae2.jpg?aki_policy=xx_large","name":"bedroom with panthouse","listingId":3571582,"photoId":"2037-6","tags":[{"name":"diningtable","coordinates":[1.297005773473669,0.603993542989095,2.3409007884837965,0.12755702336629232]},{"name":"chair","coordinates":[0.8846591525607639,0.8087317148844401,0.7698733859592014,0.3473917325337728]},{"name":"chair","coordinates":[1.6589865225332754,0.8110809961954752,0.6656662552445023,0.3375967025756836]},{"name":"pottedplant","coordinates":[1.3793826633029513,0.35959088007609047,0.45036081384729454,0.37949946721394856]},{"name":"chair","coordinates":[0.554274156358507,0.5475631713867187,0.2853302284523293,0.0778733491897583]},{"name":"vase","coordinates":[1.2932543719256366,0.5177366256713867,0.10430967542860244,0.13914008140563966]},{"name":"chair","coordinates":[1.679309986255787,0.5341807047526042,0.28367411295572914,0.04811160564422608]},{"name":"chair","coordinates":[1.0453295672381366,0.5131897926330566,0.09504163530137803,0.047847314675649004]}]}
