{"src":"https://a0.muscache.com/im/pictures/4da05748-d87e-476f-9a93-5eb7ca044520.jpg?aki_policy=xx_large","name":"bedroom with panthouse","listingId":3571582,"photoId":"2037-15","tags":[{"name":"sofa","coordinates":[0.6714224603441027,0.5774113178253173,0.3290936575995551,0.37010869979858396]},{"name":"sofa","coordinates":[0.3753276083204481,0.6138743877410889,0.2868303722805447,0.2891490618387858]},{"name":"diningtable","coordinates":[0.12007882859971789,0.496966536839803,0.2881002638075087,0.25923643112182615]},{"name":"chair","coordinates":[0.23234267499711778,0.5579651514689128,0.0809068520863851,0.1999791463216146]},{"name":"chair","coordinates":[0.30771450731489397,0.5538238366444905,0.06785180303785536,0.17567205429077148]},{"name":"pottedplant","coordinates":[0.2194629298316108,0.39551919301350913,0.0774466938442654,0.14439989725748698]},{"name":"vase","coordinates":[0.2638783713181813,0.500210585196813,0.021537919839223225,0.04651537338892619]}]}
