{"src":"https://a0.muscache.com/im/pictures/103941796/c2a86d82_original.jpg?aki_policy=xx_large","name":"FLAT FREE PARKING KREMLIN EIFFEL TOW-SHUKHOV TOWER","listingId":3586570,"photoId":"2038-10","tags":[{"name":"diningtable","coordinates":[0.4776919725325475,0.8021858851114909,0.32585709938945945,0.415328311920166]},{"name":"chair","coordinates":[0.8155101800283691,0.813654899597168,0.3341741165923535,0.32942253748575845]},{"name":"chair","coordinates":[0.3292875672460525,0.8170190175374349,0.23257843597433586,0.3482014020284017]},{"name":"microwave","coordinates":[0.2507123631712922,0.44599765141805015,0.15756598196761193,0.09486323197682699]},{"name":"bowl","coordinates":[0.5418908201750527,0.6534375508626302,0.07443667901057244,0.04550240039825439]},{"name":"bowl","coordinates":[0.42509238171292224,0.6491282145182292,0.06797782473795687,0.04434975783030192]},{"name":"cup","coordinates":[0.49079911126627374,0.6212329228719076,0.02312115394758725,0.054996434847513834]}]}
