{"src":"https://a0.muscache.com/im/pictures/103941914/210a7241_original.jpg?aki_policy=xx_large","name":"FLAT FREE PARKING KREMLIN EIFFEL TOW-SHUKHOV TOWER","listingId":3586570,"photoId":"2038-11","tags":[{"name":"diningtable","coordinates":[0.7471325397491455,0.823305892944336,0.4925227642059326,0.35280005137125653]},{"name":"chair","coordinates":[0.4668691158294678,0.9103301366170248,0.23567135334014894,0.1792491594950358]},{"name":"book","coordinates":[0.05845440626144409,0.4888699213663737,0.10661650896072387,0.2641308625539144]},{"name":"book","coordinates":[0.10467342138290406,0.4857103983561198,0.10948173999786377,0.2424218972524007]},{"name":"chair","coordinates":[0.8777162551879882,0.6826743443806966,0.13262686729431153,0.07568623224894205]},{"name":"bowl","coordinates":[0.8032185554504394,0.7547865549723307,0.09696932435035706,0.06900594234466553]},{"name":"pottedplant","coordinates":[1.0023983001708985,0.6509472529093424,0.07922609448432923,0.05696638822555542]},{"name":"bowl","coordinates":[0.8380013465881347,0.7060201009114583,0.06965838074684143,0.05082758665084839]}]}
