{"src":"https://a0.muscache.com/im/pictures/103941796/c2a86d82_original.jpg?aki_policy=xx_large","name":"FLAT FREE PARKING KREMLIN EIFFEL TOW-SHUKHOV TOWER","listingId":3586570,"photoId":"2038-11","tags":[{"name":"diningtable","coordinates":[0.3147634228378178,0.5945217291514079,0.32585709938945945,0.415328311920166]},{"name":"chair","coordinates":[0.6484231217321923,0.6489436308542887,0.3341741165923535,0.32942253748575845]},{"name":"chair","coordinates":[0.21299834925888458,0.6429183165232341,0.23257843597433586,0.3482014020284017]},{"name":"microwave","coordinates":[0.17192937218748622,0.39856603542963664,0.15756598196761193,0.09486323197682699]},{"name":"bowl","coordinates":[0.5046724806697666,0.630686350663503,0.07443667901057244,0.04550240039825439]},{"name":"bowl","coordinates":[0.3911034693439438,0.6269533356030783,0.06797782473795687,0.04434975783030192]},{"name":"cup","coordinates":[0.4792385342924801,0.5937347054481507,0.02312115394758725,0.054996434847513834]}]}
