{"src":"https://a0.muscache.com/im/pictures/103941914/210a7241_original.jpg?aki_policy=xx_large","name":"FLAT FREE PARKING KREMLIN EIFFEL TOW-SHUKHOV TOWER","listingId":3586570,"photoId":"2038-11","tags":[{"name":"diningtable","coordinates":[0.6641178131103516,0.823305892944336,0.4377980126274957,0.35280005137125653]},{"name":"chair","coordinates":[0.4149947696261936,0.9103301366170248,0.2094856474134657,0.1792491594950358]},{"name":"book","coordinates":[0.05195947223239475,0.4888699213663737,0.09477023018731011,0.2641308625539144]},{"name":"book","coordinates":[0.09304304122924804,0.4857103983561198,0.09731710222032335,0.2424218972524007]},{"name":"chair","coordinates":[0.7801922268337673,0.6826743443806966,0.11789054870605468,0.07568623224894205]},{"name":"bowl","coordinates":[0.7139720492892795,0.7547865549723307,0.08619495497809516,0.06900594234466553]},{"name":"pottedplant","coordinates":[0.8910207112630208,0.6509472529093424,0.07042319509718153,0.05696638822555542]},{"name":"bowl","coordinates":[0.7448900858561198,0.7060201009114583,0.06191856066385905,0.05082758665084839]}]}
