{"src":"https://a0.muscache.com/im/pictures/103942004/7ed1b12d_original.jpg?aki_policy=xx_large","name":"FLAT FREE PARKING KREMLIN EIFFEL TOW-SHUKHOV TOWER","listingId":3586570,"photoId":"2038-15","tags":[{"name":"diningtable","coordinates":[0.9769139607747396,0.8791702270507813,1.831580098470052,0.2895673751831055]},{"name":"chair","coordinates":[1.709114244249132,0.8347115834554036,0.4392351362440321,0.27380164464314777]},{"name":"chair","coordinates":[1.6463851928710938,0.7710803985595703,0.44891891479492185,0.15268551508585612]},{"name":"bowl","coordinates":[1.1309068467881944,0.8695156097412109,0.35986073811848956,0.13320679664611818]},{"name":"chair","coordinates":[1.105765363905165,0.7155611038208007,0.4104948255750868,0.09803586800893148]},{"name":"bowl","coordinates":[1.375399695502387,0.781091054280599,0.31777835422092016,0.09771566390991211]},{"name":"spoon","coordinates":[1.478879123263889,0.9449917475382487,0.19660941229926215,0.09622626304626465]},{"name":"cup","coordinates":[0.9477352566189237,0.7503781000773112,0.11684692170884874,0.11943890253702799]},{"name":"cup","coordinates":[0.815700191921658,0.7738963445027669,0.0965948740641276,0.12933203379313152]}]}
