{"src":"https://a0.muscache.com/im/pictures/103942104/30df59a2_original.jpg?aki_policy=xx_large","name":"FLAT FREE PARKING KREMLIN EIFFEL TOW-SHUKHOV TOWER","listingId":3586570,"photoId":"2038-10","tags":[{"name":"diningtable","coordinates":[-0.0010683377583821652,0.6783531030019124,0.33611765967475044,0.3177247683207194]},{"name":"oven","coordinates":[0.6947515593634712,0.5680850982666016,0.24703744252522786,0.4055802663167318]},{"name":"chair","coordinates":[0.2621334605746799,0.6590766429901123,0.1010684331258138,0.33258918126424153]},{"name":"chair","coordinates":[0.1502790504031711,0.6399742007255554,0.10397638744778104,0.07449483076731364]},{"name":"pottedplant","coordinates":[0.45243635177612307,0.5914216438929241,0.07605889638264975,0.07576228777567545]},{"name":"bowl","coordinates":[0.138127072652181,0.7429682910442352,0.09109899732801649,0.06173607110977173]},{"name":"bowl","coordinates":[0.22191251648796928,0.6876550177733103,0.06077108383178711,0.04633519252141317]},{"name":"pottedplant","coordinates":[0.3894851671324836,0.6133225301901499,0.04270299540625678,0.03952900171279907]},{"name":"cup","coordinates":[0.13670994440714518,0.6896765192349752,0.02423375447591146,0.05688302516937256]},{"name":"cup","coordinates":[0.14732338521215652,0.6915793756643931,0.020859677261776396,0.05270309050877889]}]}
