{"src":"https://a0.muscache.com/im/pictures/103941796/c2a86d82_original.jpg?aki_policy=xx_large","name":"FLAT FREE PARKING KREMLIN EIFFEL TOW-SHUKHOV TOWER","listingId":3586570,"photoId":"2038-10","tags":[{"name":"diningtable","coordinates":[0.47369176062020235,0.8021858851114909,0.32312835885025953,0.415328311920166]},{"name":"chair","coordinates":[0.8086810647734212,0.813654899597168,0.3313757290144692,0.32942253748575845]},{"name":"chair","coordinates":[0.3265300998301749,0.8170190175374349,0.23063081473798414,0.3482014020284017]},{"name":"microwave","coordinates":[0.24861288769463102,0.44599765141805015,0.15624651805720624,0.09486323197682699]},{"name":"bowl","coordinates":[0.5373530045141311,0.6534375508626302,0.07381334324774838,0.04550240039825439]},{"name":"bowl","coordinates":[0.4215326409030443,0.6491282145182292,0.06740857568223078,0.04434975783030192]},{"name":"cup","coordinates":[0.4866891396436671,0.6212329228719076,0.022927536468612342,0.054996434847513834]}]}
