{"src":"https://a0.muscache.com/im/pictures/6d3b7a0c-f2d1-4146-bbc7-ca3e2e770da2.jpg?aki_policy=xx_large","name":"Apartamente 2 rooms","listingId":3684499,"photoId":"2042-7","tags":[{"name":"bed","coordinates":[0.6219218254089356,0.8096441904703776,0.7512335777282715,0.39150975545247396]},{"name":"book","coordinates":[0.6825121879577637,0.8509490966796875,0.1683556318283081,0.09785850842793782]},{"name":"pottedplant","coordinates":[0.2599130868911743,0.6156530380249023,0.06577373743057251,0.08420362472534179]},{"name":"book","coordinates":[0.6987958431243897,0.9016194661458333,0.12426390647888183,0.040196927388509114]},{"name":"book","coordinates":[0.6994365692138672,0.9188618977864583,0.1259569048881531,0.033611007531483966]},{"name":"pottedplant","coordinates":[0.6078533172607422,0.5347564061482747,0.048032596707344055,0.08006728490193685]},{"name":"vase","coordinates":[0.25782346725463867,0.6333219528198242,0.03436574637889862,0.04679336945215861]}]}
