{"src":"https://a0.muscache.com/im/pictures/8c375128-78d8-4961-a08b-b6cce507de78.jpg?aki_policy=xx_large","name":"Apartamente 2 rooms","listingId":3684499,"photoId":"2042-7","tags":[{"name":"bed","coordinates":[1.5931808471679687,0.7924542744954427,0.4075054168701172,0.3632688522338867]},{"name":"sink","coordinates":[0.2905203289455838,0.6368310928344727,0.4253683302137587,0.10796339511871338]},{"name":"book","coordinates":[1.6234459771050347,0.7125384012858073,0.22324417961968315,0.04577115774154663]},{"name":"bottle","coordinates":[0.1261672125922309,0.5735438664754232,0.06073418723212348,0.0773005485534668]},{"name":"cup","coordinates":[0.4847521464029948,0.5582857131958008,0.05243500073750814,0.04033065636952718]}]}
