{"src":"https://a0.muscache.com/im/pictures/6d3b7a0c-f2d1-4146-bbc7-ca3e2e770da2.jpg?aki_policy=xx_large","name":"Apartamente 2 rooms","listingId":3684499,"photoId":"2042-7","tags":[{"name":"bed","coordinates":[0.24630503654479985,0.6138893127441406,0.7512335777282715,0.39150975545247396]},{"name":"book","coordinates":[0.5983343720436096,0.8020198424657187,0.1683556318283081,0.09785850842793782]},{"name":"pottedplant","coordinates":[0.22702621817588806,0.5735512256622315,0.06577373743057251,0.08420362472534179]},{"name":"book","coordinates":[0.6366638898849488,0.8815210024515787,0.12426390647888183,0.040196927388509114]},{"name":"book","coordinates":[0.6364581167697907,0.9020563940207164,0.1259569048881531,0.033611007531483966]},{"name":"pottedplant","coordinates":[0.5838370189070702,0.4947227636973063,0.048032596707344055,0.08006728490193685]},{"name":"vase","coordinates":[0.24064059406518937,0.6099252680937449,0.03436574637889862,0.04679336945215861]}]}
