{"src":"https://a0.muscache.com/im/pictures/a6c7425d-862a-4971-a070-fdc952a8379d.jpg?aki_policy=xx_large","name":"Private room in the  beach suburb Llandudno.","listingId":3755988,"photoId":"2043-3","tags":[{"name":"bowl","coordinates":[0.6007750617133246,0.7142306009928385,0.3810963524712457,0.2068101406097412]},{"name":"pottedplant","coordinates":[0.31370817820231117,0.5630393346150716,0.31898104349772133,0.20354914665222168]},{"name":"sofa","coordinates":[0.181466187371148,0.4245346387227376,0.3147855758666992,0.19379401206970215]},{"name":"chair","coordinates":[0.181466187371148,0.4245346387227376,0.3147855758666992,0.19379401206970215]},{"name":"sofa","coordinates":[0.7945181952582465,0.35685771306355796,0.39061448838975693,0.1532408078511556]},{"name":"chair","coordinates":[0.9155630323621962,0.5246129671732584,0.16365791956583658,0.22963064511617023]},{"name":"pottedplant","coordinates":[0.10682352913750542,0.09691154956817627,0.20149271223280166,0.1312391757965088]},{"name":"chair","coordinates":[0.5938407897949218,0.5092387835184733,0.2271142535739475,0.08851304054260253]},{"name":"pottedplant","coordinates":[0.46960101657443576,0.39319416681925456,0.10154389275444878,0.11353608767191568]},{"name":"pottedplant","coordinates":[0.6617288377549914,0.26427361170450847,0.0695594416724311,0.08921535809834798]},{"name":"pottedplant","coordinates":[0.4064075046115451,0.4189785321553548,0.07907668749491374,0.04916746616363525]}]}
