{"src":"https://a0.muscache.com/im/pictures/a6c7425d-862a-4971-a070-fdc952a8379d.jpg?aki_policy=xx_large","name":"Private room in the  beach suburb Llandudno.","listingId":3755988,"photoId":"2043-3","tags":[{"name":"bowl","coordinates":[0.8010334156177662,0.7142306009928385,0.5081284699616608,0.2068101406097412]},{"name":"pottedplant","coordinates":[0.41827757093641493,0.5630393346150716,0.4253080579969618,0.20354914665222168]},{"name":"sofa","coordinates":[0.241954916494864,0.4245346387227376,0.419714101155599,0.19379401206970215]},{"name":"chair","coordinates":[0.241954916494864,0.4245346387227376,0.419714101155599,0.19379401206970215]},{"name":"sofa","coordinates":[1.059357593677662,0.35685771306355796,0.5208193178530093,0.1532408078511556]},{"name":"chair","coordinates":[1.2207507098162615,0.5246129671732584,0.21821055942111545,0.22963064511617023]},{"name":"pottedplant","coordinates":[0.14243137218334057,0.09691154956817627,0.26865694964373554,0.1312391757965088]},{"name":"chair","coordinates":[0.7917877197265625,0.5092387835184733,0.3028190047652633,0.08851304054260253]},{"name":"pottedplant","coordinates":[0.6261346887659144,0.39319416681925456,0.1353918570059317,0.11353608767191568]},{"name":"pottedplant","coordinates":[0.882305117006655,0.26427361170450847,0.09274592222990813,0.08921535809834798]},{"name":"pottedplant","coordinates":[0.5418766728153935,0.4189785321553548,0.10543558332655165,0.04916746616363525]}]}
