{"src":"https://a0.muscache.com/im/pictures/a6c7425d-862a-4971-a070-fdc952a8379d.jpg?aki_policy=xx_large","name":"Private room in the  beach suburb Llandudno.","listingId":3755988,"photoId":"2043-3","tags":[{"name":"bowl","coordinates":[0.4102268854777018,0.610825530687968,0.3810963524712457,0.2068101406097412]},{"name":"pottedplant","coordinates":[0.1542176564534505,0.46126476128896077,0.31898104349772133,0.20354914665222168]},{"name":"sofa","coordinates":[0.024073399437798404,0.32763763268788654,0.3147855758666992,0.19379401206970215]},{"name":"chair","coordinates":[0.024073399437798404,0.32763763268788654,0.3147855758666992,0.19379401206970215]},{"name":"sofa","coordinates":[0.5992109510633681,0.2802373091379802,0.39061448838975693,0.1532408078511556]},{"name":"chair","coordinates":[0.8337340725792779,0.4097976446151733,0.16365791956583658,0.22963064511617023]},{"name":"pottedplant","coordinates":[0.0060771730211045955,0.031291961669921875,0.20149271223280166,0.1312391757965088]},{"name":"chair","coordinates":[0.4802836630079481,0.464982263247172,0.2271142535739475,0.08851304054260253]},{"name":"pottedplant","coordinates":[0.4188290701972114,0.3364261229832967,0.10154389275444878,0.11353608767191568]},{"name":"pottedplant","coordinates":[0.6269491169187759,0.2196659326553345,0.0695594416724311,0.08921535809834798]},{"name":"pottedplant","coordinates":[0.3668691608640883,0.3943947990735372,0.07907668749491374,0.04916746616363525]}]}
