{"src":"https://a0.muscache.com/im/pictures/51f4a6c9-0f97-4b59-8326-6b281fa99cc4.jpg?aki_policy=xx_large","name":"Private room in the  beach suburb Llandudno.","listingId":3755988,"photoId":"2043-20","tags":[{"name":"diningtable","coordinates":[0.48642650180392794,0.7075812021891276,0.9794139438205295,0.6039435704549153]},{"name":"oven","coordinates":[0.48859871758355033,0.26846078236897786,0.3907280392116971,0.25562599500020344]},{"name":"bottle","coordinates":[0.24859515296088325,0.44331671396891276,0.08425237337748209,0.17719833056131998]},{"name":"bottle","coordinates":[0.324493047926161,0.4797843297322591,0.08589442041185168,0.16507515907287598]},{"name":"cup","coordinates":[0.574033440483941,0.54156068166097,0.1423423449198405,0.08927799065907796]},{"name":"vase","coordinates":[0.44627855088975693,0.5694830576578777,0.10133193333943685,0.07447439829508463]},{"name":"sink","coordinates":[0.9533866034613715,0.2593223730723063,0.10055529276529948,0.05575634241104126]},{"name":"cup","coordinates":[0.36602783203125,0.569081433614095,0.06343278355068631,0.06625381708145142]},{"name":"cup","coordinates":[0.30836931864420575,0.567508316040039,0.05969124899970161,0.06385631163914998]}]}
