{"src":"https://a0.muscache.com/im/pictures/51f4a6c9-0f97-4b59-8326-6b281fa99cc4.jpg?aki_policy=xx_large","name":"Private room in the  beach suburb Llandudno.","listingId":3755988,"photoId":"2043-20","tags":[{"name":"diningtable","coordinates":[-0.003280470106336808,0.4056094169616699,0.9794139438205295,0.6039435704549153]},{"name":"oven","coordinates":[0.2932346979777018,0.14064778486887614,0.3907280392116971,0.25562599500020344]},{"name":"bottle","coordinates":[0.2064689662721422,0.3547175486882528,0.08425237337748209,0.17719833056131998]},{"name":"bottle","coordinates":[0.28154583772023517,0.3972467501958211,0.08589442041185168,0.16507515907287598]},{"name":"cup","coordinates":[0.5028622680240208,0.4969216863314311,0.1423423449198405,0.08927799065907796]},{"name":"vase","coordinates":[0.39561258422003853,0.5322458585103353,0.10133193333943685,0.07447439829508463]},{"name":"sink","coordinates":[0.9031089570787217,0.2314442018667857,0.10055529276529948,0.05575634241104126]},{"name":"cup","coordinates":[0.33431144025590687,0.5359545250733693,0.06343278355068631,0.06625381708145142]},{"name":"cup","coordinates":[0.27852369414435496,0.5355801602204641,0.05969124899970161,0.06385631163914998]}]}
