{"src":"https://a0.muscache.com/im/pictures/cc5d53cd-e1e8-414c-bfa7-bfc8ac5c10c6.jpg?aki_policy=xx_large","name":"The Blue Room","listingId":3811926,"photoId":"2044-5","tags":[{"name":"diningtable","coordinates":[0.5046717325846354,0.741647211710612,0.9046631707085504,0.4457370440165202]},{"name":"book","coordinates":[0.8094212002224392,0.8286717096964519,0.35400307973225914,0.3467478434244792]},{"name":"bed","coordinates":[0.13197557661268447,0.589833132425944,0.2720621532864041,0.33611777623494465]},{"name":"cup","coordinates":[0.6264100816514757,0.5654102325439453,0.12242787679036458,0.2213083267211914]},{"name":"cup","coordinates":[0.5219584147135417,0.5470043818155924,0.09506526523166232,0.19152398109436036]}]}
