{"src":"https://a0.muscache.com/im/pictures/388f6f0f-a8ba-416d-8a72-04e56bfb695a.jpg?aki_policy=xx_large","name":"Nice 2BR Apart in Batterie IV","listingId":3919046,"photoId":"2046-2","tags":[{"name":"diningtable","coordinates":[0.5604924625820583,0.5636136054992675,0.331448851691352,0.34802786509195965]},{"name":"chair","coordinates":[0.7994743241204156,0.5188333511352539,0.18716822730170357,0.4415205637613932]},{"name":"chair","coordinates":[0.14920030170016818,0.6083089510599772,0.19296275244818795,0.3206412633260091]},{"name":"chair","coordinates":[0.5830810070037842,0.518339983622233,0.15725420845879448,0.36527798970540365]},{"name":"sofa","coordinates":[0.0030125141143798745,0.6763410727183023,0.12314238018459744,0.31442639032999675]},{"name":"chair","coordinates":[0.5022228320439657,0.519766076405843,0.0839264604780409,0.29009698232014974]},{"name":"chair","coordinates":[0.4273461712731255,0.5396572907765707,0.08175895478990343,0.20307041803995768]},{"name":"bowl","coordinates":[0.45367865562438964,0.8035902281602224,0.11068832609388564,0.0577032208442688]},{"name":"apple","coordinates":[0.593589096599155,0.8430553634961446,0.03580340809292264,0.049237147967020674]}]}
