{"src":"https://a0.muscache.com/im/pictures/388f6f0f-a8ba-416d-8a72-04e56bfb695a.jpg?aki_policy=xx_large","name":"Nice 2BR Apart in Batterie IV","listingId":3919046,"photoId":"2046-2","tags":[{"name":"diningtable","coordinates":[0.7262168884277344,0.7376275380452474,0.331448851691352,0.34802786509195965]},{"name":"chair","coordinates":[0.8930584377712674,0.7395936330159505,0.18716822730170357,0.4415205637613932]},{"name":"chair","coordinates":[0.24568167792426215,0.7686295827229818,0.19296275244818795,0.3206412633260091]},{"name":"chair","coordinates":[0.6617081112331814,0.7009789784749348,0.15725420845879448,0.36527798970540365]},{"name":"sofa","coordinates":[0.0645837042066786,0.8335542678833008,0.12314238018459744,0.31442639032999675]},{"name":"chair","coordinates":[0.5441860622829862,0.664814567565918,0.0839264604780409,0.29009698232014974]},{"name":"chair","coordinates":[0.46822564866807725,0.6411924997965495,0.08175895478990343,0.20307041803995768]},{"name":"bowl","coordinates":[0.5090228186713325,0.8324418385823568,0.11068832609388564,0.0577032208442688]},{"name":"apple","coordinates":[0.6114908006456163,0.8676739374796549,0.03580340809292264,0.049237147967020674]}]}
