{"src":"https://z0.muscache.cn/im/pictures/5acbaa43-dec1-41b3-80a5-f97e66715ac6.jpg?aki_policy=xx_large","name":"Cozy room in a villa near the beach","listingId":3954599,"photoId":"2048-1","tags":[{"name":"diningtable","coordinates":[0.08220108879937071,0.5448345184326172,0.7136649237738715,0.43861592610677086]},{"name":"chair","coordinates":[0.05986357794867622,0.6677843570709228,0.26436534457736544,0.3230105400085449]},{"name":"chair","coordinates":[0.39028617011176214,0.6985948244730631,0.2652222527398003,0.2996901830037435]},{"name":"chair","coordinates":[0.6516191429562039,0.6009490013122558,0.1201880243089464,0.4083171208699544]},{"name":"chair","coordinates":[0.5570450729793972,0.6646786053975423,0.14302036497328016,0.31733163197835285]},{"name":"chair","coordinates":[0.21228935983445907,0.5469531853993734,0.10243637296888564,0.10793358484903971]},{"name":"chair","coordinates":[0.6237334940168593,0.5476601163546244,0.11360606087578667,0.06469716231028239]},{"name":"bowl","coordinates":[0.4916030115551419,0.5969485918680826,0.06379248831007216,0.05751946767171224]},{"name":"cup","coordinates":[0.6233265293969048,0.5896027286847432,0.041290632883707684,0.0600297212600708]}]}
