{"src":"https://z0.muscache.cn/im/pictures/5acbaa43-dec1-41b3-80a5-f97e66715ac6.jpg?aki_policy=xx_large","name":"Cozy room in a villa near the beach","listingId":3954599,"photoId":"2048-1","tags":[{"name":"diningtable","coordinates":[0.43903355068630645,0.7641424814860026,0.7136649237738715,0.43861592610677086]},{"name":"chair","coordinates":[0.19204625023735894,0.8292896270751953,0.26436534457736544,0.3230105400085449]},{"name":"chair","coordinates":[0.5228972964816623,0.8484399159749348,0.2652222527398003,0.2996901830037435]},{"name":"chair","coordinates":[0.7117131551106771,0.8051075617472331,0.1201880243089464,0.4083171208699544]},{"name":"chair","coordinates":[0.6285552554660373,0.8233444213867187,0.14302036497328016,0.31733163197835285]},{"name":"chair","coordinates":[0.2635075463189019,0.6009199778238933,0.10243637296888564,0.10793358484903971]},{"name":"chair","coordinates":[0.6805365244547527,0.5800086975097656,0.11360606087578667,0.06469716231028239]},{"name":"bowl","coordinates":[0.523499255710178,0.6257083257039388,0.06379248831007216,0.05751946767171224]},{"name":"cup","coordinates":[0.6439718458387587,0.6196175893147786,0.041290632883707684,0.0600297212600708]}]}
