{"src":"https://a0.muscache.com/im/pictures/90480ddb-b719-4b81-863f-c0e8792407d3.jpg?aki_policy=xx_large","name":"No.207 Convenient access to Namba and Tennoji","listingId":13837469,"photoId":"205-4","tags":[{"name":"refrigerator","coordinates":[0.5446309407552083,0.42380832036336263,0.19027926127115885,0.4595611572265625]},{"name":"chair","coordinates":[0.2404250038994683,0.7549931208292643,0.19557626512315537,0.4281590461730957]},{"name":"chair","coordinates":[0.07142532666524251,0.8319756825764973,0.14422941207885742,0.3229657808939616]},{"name":"tvmonitor","coordinates":[0.0350392394595676,0.47065337498982746,0.07213123109605578,0.23405435880025227]},{"name":"vase","coordinates":[0.16067478391859266,0.5384372075398763,0.025315001275804307,0.06877532800038656]}]}
