{"src":"https://a0.muscache.com/im/pictures/90480ddb-b719-4b81-863f-c0e8792407d3.jpg?aki_policy=xx_large","name":"No.207 Convenient access to Namba and Tennoji","listingId":13837469,"photoId":"205-4","tags":[{"name":"refrigerator","coordinates":[0.44949131011962895,0.1940277417500814,0.19027926127115885,0.4595611572265625]},{"name":"chair","coordinates":[0.1426368713378906,0.5409135977427164,0.19557626512315537,0.4281590461730957]},{"name":"chair","coordinates":[-0.0006893793741861998,0.6704927921295165,0.14422941207885742,0.3229657808939616]},{"name":"tvmonitor","coordinates":[-0.0010263760884602902,0.3536261955897013,0.07213123109605578,0.23405435880025227]},{"name":"vase","coordinates":[0.1480172832806905,0.504049543539683,0.025315001275804307,0.06877532800038656]}]}
