{"src":"https://a0.muscache.com/im/pictures/45a4c0a9-e917-4465-9c5e-0c69fe449388.jpg?aki_policy=xx_large","name":"No.207 Convenient access to Namba and Tennoji","listingId":13837469,"photoId":"205-9","tags":[{"name":"diningtable","coordinates":[1.3712404604311343,0.6250398635864258,2.382236056857639,0.727245012919108]},{"name":"sandwich","coordinates":[1.5175461380570023,0.6593754450480144,0.7284659491644965,0.23356285095214843]},{"name":"chair","coordinates":[0.37540591204607926,0.22692824999491373,0.6640735202365451,0.21063173611958821]},{"name":"cup","coordinates":[1.7714942084418404,0.42117802302042645,0.39025087709780093,0.2993612289428711]},{"name":"cup","coordinates":[0.900834486219618,0.527359422047933,0.32552433720341434,0.22767674128214518]},{"name":"cup","coordinates":[0.8752586082175926,0.33559141159057615,0.24067877310293692,0.21399596532185872]}]}
