{"src":"https://a0.muscache.com/im/pictures/1fcd5a9e-bfc0-4384-99ec-3133de4867aa.jpg?aki_policy=xx_large","name":"Nice house at 1e CLASS location","listingId":13663137,"photoId":"205-9","tags":[{"name":"sofa","coordinates":[2.3491666153322126,0.8505934397379558,0.6162039733773481,0.2678111712137858]},{"name":"chair","coordinates":[2.3491666153322126,0.8505934397379558,0.6162039733773481,0.2678111712137858]},{"name":"chair","coordinates":[0.6785519516755566,0.8267402648925781,0.23441241092717272,0.26698617935180663]},{"name":"pottedplant","coordinates":[0.1340212990047759,0.7460599263509115,0.245354024289048,0.19613634745279948]},{"name":"chair","coordinates":[0.7570760581842823,0.8048566182454427,0.16540617933963359,0.24665255546569825]},{"name":"pottedplant","coordinates":[1.8740438202980056,0.856936264038086,0.18983135329549078,0.10420328776041667]},{"name":"person","coordinates":[2.332796963778409,0.5523178100585937,0.0922487786174484,0.11690472761789958]},{"name":"person","coordinates":[1.9112057376217533,0.5779596328735351,0.12331185137407236,0.08492295742034912]},{"name":"person","coordinates":[2.2889950102910483,0.5661137262980144,0.08229223474279626,0.09351996580759685]}]}
