{"src":"https://a0.muscache.com/im/pictures/7d28f72b-30a4-4035-8c2b-fb482b1e0135.jpg?aki_policy=xx_large","name":"No.207 Convenient access to Namba and Tennoji","listingId":13837469,"photoId":"205-10","tags":[{"name":"diningtable","coordinates":[0.5113525390625,0.6215804662459936,0.9316873213357588,0.7550285045917218]},{"name":"bowl","coordinates":[0.44705736314928207,0.612605461707482,0.26617139788526506,0.24857176267183745]},{"name":"chair","coordinates":[0.1961543029658264,0.24154127561129057,0.22392366532228591,0.1527434495779184]},{"name":"cup","coordinates":[0.490087306920803,0.3719349152002579,0.103103034957283,0.23653790889642176]},{"name":"cup","coordinates":[0.3590481890957965,0.350622201577211,0.07986759495090794,0.23497398083026594]},{"name":"cup","coordinates":[0.36491229083086996,0.46568821638058394,0.10678709668577832,0.1566158563662798]}]}
