{"src":"https://a0.muscache.com/im/pictures/45a4c0a9-e917-4465-9c5e-0c69fe449388.jpg?aki_policy=xx_large","name":"No.207 Convenient access to Namba and Tennoji","listingId":13837469,"photoId":"205-10","tags":[{"name":"diningtable","coordinates":[0.5142151726616754,0.6250398635864258,0.8933385213216146,0.727245012919108]},{"name":"sandwich","coordinates":[0.5690798017713758,0.6593754450480144,0.2731747309366862,0.23356285095214843]},{"name":"chair","coordinates":[0.14077721701727974,0.22692824999491373,0.24902757008870444,0.21063173611958821]},{"name":"cup","coordinates":[0.6643103281656901,0.42117802302042645,0.14634407891167533,0.2993612289428711]},{"name":"cup","coordinates":[0.33781293233235676,0.527359422047933,0.12207162645128038,0.22767674128214518]},{"name":"cup","coordinates":[0.3282219780815972,0.33559141159057615,0.09025453991360134,0.21399596532185872]}]}
