{"src":"https://a0.muscache.com/im/pictures/45a4c0a9-e917-4465-9c5e-0c69fe449388.jpg?aki_policy=xx_large","name":"No.207 Convenient access to Namba and Tennoji","listingId":13837469,"photoId":"205-10","tags":[{"name":"diningtable","coordinates":[0.06754591200086807,0.2614173571268718,0.8933385213216146,0.727245012919108]},{"name":"sandwich","coordinates":[0.43249243630303275,0.5425940195719402,0.2731747309366862,0.23356285095214843]},{"name":"chair","coordinates":[0.016263431972927525,0.12161238193511963,0.24902757008870444,0.21063173611958821]},{"name":"cup","coordinates":[0.5911382887098524,0.2714974085489909,0.14634407891167533,0.2993612289428711]},{"name":"cup","coordinates":[0.2767771191067166,0.41352105140686035,0.12207162645128038,0.22767674128214518]},{"name":"cup","coordinates":[0.28309470812479653,0.2285934289296468,0.09025453991360134,0.21399596532185872]}]}
