{"src":"https://a0.muscache.com/im/pictures/8b780cbd-675b-4c03-a8e3-e0739c7e666c.jpg?aki_policy=xx_large","name":"Nice house at 1e CLASS location","listingId":13663137,"photoId":"205-17","tags":[{"name":"diningtable","coordinates":[0.1610834863450792,0.825571886698405,0.17102046542697483,0.34678837458292644]},{"name":"chair","coordinates":[0.2625464121500651,0.8018930435180665,0.08621630138821072,0.30897178649902346]},{"name":"bench","coordinates":[0.545987786187066,0.5966687520345052,0.1393914540608724,0.06562373638153077]},{"name":"bench","coordinates":[0.8213393317328559,0.5472497304280599,0.09631409115261502,0.08400259017944336]},{"name":"chair","coordinates":[0.08389854960971409,0.716073735555013,0.038860479990641274,0.10568787256876627]},{"name":"person","coordinates":[0.5264425913492838,0.45648600260416666,0.010371736023161146,0.031491714715957644]}]}
