{"src":"https://a0.muscache.com/im/pictures/7d28f72b-30a4-4035-8c2b-fb482b1e0135.jpg?aki_policy=xx_large","name":"No.207 Convenient access to Namba and Tennoji","listingId":13837469,"photoId":"205-10","tags":[{"name":"diningtable","coordinates":[0.9109650788483796,0.4040273030598958,1.6597837094907408,0.4907685279846191]},{"name":"bowl","coordinates":[0.7964244136103877,0.3981935501098633,0.4741794162326389,0.16157164573669433]},{"name":"chair","coordinates":[0.3494452582465278,0.15700182914733887,0.39891586303710935,0.09928324222564697]},{"name":"cup","coordinates":[0.8730814615885417,0.24175769488016766,0.1836761474609375,0.15374964078267414]},{"name":"cup","coordinates":[0.6396376998336227,0.22790443102518718,0.14228264137550636,0.15273308753967285]},{"name":"cup","coordinates":[0.6500844884801794,0.3026973406473796,0.19023923520688657,0.10180030663808187]}]}
