{"src":"https://a0.muscache.com/im/pictures/50449347/4b3aa771_original.jpg?aki_policy=xx_large","name":"Bright, Quiet, Private Bedroom!","listingId":4012123,"photoId":"2050-6","tags":[{"name":"oven","coordinates":[0.344968393113878,0.5145375569661458,0.5086891598171658,0.4729259490966797]},{"name":"spoon","coordinates":[0.1903436369366116,0.4538627465565999,0.0648377471499973,0.0746217409769694]},{"name":"spoon","coordinates":[0.2559515741136339,0.44990967512130736,0.044743919372558595,0.07867904504140218]},{"name":"bottle","coordinates":[0.8647851467132568,0.4700615286827087,0.034410148196750215,0.07385056018829346]},{"name":"bottle","coordinates":[0.8150017751587761,0.4536941170692444,0.029271080758836533,0.08562413056691488]},{"name":"bottle","coordinates":[0.7522397147284614,0.47131285667419437,0.03163880242241753,0.06934150060017903]},{"name":"knife","coordinates":[0.7024262481265597,0.43925169110298157,0.03567450841267904,0.027249181270599367]},{"name":"knife","coordinates":[0.7235364225175646,0.44128682514031725,0.024824195437961154,0.024963364998499552]}]}
