{"src":"https://a0.muscache.com/im/pictures/50449347/4b3aa771_original.jpg?aki_policy=xx_large","name":"Bright, Quiet, Private Bedroom!","listingId":4012123,"photoId":"2050-6","tags":[{"name":"oven","coordinates":[0.5993129730224609,0.7510005315144856,0.5086891598171658,0.4729259490966797]},{"name":"spoon","coordinates":[0.22276251051161025,0.4911736170450846,0.0648377471499973,0.0746217409769694]},{"name":"spoon","coordinates":[0.2783235337999132,0.48924919764200847,0.044743919372558595,0.07867904504140218]},{"name":"bottle","coordinates":[0.8819902208116319,0.5069868087768554,0.034410148196750215,0.07385056018829346]},{"name":"bottle","coordinates":[0.8296373155381944,0.49650618235270183,0.029271080758836533,0.08562413056691488]},{"name":"bottle","coordinates":[0.7680591159396701,0.5059836069742839,0.03163880242241753,0.06934150060017903]},{"name":"knife","coordinates":[0.7202635023328993,0.45287628173828126,0.03567450841267904,0.027249181270599367]},{"name":"knife","coordinates":[0.7359485202365451,0.45376850763956705,0.024824195437961154,0.024963364998499552]}]}
