{"src":"https://a0.muscache.com/im/pictures/4199d489-b4f9-4a61-8197-97a66d651ac8.jpg?aki_policy=xx_large","name":"A private room in khar/Bandra west","listingId":4101029,"photoId":"2054-0","tags":[{"name":"sofa","coordinates":[0.3456149532862283,0.4688909530639648,0.6214264601059015,0.489239501953125]},{"name":"pottedplant","coordinates":[0.2117470693622785,0.4340299526850383,0.08767405737145581,0.21533560752868652]},{"name":"pottedplant","coordinates":[0.3522055016144042,0.4380934953689576,0.10446144894013622,0.13548846244812013]},{"name":"pottedplant","coordinates":[0.18324123993030414,0.43411858081817634,0.06772427348275706,0.20325751304626466]},{"name":"chair","coordinates":[0.9384509811014649,0.7842230955759685,0.05664776823470594,0.18044729232788087]},{"name":"book","coordinates":[0.40044341753739365,0.7883937895298004,0.11553097668978549,0.06351558764775594]},{"name":"vase","coordinates":[0.33744143541958954,0.6830869317054749,0.04984928161488505,0.09516685009002686]},{"name":"vase","coordinates":[0.28704959805852515,0.6607536852359772,0.034680125507904426,0.05674999952316284]}]}
