{"src":"https://a0.muscache.com/im/pictures/4199d489-b4f9-4a61-8197-97a66d651ac8.jpg?aki_policy=xx_large","name":"A private room in khar/Bandra west","listingId":4101029,"photoId":"2054-0","tags":[{"name":"sofa","coordinates":[0.6563281833391791,0.7135107040405273,0.6214264601059015,0.489239501953125]},{"name":"pottedplant","coordinates":[0.2555840980480064,0.5416977564493816,0.08767405737145581,0.21533560752868652]},{"name":"pottedplant","coordinates":[0.40443622608447233,0.5058377265930176,0.10446144894013622,0.13548846244812013]},{"name":"pottedplant","coordinates":[0.21710337667168267,0.5357473373413086,0.06772427348275706,0.20325751304626466]},{"name":"chair","coordinates":[0.9667748652188178,0.8744467417399089,0.05664776823470594,0.18044729232788087]},{"name":"book","coordinates":[0.4582089058822864,0.8201515833536784,0.11553097668978549,0.06351558764775594]},{"name":"vase","coordinates":[0.36236607622703204,0.7306703567504883,0.04984928161488505,0.09516685009002686]},{"name":"vase","coordinates":[0.30438966081247737,0.6891286849975586,0.034680125507904426,0.05674999952316284]}]}
