{"src":"https://a0.muscache.com/im/pictures/51b428eb-aa12-4887-a8d9-be859797f6e1.jpg?aki_policy=xx_large","name":"A private room in khar/Bandra west","listingId":4101029,"photoId":"2054-4","tags":[{"name":"toilet","coordinates":[0.2963066101074219,0.7459540049235026,0.09773212009006077,0.16803255081176757]},{"name":"pottedplant","coordinates":[0.4425894843207465,0.1462213675181071,0.08628058433532715,0.14830775260925294]},{"name":"bottle","coordinates":[0.3512611389160156,0.28445250193277993,0.013010136286417643,0.08729120095570882]},{"name":"bowl","coordinates":[0.2912136289808485,0.31313708623250325,0.038834571838378906,0.02877172629038493]},{"name":"bowl","coordinates":[0.26177991231282555,0.3096793174743652,0.026497175958421496,0.037907477219899496]},{"name":"bowl","coordinates":[0.2913722144232856,0.3015241305033366,0.033453869819641116,0.018619877099990845]},{"name":"bowl","coordinates":[0.3332394705878364,0.32075522740681967,0.020248375998602974,0.014318623145421346]}]}
