{"src":"https://a0.muscache.com/im/pictures/51919302/67ca78b5_original.jpg?aki_policy=xx_large","name":"3 blocks to Beale,Suite w/QUEEN bed","listingId":4130290,"photoId":"2055-10","tags":[{"name":"diningtable","coordinates":[0.3575937509536743,0.49525159200032554,0.6392360210418702,0.46276639302571615]},{"name":"chair","coordinates":[0.43374655842781074,0.586853313446045,0.16803325414657594,0.39451605478922525]},{"name":"chair","coordinates":[0.3424102425575256,0.524835968017578,0.13435399532318115,0.4421993255615234]},{"name":"chair","coordinates":[0.5685602545738221,0.6664343516031901,0.18834164142608642,0.31374053955078124]},{"name":"sofa","coordinates":[0.18298898935317992,0.4148990551630656,0.23388054370880126,0.24861502647399902]},{"name":"chair","coordinates":[0.37665519714355467,0.3690191348393758,0.21066160202026368,0.1896812915802002]},{"name":"chair","coordinates":[0.7925138294696807,0.493021043141683,0.15259593725204468,0.16551265716552735]},{"name":"chair","coordinates":[0.6705300331115723,0.4578930854797364,0.11265344619750976,0.1374636967976888]},{"name":"vase","coordinates":[0.8412355244159698,0.2206395228703817,0.08140758275985718,0.13494985898335773]},{"name":"bottle","coordinates":[0.6783020004630089,0.5141387303670247,0.044783022999763486,0.13793551127115886]},{"name":"vase","coordinates":[0.6216295927762986,0.5154399553934733,0.043854767084121705,0.1360740025838216]},{"name":"bottle","coordinates":[0.6216295927762986,0.5154399553934733,0.043854767084121705,0.1360740025838216]}]}
