{"src":"https://a0.muscache.com/im/pictures/56480382/cfc50f00_original.jpg?aki_policy=xx_large","name":"Full deniz manzaralı muhteşem daire","listingId":4132752,"photoId":"2056-14","tags":[{"name":"refrigerator","coordinates":[0.7153285384178162,-0.024252128601074285,0.27884113788604736,1.0623250325520834]},{"name":"refrigerator","coordinates":[0.27609663605690005,0.5235208988189697,0.18087972402572633,0.4088482220967611]},{"name":"diningtable","coordinates":[-0.01216590404510498,0.7074703137079874,0.21193430423736573,0.25798532168070476]},{"name":"microwave","coordinates":[0.5300048410892486,0.2379762649536133,0.18936794996261597,0.17097415924072265]},{"name":"chair","coordinates":[0.13204677700996398,0.6979183276494344,0.07592233419418334,0.15827279090881347]},{"name":"sink","coordinates":[0.5225060820579528,0.6238855878512065,0.17488501071929932,0.06315526167551676]},{"name":"microwave","coordinates":[0.2544076532125473,0.4491785963376363,0.0996275246143341,0.09166311422983806]},{"name":"chair","coordinates":[0.10878180265426637,0.6730678280194601,0.06901757717132569,0.09871005217234294]},{"name":"bottle","coordinates":[0.5329720839858055,0.532120672861735,0.038793590664863584,0.0710086186726888]},{"name":"bottle","coordinates":[0.6310115188360214,0.5431012590726217,0.029273825883865356,0.09133692582448323]}]}
