{"src":"https://a0.muscache.com/im/pictures/56480382/cfc50f00_original.jpg?aki_policy=xx_large","name":"Full deniz manzaralı muhteşem daire","listingId":4132752,"photoId":"2056-14","tags":[{"name":"refrigerator","coordinates":[0.8547491073608399,0.5069103876749674,0.27884113788604736,1.0623250325520834]},{"name":"refrigerator","coordinates":[0.3665364980697632,0.7279450098673502,0.18087972402572633,0.4088482220967611]},{"name":"diningtable","coordinates":[0.09380124807357788,0.8364629745483398,0.21193430423736573,0.25798532168070476]},{"name":"microwave","coordinates":[0.6246888160705566,0.32346334457397463,0.18936794996261597,0.17097415924072265]},{"name":"chair","coordinates":[0.17000794410705566,0.7770547231038412,0.07592233419418334,0.15827279090881347]},{"name":"sink","coordinates":[0.6099485874176025,0.6554632186889648,0.17488501071929932,0.06315526167551676]},{"name":"microwave","coordinates":[0.3042214155197144,0.49501015345255533,0.0996275246143341,0.09166311422983806]},{"name":"chair","coordinates":[0.1432905912399292,0.7224228541056316,0.06901757717132569,0.09871005217234294]},{"name":"bottle","coordinates":[0.5523688793182373,0.5676249821980794,0.038793590664863584,0.0710086186726888]},{"name":"bottle","coordinates":[0.6456484317779541,0.5887697219848633,0.029273825883865356,0.09133692582448323]}]}
