{"src":"https://a0.muscache.com/im/pictures/8841425d-d3e5-4da9-88df-cf265640318e.jpg?aki_policy=xx_large","name":"Апартаменты \"Два моста\" с шикарным видом на город","listingId":13845472,"photoId":"206-4","tags":[{"name":"bed","coordinates":[-0.006607974868222899,0.6615609169006347,0.5844612797467443,0.32844982147216795]},{"name":"tvmonitor","coordinates":[0.5746774923539516,0.3016891797383626,0.14888926180941597,0.18057320912679037]},{"name":"pottedplant","coordinates":[0.8431029938198336,0.7892148335774739,0.1416056610691387,0.17310969034830728]},{"name":"pottedplant","coordinates":[0.054490168495097115,0.5143196423848471,0.08480598130689117,0.1871437708536784]},{"name":"pottedplant","coordinates":[0.43157364745920723,0.5678811947504678,0.0750569236101114,0.12259319623311361]},{"name":"vase","coordinates":[0.07988831609973326,0.6096656481424968,0.024476435909365865,0.10588944753011068]},{"name":"vase","coordinates":[0.46593191943043605,0.6561789512634277,0.022606270436612026,0.040531222025553384]},{"name":"vase","coordinates":[0.5135771476318446,0.46346232493718464,0.016763938563162346,0.03972872893015544]}]}
