{"src":"https://a0.muscache.com/im/pictures/57854714/1560c6c3_original.jpg?aki_policy=xx_large","name":"Wisma Delima: Exclusive Guesthouse","listingId":4381080,"photoId":"2061-4","tags":[{"name":"chair","coordinates":[0.4118996533480557,0.8831837336222331,0.1351386850530451,0.21390164693196614]},{"name":"tvmonitor","coordinates":[0.47562109340320935,0.4336515744527181,0.13712545958432285,0.14212652842203777]},{"name":"pottedplant","coordinates":[0.46472245996648615,0.23498387336730958,0.09724937785755504,0.08386714458465576]},{"name":"sink","coordinates":[0.7515308206731622,0.6064289728800456,0.10460657423192804,0.05093373457590739]},{"name":"sink","coordinates":[0.7913345857100054,0.454778798421224,0.07948528094725175,0.04380977153778076]},{"name":"book","coordinates":[0.2271303263577548,0.2623820622762044,0.031343094327233055,0.09515104293823243]},{"name":"book","coordinates":[0.2620870200070468,0.2667732238769531,0.030484234744852238,0.08288138707478841]},{"name":"book","coordinates":[0.34338994459672406,0.27371336619059244,0.01132581044327129,0.06722980340321859]},{"name":"book","coordinates":[0.3060410889712247,0.273359489440918,0.010577845979820599,0.068604310353597]},{"name":"book","coordinates":[0.32358683239329944,0.27399752934773763,0.010138174349611456,0.06489374637603759]},{"name":"book","coordinates":[0.8939834941517223,0.31568374633789065,0.007422023876146836,0.034975938002268475]}]}
