{"src":"https://a0.muscache.com/im/pictures/57854714/1560c6c3_original.jpg?aki_policy=xx_large","name":"Wisma Delima: Exclusive Guesthouse","listingId":4381080,"photoId":"2061-7","tags":[{"name":"chair","coordinates":[0.40330647560087796,0.8831837336222331,0.13231938007975486,0.21390164693196614]},{"name":"tvmonitor","coordinates":[0.4656985392988308,0.4336515744527181,0.1342647059073203,0.14212652842203777]},{"name":"pottedplant","coordinates":[0.4550272765179503,0.23498387336730958,0.09522053130976182,0.08386714458465576]},{"name":"sink","coordinates":[0.735852152647992,0.6064289728800456,0.10242423958174873,0.05093373457590739]},{"name":"sink","coordinates":[0.7748255192487395,0.454778798421224,0.07782703447408239,0.04380977153778076]},{"name":"book","coordinates":[0.22239186336002695,0.2623820622762044,0.03068920501581651,0.09515104293823243]},{"name":"book","coordinates":[0.25661927967310283,0.2667732238769531,0.02984826322722667,0.08288138707478841]},{"name":"book","coordinates":[0.33622603754672287,0.27371336619059244,0.011089527888821959,0.06722980340321859]},{"name":"book","coordinates":[0.29965636527919637,0.273359489440918,0.010357167690950906,0.068604310353597]},{"name":"book","coordinates":[0.316836063984538,0.27399752934773763,0.009926668626045153,0.06489374637603759]},{"name":"book","coordinates":[0.8753329344684457,0.31568374633789065,0.007267183322402466,0.034975938002268475]}]}
