{"src":"https://a0.muscache.com/im/pictures/77535777/4ff94e32_original.jpg?aki_policy=xx_large","name":"Wisma Delima: Exclusive Guesthouse","listingId":4381080,"photoId":"2061-5","tags":[{"name":"diningtable","coordinates":[0.13812742233276368,0.674563964207967,0.27806407080756296,0.3093207359313965]},{"name":"refrigerator","coordinates":[0.6833574506971571,0.5852954705556234,0.1599315219455295,0.3241761843363444]},{"name":"chair","coordinates":[0.14813391367594403,0.6511355400085449,0.12076216803656684,0.3364706039428711]},{"name":"chair","coordinates":[0.3338587284088135,0.7060117721557617,0.13559132681952582,0.29018046061197916]},{"name":"chair","coordinates":[0.20736025704277888,0.7246884504954021,0.13599279191758898,0.2788617769877116]},{"name":"pottedplant","coordinates":[0.38691647317674427,0.3523453712463379,0.11336577733357747,0.31467851003011066]},{"name":"tvmonitor","coordinates":[0.560769870546129,0.39868958791097,0.14440018335978191,0.2170903523763021]},{"name":"chair","coordinates":[0.2989311854044596,0.5890845477581024,0.06896472507052952,0.06121180454889933]},{"name":"pottedplant","coordinates":[0.5962858332528008,0.342571492989858,0.06007259686787923,0.0577225128809611]},{"name":"tvmonitor","coordinates":[0.36174560255474514,0.3294023374716441,0.04338408311208089,0.059323465824127196]},{"name":"bottle","coordinates":[0.3737578100628323,0.6203614632288614,0.01806106037563748,0.078835662206014]}]}
