{"src":"https://a0.muscache.com/im/pictures/57854714/1560c6c3_original.jpg?aki_policy=xx_large","name":"Wisma Delima: Exclusive Guesthouse","listingId":4381080,"photoId":"2061-7","tags":[{"name":"chair","coordinates":[0.33714678556100053,0.7762329101562501,0.13231938007975486,0.21390164693196614]},{"name":"tvmonitor","coordinates":[0.39856618634517066,0.36258831024169924,0.1342647059073203,0.14212652842203777]},{"name":"pottedplant","coordinates":[0.40741701086306936,0.1930503010749817,0.09522053130976182,0.08386714458465576]},{"name":"sink","coordinates":[0.6846400328571176,0.5809621055920919,0.10242423958174873,0.05093373457590739]},{"name":"sink","coordinates":[0.7359120020116984,0.4328739126523336,0.07782703447408239,0.04380977153778076]},{"name":"book","coordinates":[0.2070472608521187,0.21480654080708822,0.03068920501581651,0.09515104293823243]},{"name":"book","coordinates":[0.2416951480594895,0.2253325303395589,0.02984826322722667,0.08288138707478841]},{"name":"book","coordinates":[0.33068127360231186,0.24009846448898314,0.011089527888821959,0.06722980340321859]},{"name":"book","coordinates":[0.29447778143372094,0.2390573342641195,0.010357167690950906,0.068604310353597]},{"name":"book","coordinates":[0.3118727296715154,0.24155065615971882,0.009926668626045153,0.06489374637603759]},{"name":"book","coordinates":[0.8716993428072445,0.2981957773367564,0.007267183322402466,0.034975938002268475]}]}
