{"src":"https://a0.muscache.com/im/pictures/5379101/ca41e601_original.jpg?aki_policy=xx_large","name":"Comfortable room","listingId":459469,"photoId":"2064-5","tags":[{"name":"person","coordinates":[0.021595120429992662,0.11894356409708656,0.24152586460113526,0.9049650192260742]},{"name":"oven","coordinates":[0.5908115029335022,0.5638530413309732,0.22092339992523194,0.41547056833902996]},{"name":"microwave","coordinates":[0.4953295588493347,0.4781309405962626,0.13269312381744386,0.11060225963592529]},{"name":"bowl","coordinates":[0.32376778721809385,0.5084877431392669,0.06144684553146362,0.051380455493927]},{"name":"bowl","coordinates":[0.29936852753162385,0.7365066279967626,0.04539737105369568,0.02679702639579773]}]}
