{"src":"https://a0.muscache.com/im/pictures/5379101/ca41e601_original.jpg?aki_policy=xx_large","name":"Comfortable room","listingId":459469,"photoId":"2064-5","tags":[{"name":"person","coordinates":[0.1423580527305603,0.5714260737101237,0.24152586460113526,0.9049650192260742]},{"name":"oven","coordinates":[0.7012732028961182,0.7715883255004883,0.22092339992523194,0.41547056833902996]},{"name":"microwave","coordinates":[0.5616761207580566,0.5334320704142252,0.13269312381744386,0.11060225963592529]},{"name":"bowl","coordinates":[0.35449120998382566,0.5341779708862304,0.06144684553146362,0.051380455493927]},{"name":"bowl","coordinates":[0.3220672130584717,0.7499051411946615,0.04539737105369568,0.02679702639579773]}]}
