{"src":"https://a0.muscache.com/im/pictures/ce0ec93c-27b9-423e-b009-f14a85c1a191.jpg?aki_policy=xx_large","name":"edificio rafael","listingId":4736943,"photoId":"2068-9","tags":[{"name":"chair","coordinates":[0.6792895308462094,0.3777441660563151,0.28931467826371393,0.6259137471516927]},{"name":"bed","coordinates":[-0.006772527104868836,0.7119510014851889,0.40117055165262333,0.2704624176025391]},{"name":"sofa","coordinates":[-0.006772527104868836,0.7119510014851889,0.40117055165262333,0.2704624176025391]},{"name":"chair","coordinates":[-0.0061600760008578,0.3455381711324056,0.20379854988273105,0.49362659454345703]},{"name":"book","coordinates":[0.38226724217715075,0.011655894915262859,0.024496883050363207,0.10125643412272135]},{"name":"book","coordinates":[0.32623800061658653,0.006220595041910804,0.02164080012084876,0.11371578375498453]},{"name":"book","coordinates":[0.3077073557829178,0.0020566940307617104,0.01937063639987418,0.12297544479370118]},{"name":"book","coordinates":[0.36456173969027567,0.01052554845809936,0.02115976785602795,0.1051223119099935]},{"name":"book","coordinates":[0.34606993902549715,0.00821195046106974,0.019172782447290055,0.11063198248545329]},{"name":"book","coordinates":[0.40065366812593994,0.004963250954945882,0.016900786929365825,0.11059052149454753]}]}
