{"src":"https://a0.muscache.com/im/pictures/104619763/002e95cd_original.jpg?aki_policy=xx_large","name":"At the end of the alley, Medina of Tunis","listingId":4773427,"photoId":"2070-6","tags":[{"name":"diningtable","coordinates":[0.7597885608673096,0.8069126764933269,0.3426015853881836,0.3669959386189779]},{"name":"vase","coordinates":[0.14999688863754274,0.7474613189697266,0.0638096809387207,0.17418654759724936]},{"name":"bowl","coordinates":[0.7293936252593994,0.6212443669637044,0.08734809160232544,0.08412577311197916]},{"name":"orange","coordinates":[0.6996878623962403,0.5781579335530599,0.021188023686408996,0.03660914103190104]},{"name":"knife","coordinates":[0.35733957290649415,0.5088819185892741,0.018137608468532563,0.0287486732006073]},{"name":"bottle","coordinates":[0.7457524299621582,0.4843619346618652,0.013994136452674865,0.027244424819946288]},{"name":"bottle","coordinates":[0.7034121513366699,0.43808409372965496,0.012638367712497711,0.028037899732589723]},{"name":"bottle","coordinates":[0.7235847473144531,0.4861541430155436,0.011858345568180084,0.02882742683092753]},{"name":"bottle","coordinates":[0.7241904735565186,0.43837362925211587,0.012848015129566192,0.025688389937082928]},{"name":"bottle","coordinates":[0.7457719802856445,0.43797788619995115,0.012655122578144074,0.025336178143819173]},{"name":"bottle","coordinates":[0.7044568538665772,0.48709583282470703,0.009723464399576187,0.029712456464767455]}]}
