{"src":"https://a0.muscache.com/im/pictures/62074409/b6c2bc31_original.jpg?aki_policy=xx_large","name":"Belgrade Sweet Studio, Great LOC","listingId":4820610,"photoId":"2072-3","tags":[{"name":"bed","coordinates":[0.2531340916951497,0.74403870900472,0.5211988661024306,0.48538780212402344]},{"name":"bed","coordinates":[0.813594733344184,0.7650900522867838,0.3576155344645182,0.3896238962809245]},{"name":"diningtable","coordinates":[0.36702952914767795,0.5402718861897786,0.25582048628065324,0.12714810371398927]},{"name":"chair","coordinates":[0.4786676194932726,0.5959358851114909,0.0740110715230306,0.25925912857055666]},{"name":"tvmonitor","coordinates":[0.799993896484375,0.4517695744832357,0.13144053353203666,0.13848994572957357]}]}
