{"src":"https://a0.muscache.com/im/pictures/62074393/892c6744_original.jpg?aki_policy=xx_large","name":"Belgrade Sweet Studio, Great LOC","listingId":4820610,"photoId":"2072-1","tags":[{"name":"bed","coordinates":[0.5834280649820963,0.7686323165893555,0.8099049038357204,0.4734539031982422]},{"name":"diningtable","coordinates":[0.3419370651245117,0.7003644943237305,0.37414597405327693,0.328119436899821]},{"name":"chair","coordinates":[0.20715921190049913,0.7172403335571289,0.13180772993299697,0.3616771697998047]},{"name":"chair","coordinates":[0.4907505035400391,0.6243933995564779,0.12224015129937066,0.19427491823832194]},{"name":"chair","coordinates":[0.33504596286349825,0.6298556009928385,0.1031773567199707,0.22153301239013673]},{"name":"tvmonitor","coordinates":[0.6854070451524522,0.48036553064982096,0.0911876572502984,0.10502397219340007]},{"name":"chair","coordinates":[0.3203051461113824,0.5418958028157552,0.09569259219699436,0.03782694737116496]}]}
