{"src":"https://a0.muscache.com/im/pictures/62074409/b6c2bc31_original.jpg?aki_policy=xx_large","name":"Belgrade Sweet Studio, Great LOC","listingId":4820610,"photoId":"2072-3","tags":[{"name":"bed","coordinates":[-0.00746534135606558,0.5013448079427083,0.5211988661024306,0.48538780212402344]},{"name":"bed","coordinates":[0.6347869661119249,0.5702781041463216,0.3576155344645182,0.3896238962809245]},{"name":"diningtable","coordinates":[0.23911928600735133,0.476697834332784,0.25582048628065324,0.12714810371398927]},{"name":"chair","coordinates":[0.4416620837317573,0.46630632082621254,0.0740110715230306,0.25925912857055666]},{"name":"tvmonitor","coordinates":[0.7342736297183567,0.3825246016184489,0.13144053353203666,0.13848994572957357]}]}
