{"src":"https://a0.muscache.com/im/pictures/91b0152f-9668-4731-b75a-1c09d45abe9b.jpg?aki_policy=xx_large","name":"Sweet memory big house in city center on sale!","listingId":4876056,"photoId":"2074-3","tags":[{"name":"sofa","coordinates":[0.4414215564727783,0.6112120310465495,0.7884032249450683,0.3841849327087402]},{"name":"pottedplant","coordinates":[0.8077489852905273,0.4931024551391602,0.39036667346954346,0.5241656303405762]},{"name":"teddy-bear","coordinates":[0.47390041351318357,0.4353904406229655,0.06811046004295349,0.07808000246683756]},{"name":"bowl","coordinates":[0.7366332530975341,0.6816239674886068,0.10254113674163819,0.049664942423502605]},{"name":"remote","coordinates":[0.686888599395752,0.6982439041137696,0.07093214988708496,0.035079574584960936]}]}
