{"src":"https://a0.muscache.com/im/pictures/6707e17b-d31d-412c-b8e2-a36941f4b72f.jpg?aki_policy=xx_large","name":"Sweet memory big house in city center on sale!","listingId":4876056,"photoId":"2074-6","tags":[{"name":"sofa","coordinates":[0.5434722661972046,0.521322774887085,0.3704944133758545,0.29286139806111655]},{"name":"chair","coordinates":[0.686423933506012,0.7409231185913085,0.2876513242721558,0.26335665384928386]},{"name":"pottedplant","coordinates":[0.3592499405145645,0.4886857827504476,0.0905669867992401,0.17924362818400066]},{"name":"pottedplant","coordinates":[0.588418224453926,0.34965316454569495,0.0787338674068451,0.1842378298441569]},{"name":"pottedplant","coordinates":[0.49395273327827455,0.34440702994664507,0.10135606527328492,0.08810485998789469]},{"name":"pottedplant","coordinates":[0.2736609220504761,0.6033292174339294,0.07602057456970215,0.08714967568715414]},{"name":"teddy-bear","coordinates":[0.7714059829711913,0.45529210567474365,0.06337051391601563,0.08200542132059734]},{"name":"book","coordinates":[0.08220201432704925,0.8494539499282837,0.09658122658729554,0.04297544161478679]},{"name":"book","coordinates":[0.08448653519153594,0.8308540721734365,0.08863508105278015,0.03922213315963745]},{"name":"vase","coordinates":[0.4792759582400322,0.4935112794240316,0.02882944643497467,0.08748788833618164]}]}
