{"src":"https://a0.muscache.com/im/pictures/91b0152f-9668-4731-b75a-1c09d45abe9b.jpg?aki_policy=xx_large","name":"Sweet memory big house in city center on sale!","listingId":4876056,"photoId":"2074-3","tags":[{"name":"sofa","coordinates":[0.04721994400024415,0.4191195646921794,0.7884032249450683,0.3841849327087402]},{"name":"pottedplant","coordinates":[0.6125656485557556,0.2310196399688721,0.39036667346954346,0.5241656303405762]},{"name":"teddy-bear","coordinates":[0.4398451834917068,0.3963504393895467,0.06811046004295349,0.07808000246683756]},{"name":"bowl","coordinates":[0.685362684726715,0.6567914962768555,0.10254113674163819,0.049664942423502605]},{"name":"remote","coordinates":[0.6514225244522095,0.6807041168212891,0.07093214988708496,0.035079574584960936]}]}
