{"src":"https://a0.muscache.com/im/pictures/6707e17b-d31d-412c-b8e2-a36941f4b72f.jpg?aki_policy=xx_large","name":"Sweet memory big house in city center on sale!","listingId":4876056,"photoId":"2074-6","tags":[{"name":"sofa","coordinates":[0.7287194728851318,0.6677534739176433,0.3704944133758545,0.29286139806111655]},{"name":"chair","coordinates":[0.8302495956420899,0.8726014455159505,0.2876513242721558,0.26335665384928386]},{"name":"pottedplant","coordinates":[0.40453343391418456,0.5783075968424479,0.0905669867992401,0.17924362818400066]},{"name":"pottedplant","coordinates":[0.6277851581573486,0.4417720794677734,0.0787338674068451,0.1842378298441569]},{"name":"pottedplant","coordinates":[0.544630765914917,0.38845945994059244,0.10135606527328492,0.08810485998789469]},{"name":"pottedplant","coordinates":[0.31167120933532716,0.6469040552775065,0.07602057456970215,0.08714967568715414]},{"name":"teddy-bear","coordinates":[0.8030912399291992,0.4962948163350423,0.06337051391601563,0.08200542132059734]},{"name":"book","coordinates":[0.13049262762069702,0.8709416707356771,0.09658122658729554,0.04297544161478679]},{"name":"book","coordinates":[0.12880407571792601,0.8504651387532552,0.08863508105278015,0.03922213315963745]},{"name":"vase","coordinates":[0.49369068145751954,0.5372552235921224,0.02882944643497467,0.08748788833618164]}]}
