{"src":"https://a0.muscache.com/im/pictures/aeeb1b11-80b0-45ce-ac28-f2567e226dde.jpg?aki_policy=xx_large","name":"* True spirit of Turkish hospitality","listingId":4970581,"photoId":"2077-12","tags":[{"name":"diningtable","coordinates":[0.4810351901584201,0.49954919815063475,1.0448120964898004,1.023045794169108]},{"name":"sandwich","coordinates":[0.2778334935506185,0.8309584299723307,0.2322503407796224,0.12150923411051433]},{"name":"bowl","coordinates":[0.5552763197157118,0.7394475301106771,0.16171179877387154,0.1263999303181966]},{"name":"bowl","coordinates":[0.554781723022461,0.5950792948404948,0.15188559426201714,0.12432721455891928]},{"name":"cup","coordinates":[0.554781723022461,0.5950792948404948,0.15188559426201714,0.12432721455891928]},{"name":"bowl","coordinates":[0.07320495711432563,0.16364707946777343,0.14739103317260743,0.10207734107971192]},{"name":"cup","coordinates":[0.07320495711432563,0.16364707946777343,0.14739103317260743,0.10207734107971192]},{"name":"bowl","coordinates":[0.6464267306857638,0.2189920743306478,0.13536767959594725,0.10927477677663168]},{"name":"bowl","coordinates":[0.5632710350884331,0.29009796778361,0.15299807654486763,0.09603330294291178]}]}
