{"src":"https://a0.muscache.com/im/pictures/aeeb1b11-80b0-45ce-ac28-f2567e226dde.jpg?aki_policy=xx_large","name":"* True spirit of Turkish hospitality","listingId":4970581,"photoId":"2077-12","tags":[{"name":"diningtable","coordinates":[0.2408521119012952,0.49954919815063475,0.5231326213300809,1.023045794169108]},{"name":"sandwich","coordinates":[0.13910995504620677,0.8309584299723307,0.11628667966712665,0.12150923411051433]},{"name":"bowl","coordinates":[0.27802430472553025,0.7394475301106771,0.08096835543615265,0.1263999303181966]},{"name":"bowl","coordinates":[0.2777766624312739,0.5950792948404948,0.0760484199364759,0.12432721455891928]},{"name":"cup","coordinates":[0.2777766624312739,0.5950792948404948,0.0760484199364759,0.12432721455891928]},{"name":"bowl","coordinates":[0.03665338603777083,0.16364707946777343,0.07379801382773112,0.10207734107971192]},{"name":"cup","coordinates":[0.03665338603777083,0.16364707946777343,0.07379801382773112,0.10207734107971192]},{"name":"bowl","coordinates":[0.3236628971444715,0.2189920743306478,0.0677779758755786,0.10927477677663168]},{"name":"bowl","coordinates":[0.2820272220192433,0.29009796778361,0.07660543470953038,0.09603330294291178]}]}
