{"src":"https://a0.muscache.com/im/pictures/62798105/53ebe15d_original.jpg?aki_policy=xx_large","name":"Pte bedroom - Luanda Downtown","listingId":4978368,"photoId":"2078-0","tags":[{"name":"bed","coordinates":[0.30287609100341795,0.27025340398152675,0.6535571098327637,0.7228709538777669]},{"name":"backpack","coordinates":[0.04006551504135131,0.5015874226888022,0.24937570095062256,0.34991976420084636]},{"name":"suitcase","coordinates":[0.037718689441680914,0.2636662324269613,0.2158661365509033,0.2714330355326335]},{"name":"tvmonitor","coordinates":[0.037718689441680914,0.2636662324269613,0.2158661365509033,0.2714330355326335]},{"name":"chair","coordinates":[0.18571326732635496,0.23907895088195802,0.14541592597961425,0.2839884122212728]},{"name":"suitcase","coordinates":[0.29493508934974666,0.2814635912577311,0.15010584592819215,0.1906298319498698]}]}
