{"src":"https://a0.muscache.com/im/pictures/62798105/53ebe15d_original.jpg?aki_policy=xx_large","name":"Pte bedroom - Luanda Downtown","listingId":4978368,"photoId":"2078-0","tags":[{"name":"bed","coordinates":[0.6296546459197998,0.6316888809204102,0.6535571098327637,0.7228709538777669]},{"name":"backpack","coordinates":[0.1647533655166626,0.6765473047892253,0.24937570095062256,0.34991976420084636]},{"name":"suitcase","coordinates":[0.14565175771713257,0.399382750193278,0.2158661365509033,0.2714330355326335]},{"name":"tvmonitor","coordinates":[0.14565175771713257,0.399382750193278,0.2158661365509033,0.2714330355326335]},{"name":"chair","coordinates":[0.2584212303161621,0.3810731569925944,0.14541592597961425,0.2839884122212728]},{"name":"suitcase","coordinates":[0.36998801231384276,0.37677850723266604,0.15010584592819215,0.1906298319498698]}]}
