{"src":"https://a0.muscache.com/im/pictures/95207696-8c42-4c95-84fd-98987d0bd5a3.jpg?aki_policy=xx_large","name":"Nice apartment close to the beach","listingId":13709794,"photoId":"208-3","tags":[{"name":"sofa","coordinates":[0.8087483406066894,0.5997978846232096,0.2999131679534912,0.2063516616821289]},{"name":"chair","coordinates":[0.08512893915176392,0.6197073618570964,0.17010413408279418,0.25891048113505044]},{"name":"person","coordinates":[0.7411047935485839,0.6314639409383138,0.09349887371063233,0.20046869913736978]},{"name":"chair","coordinates":[0.32255921363830564,0.4897442817687988,0.07642018795013428,0.14680043856302896]},{"name":"book","coordinates":[0.8387953758239746,0.7465936660766601,0.06891747713088989,0.04636628230412801]},{"name":"book","coordinates":[0.9505852699279785,0.5947168350219727,0.07875453829765319,0.03516305287679036]}]}
