{"src":"https://a0.muscache.com/im/pictures/c0bae63b-f666-42a1-8eba-234113658791.jpg?aki_policy=xx_large","name":"Nice apartment close to the beach","listingId":13709794,"photoId":"208-4","tags":[{"name":"refrigerator","coordinates":[0.684950876235962,0.4004185358683268,0.17899632453918457,0.19874828656514484]},{"name":"bowl","coordinates":[0.5452360153198242,0.6604522069295248,0.19639867544174194,0.1716417630513509]},{"name":"bowl","coordinates":[0.9787779808044433,0.9261283874511719,0.044998347759246826,0.13681325912475586]},{"name":"vase","coordinates":[0.37620136737823484,0.4563607215881348,0.04200342893600464,0.09943648179372151]},{"name":"bottle","coordinates":[0.12417575120925903,0.5974236170450846,0.018422321975231172,0.11272116502126057]}]}
