{"src":"https://a0.muscache.com/im/pictures/62801991/3539fa73_original.jpg?aki_policy=xx_large","name":"A Relaxing Haven @ Azure Resort","listingId":5016543,"photoId":"2080-7","tags":[{"name":"diningtable","coordinates":[0.6758119159274631,0.49535824457804356,0.28244972229003906,0.45590368906656903]},{"name":"chair","coordinates":[0.6050837092929416,0.4681917985280355,0.24436444176567926,0.5242135047912597]},{"name":"chair","coordinates":[0.8789824697706434,0.6565018971761067,0.12335592905680338,0.33239593505859377]},{"name":"bowl","coordinates":[0.896789296468099,0.520404581228892,0.09892951117621528,0.04775691827138265]},{"name":"cup","coordinates":[0.8951710568534003,0.46745346784591674,0.03391291830274794,0.04398011366526286]}]}
