{"src":"https://a0.muscache.com/im/pictures/880cae27-3314-4ba7-961c-5fff88dd9a7e.jpg?aki_policy=xx_large","name":"A Relaxing Haven @ Azure Resort","listingId":5016543,"photoId":"2080-3","tags":[{"name":"oven","coordinates":[-0.0017271929009016196,0.5069434642791748,0.6808667293814725,0.4842570940653483]},{"name":"bed","coordinates":[0.3619346618652344,0.3054314454396566,0.2668616716251817,0.32295478185017906]},{"name":"chair","coordinates":[-0.001246363617653068,0.4044756253560384,0.213386757429256,0.15252450307210286]},{"name":"bowl","coordinates":[0.145166419273199,0.6387652039527892,0.22333344747853834,0.13276546001434325]},{"name":"bowl","coordinates":[0.31822153302126155,0.519646139939626,0.07561582188273586,0.09804381529490153]},{"name":"bowl","coordinates":[0.001569843569467235,0.6156100193659465,0.04131965304529944,0.13298792839050294]}]}
