{"src":"https://a0.muscache.com/im/pictures/62801991/3539fa73_original.jpg?aki_policy=xx_large","name":"A Relaxing Haven @ Azure Resort","listingId":5016543,"photoId":"2080-7","tags":[{"name":"diningtable","coordinates":[0.8170367770724827,0.7233100891113281,0.28244972229003906,0.45590368906656903]},{"name":"chair","coordinates":[0.7272659301757812,0.7302985509236654,0.24436444176567926,0.5242135047912597]},{"name":"chair","coordinates":[0.9406604342990451,0.8226998647054037,0.12335592905680338,0.33239593505859377]},{"name":"bowl","coordinates":[0.9462540520562066,0.5442830403645833,0.09892951117621528,0.04775691827138265]},{"name":"cup","coordinates":[0.9121275160047743,0.4894435246785482,0.03391291830274794,0.04398011366526286]}]}
