{"src":"https://a0.muscache.com/im/pictures/62801991/3539fa73_original.jpg?aki_policy=xx_large","name":"A Relaxing Haven @ Azure Resort","listingId":5016543,"photoId":"2080-3","tags":[{"name":"diningtable","coordinates":[0.8193126455322945,0.7233100891113281,0.2832364903187021,0.45590368906656903]},{"name":"chair","coordinates":[0.729291740566243,0.7302985509236654,0.2450451226619625,0.5242135047912597]},{"name":"chair","coordinates":[0.9432806583500174,0.8226998647054037,0.12369953888704517,0.33239593505859377]},{"name":"bowl","coordinates":[0.9488898572151375,0.5442830403645833,0.0992050808452298,0.04775691827138265]},{"name":"cup","coordinates":[0.914668261174704,0.4894435246785482,0.034007383256237485,0.04398011366526286]}]}
