{"src":"https://a0.muscache.com/im/pictures/880cae27-3314-4ba7-961c-5fff88dd9a7e.jpg?aki_policy=xx_large","name":"A Relaxing Haven @ Azure Resort","listingId":5016543,"photoId":"2080-3","tags":[{"name":"oven","coordinates":[0.33870617178983464,0.749072011311849,0.6808667293814725,0.4842570940653483]},{"name":"bed","coordinates":[0.49536549767782523,0.4669088363647461,0.2668616716251817,0.32295478185017906]},{"name":"chair","coordinates":[0.10544701509697493,0.48073787689208985,0.213386757429256,0.15252450307210286]},{"name":"bowl","coordinates":[0.2568331430124682,0.7051479339599609,0.22333344747853834,0.13276546001434325]},{"name":"bowl","coordinates":[0.3560294439626295,0.5686680475870768,0.07561582188273586,0.09804381529490153]},{"name":"bowl","coordinates":[0.022229670092116956,0.682103983561198,0.04131965304529944,0.13298792839050294]}]}
