{"src":"https://a0.muscache.com/im/pictures/b44368cb-a44f-438d-8da8-92e6d30531ae.jpg?aki_policy=xx_large","name":"Hab. Doble Privada Zona Aeropuerto","listingId":5022493,"photoId":"2081-2","tags":[{"name":"sofa","coordinates":[0.48232396443684894,0.5317017078399657,0.3966457790798611,0.3272610028584798]},{"name":"sofa","coordinates":[0.18328450520833334,0.7763787428538005,0.6003083123101128,0.2091615358988444]},{"name":"chair","coordinates":[0.18328450520833334,0.7763787428538005,0.6003083123101128,0.2091615358988444]},{"name":"sofa","coordinates":[0.04625140296088323,0.48797475496927895,0.40718409220377605,0.2947768847147624]},{"name":"chair","coordinates":[0.05521243413289387,0.7968937317530314,0.1707240210639106,0.19305310249328614]},{"name":"pottedplant","coordinates":[0.7408837238947551,0.3791622559229533,0.08584051662021214,0.15109696388244628]},{"name":"clock","coordinates":[0.7777642011642456,0.16183675130208333,0.07257743941413032,0.14704825083414713]},{"name":"vase","coordinates":[0.2548241045739915,0.6004562377929688,0.035353350639343264,0.17134119669596354]},{"name":"vase","coordinates":[0.7635885596275329,0.48821877042452494,0.02951233386993408,0.04057886997858683]}]}
