{"src":"https://a0.muscache.com/im/pictures/7984f6eb-02f7-4783-b5f2-2f7fbd6aa371.jpg?aki_policy=xx_large","name":"Hab. Doble Privada Zona Aeropuerto","listingId":5022493,"photoId":"2081-2","tags":[{"name":"chair","coordinates":[0.6359640121459961,0.7115034739176432,0.2469918966293335,0.4101957003275553]},{"name":"chair","coordinates":[0.45290355682373046,0.7131490707397461,0.20456962585449218,0.47677297592163087]},{"name":"chair","coordinates":[0.8141995429992676,0.6839867273966471,0.19829349517822265,0.39089345932006836]},{"name":"chair","coordinates":[0.09741822481155396,0.7695610682169597,0.15776413679122925,0.3688985824584961]},{"name":"chair","coordinates":[0.9348275184631347,0.6064675013224284,0.1419573426246643,0.3840998967488607]},{"name":"tvmonitor","coordinates":[0.11010627746582032,0.1096298853556315,0.2168034315109253,0.183867343266805]},{"name":"chair","coordinates":[1.0562191963195802,0.5372694651285808,0.09291197061538696,0.21768190066019694]},{"name":"pottedplant","coordinates":[0.3808353662490845,0.35778169631958007,0.09795053601264954,0.19697470664978028]},{"name":"chair","coordinates":[0.6606378078460693,0.47570228576660156,0.11118987798690796,0.0837967872619629]},{"name":"vase","coordinates":[0.3761608123779297,0.4097714424133301,0.02450358271598816,0.07974381446838379]},{"name":"apple","coordinates":[0.5141304016113282,0.42227233250935875,0.03614277541637421,0.04165530999501546]},{"name":"bottle","coordinates":[0.4226087093353271,0.40772199630737305,0.02007690370082855,0.07411757310231527]},{"name":"apple","coordinates":[0.4830025672912598,0.4324875195821126,0.023739570379257204,0.025789499282836914]}]}
