{"src":"https://a0.muscache.com/im/pictures/b44368cb-a44f-438d-8da8-92e6d30531ae.jpg?aki_policy=xx_large","name":"Hab. Doble Privada Zona Aeropuerto","listingId":5022493,"photoId":"2081-2","tags":[{"name":"sofa","coordinates":[0.6806468539767795,0.6953322092692057,0.3966457790798611,0.3272610028584798]},{"name":"sofa","coordinates":[0.48343866136338975,0.8809595108032227,0.6003083123101128,0.2091615358988444]},{"name":"chair","coordinates":[0.48343866136338975,0.8809595108032227,0.6003083123101128,0.2091615358988444]},{"name":"sofa","coordinates":[0.24984344906277126,0.6353631973266601,0.40718409220377605,0.2947768847147624]},{"name":"chair","coordinates":[0.14057444466484917,0.8934202829996745,0.1707240210639106,0.19305310249328614]},{"name":"pottedplant","coordinates":[0.7838039822048611,0.45471073786417643,0.08584051662021214,0.15109696388244628]},{"name":"clock","coordinates":[0.8140529208713108,0.2353608767191569,0.07257743941413032,0.14704825083414713]},{"name":"vase","coordinates":[0.27250077989366317,0.6861268361409505,0.035353350639343264,0.17134119669596354]},{"name":"vase","coordinates":[0.7783447265625,0.5085082054138184,0.02951233386993408,0.04057886997858683]}]}
