{"src":"https://a0.muscache.com/im/pictures/7984f6eb-02f7-4783-b5f2-2f7fbd6aa371.jpg?aki_policy=xx_large","name":"Hab. Doble Privada Zona Aeropuerto","listingId":5022493,"photoId":"2081-2","tags":[{"name":"chair","coordinates":[0.5653013441297743,0.7115034739176432,0.21954835255940755,0.4101957003275553]},{"name":"chair","coordinates":[0.4025809393988715,0.7131490707397461,0.18183966742621527,0.47677297592163087]},{"name":"chair","coordinates":[0.7237329271104601,0.6839867273966471,0.17626088460286457,0.39089345932006836]},{"name":"chair","coordinates":[0.08659397761027018,0.7695610682169597,0.14023478825887045,0.3688985824584961]},{"name":"chair","coordinates":[0.8309577941894531,0.6064675013224284,0.12618430455525717,0.3840998967488607]},{"name":"tvmonitor","coordinates":[0.09787224663628472,0.1096298853556315,0.1927141613430447,0.183867343266805]},{"name":"chair","coordinates":[0.9388615078396267,0.5372694651285808,0.08258841832478842,0.21768190066019694]},{"name":"pottedplant","coordinates":[0.33852032555474176,0.35778169631958007,0.08706714312235514,0.19697470664978028]},{"name":"chair","coordinates":[0.5872336069742838,0.47570228576660156,0.09883544709947374,0.0837967872619629]},{"name":"vase","coordinates":[0.33436516655815973,0.4097714424133301,0.021780962414211697,0.07974381446838379]},{"name":"apple","coordinates":[0.45700480143229166,0.42227233250935875,0.032126911481221515,0.04165530999501546]},{"name":"bottle","coordinates":[0.37565218607584633,0.40772199630737305,0.017846136622958714,0.07411757310231527]},{"name":"apple","coordinates":[0.4293356153700087,0.4324875195821126,0.021101840337117515,0.025789499282836914]}]}
