{"src":"https://z0.muscache.cn/im/pictures/101090863/2672e5a1_original.jpg?aki_policy=xx_large","name":"Апартаменты 38 Сити Центр no.1","listingId":5107987,"photoId":"2083-2","tags":[{"name":"diningtable","coordinates":[0.3081617746359777,0.5042642275492351,0.6830231412737795,0.4722561518351237]},{"name":"chair","coordinates":[0.2947273811091144,0.5901563008626302,0.14339202605162005,0.33632736206054686]},{"name":"refrigerator","coordinates":[0.03868058491614729,0.4502209027608236,0.16713255987637898,0.26480096181233725]},{"name":"banana","coordinates":[0.4968208593987524,0.8230119943618774,0.13565067718060503,0.18072772026062012]},{"name":"chair","coordinates":[0.5202734432260223,0.486293371518453,0.0917976914883654,0.2129054546356201]},{"name":"bottle","coordinates":[0.6743221428760477,0.7118044694264729,0.05692851667689151,0.1844054857889811]},{"name":"bottle","coordinates":[0.579966646503292,0.6328594207763673,0.03701235338413856,0.14652481079101562]},{"name":"remote","coordinates":[0.8495595771625193,0.7200112700462341,0.04648461782576062,0.07397816181182862]}]}
