{"src":"https://z0.muscache.cn/im/pictures/101090863/2672e5a1_original.jpg?aki_policy=xx_large","name":"Апартаменты 38 Сити Центр no.1","listingId":5107987,"photoId":"2083-2","tags":[{"name":"diningtable","coordinates":[0.6496733452728675,0.7403923034667969,0.6830231412737795,0.4722561518351237]},{"name":"chair","coordinates":[0.3664233941349244,0.7583199818929036,0.14339202605162005,0.33632736206054686]},{"name":"refrigerator","coordinates":[0.12224686485433678,0.5826213836669922,0.16713255987637898,0.26480096181233725]},{"name":"banana","coordinates":[0.5646461979890549,0.9133758544921875,0.13565067718060503,0.18072772026062012]},{"name":"chair","coordinates":[0.566172288970205,0.5927460988362631,0.0917976914883654,0.2129054546356201]},{"name":"bottle","coordinates":[0.7027864012144935,0.8040072123209635,0.05692851667689151,0.1844054857889811]},{"name":"bottle","coordinates":[0.5984728231953613,0.706121826171875,0.03701235338413856,0.14652481079101562]},{"name":"remote","coordinates":[0.8728018860753995,0.7570003509521485,0.04648461782576062,0.07397816181182862]}]}
