{"src":"https://a0.muscache.com/im/pictures/109363026/0dd14be7_original.jpg?aki_policy=xx_large","name":"détente et bien-être au bled Itrane","listingId":516195,"photoId":"2084-3","tags":[{"name":"diningtable","coordinates":[0.3268605947494507,0.7477442423502604,0.3913933038711548,0.46121384302775065]},{"name":"chair","coordinates":[0.46242051124572753,0.7571824391682943,0.18018265962600707,0.461859925587972]},{"name":"chair","coordinates":[0.236374831199646,0.7571719487508138,0.18770593404769897,0.42689901987711587]},{"name":"chair","coordinates":[0.14836161136627196,0.6334291458129883,0.09174139499664306,0.32832380930582683]},{"name":"vase","coordinates":[0.42246265411376954,0.5319386800130208,0.05174292922019959,0.09768447875976563]},{"name":"vase","coordinates":[0.38474044799804685,0.5319267590840657,0.026780611276626586,0.0871882438659668]},{"name":"cup","coordinates":[0.41356897354125977,0.5827081044514973,0.02758276164531708,0.058741263548533124]},{"name":"cup","coordinates":[0.3875779867172241,0.573566182454427,0.0223137304186821,0.04151221513748169]},{"name":"cup","coordinates":[0.30130939483642577,0.572441291809082,0.025234118103981018,0.03328175544738769]}]}
