{"src":"https://a0.muscache.com/im/pictures/109363189/28f8d866_original.jpg?aki_policy=xx_large","name":"détente et bien-être au bled Itrane","listingId":516195,"photoId":"2084-3","tags":[{"name":"diningtable","coordinates":[0.07907798290252688,0.4966407140096029,0.5169920444488525,0.47534510294596355]},{"name":"chair","coordinates":[0.27490839958190916,0.5751495043436686,0.27402944564819337,0.4227285385131836]},{"name":"chair","coordinates":[-0.004959195852279663,0.5489960670471191,0.18047642707824707,0.4594600041707357]},{"name":"chair","coordinates":[0.18502854704856875,0.5137583613395691,0.07051130533218383,0.0988936980565389]},{"name":"chair","coordinates":[0.2587635338306427,0.5207381923993428,0.06557763814926147,0.08725578784942627]},{"name":"bowl","coordinates":[0.26011515557765963,0.6193980614344279,0.062104588747024535,0.07927753130594889]},{"name":"vase","coordinates":[0.2410505801439285,0.5074811657269795,0.02884172797203064,0.12071030139923096]},{"name":"cup","coordinates":[0.20678800493478774,0.5915513078371685,0.03413574397563934,0.06708583037058512]},{"name":"cup","coordinates":[0.4223972469568253,0.5577428181966146,0.032753533124923705,0.06667277018229166]}]}
