{"src":"https://a0.muscache.com/im/pictures/109363189/28f8d866_original.jpg?aki_policy=xx_large","name":"détente et bien-être au bled Itrane","listingId":516195,"photoId":"2084-3","tags":[{"name":"diningtable","coordinates":[0.3375740051269531,0.7343132654825847,0.5169920444488525,0.47534510294596355]},{"name":"chair","coordinates":[0.41192312240600587,0.7865137736002604,0.27402944564819337,0.4227285385131836]},{"name":"chair","coordinates":[0.08527901768684387,0.778726069132487,0.18047642707824707,0.4594600041707357]},{"name":"chair","coordinates":[0.22028419971466065,0.5632052103678385,0.07051130533218383,0.0988936980565389]},{"name":"chair","coordinates":[0.2915523529052734,0.5643660863240559,0.06557763814926147,0.08725578784942627]},{"name":"bowl","coordinates":[0.2911674499511719,0.6590368270874023,0.062104588747024535,0.07927753130594889]},{"name":"vase","coordinates":[0.2554714441299438,0.567836316426595,0.02884172797203064,0.12071030139923096]},{"name":"cup","coordinates":[0.22385587692260742,0.625094223022461,0.03413574397563934,0.06708583037058512]},{"name":"cup","coordinates":[0.43877401351928713,0.5910792032877604,0.032753533124923705,0.06667277018229166]}]}
