{"src":"https://a0.muscache.com/im/pictures/65539042/f5b5c58d_original.jpg?aki_policy=xx_large","name":"Fair apartment close to Hanover","listingId":5244677,"photoId":"2087-0","tags":[{"name":"sofa","coordinates":[0.7782296673515915,0.7270931243896485,0.3463843533540747,0.43768911361694335]},{"name":"chair","coordinates":[0.12510318117957134,0.5687302907307943,0.17667451312550825,0.2340349038441976]},{"name":"sofa","coordinates":[0.44427456199901255,0.483494504292806,0.2684081690905262,0.1513181527455648]},{"name":"bed","coordinates":[0.44427456199901255,0.483494504292806,0.2684081690905262,0.1513181527455648]},{"name":"chair","coordinates":[0.6887556451847119,0.5195448875427247,0.17867993776683028,0.16513997713724773]},{"name":"tvmonitor","coordinates":[0.17892548231387226,0.4083163579305013,0.09720829960138824,0.06868542035420735]}]}
