{"src":"https://a0.muscache.com/im/pictures/65539042/f5b5c58d_original.jpg?aki_policy=xx_large","name":"Fair apartment close to Hanover","listingId":5244677,"photoId":"2087-0","tags":[{"name":"sofa","coordinates":[0.6050374906745541,0.5082485675811768,0.3463843533540747,0.43768911361694335]},{"name":"chair","coordinates":[0.036765924616817214,0.4517128388086955,0.17667451312550825,0.2340349038441976]},{"name":"sofa","coordinates":[0.31007047745374944,0.4078354279200236,0.2684081690905262,0.1513181527455648]},{"name":"bed","coordinates":[0.31007047745374944,0.4078354279200236,0.2684081690905262,0.1513181527455648]},{"name":"chair","coordinates":[0.5994156763012968,0.4369748989741008,0.17867993776683028,0.16513997713724773]},{"name":"tvmonitor","coordinates":[0.13032133251317812,0.37397364775339764,0.09720829960138824,0.06868542035420735]}]}
