{"src":"https://a0.muscache.com/im/pictures/bc396a34-0295-4346-9d96-da5471674065.jpg?aki_policy=xx_large","name":"Lovely romantic beachhouse","listingId":13711610,"photoId":"209-2","tags":[{"name":"oven","coordinates":[1.0808650546603733,0.6642207463582357,0.4390083312988281,0.5316983540852864]},{"name":"sink","coordinates":[0.6577944013807508,0.67393798828125,0.7322786966959636,0.19020527203877766]},{"name":"bottle","coordinates":[0.8598111470540365,0.4421260197957357,0.05274084938897027,0.11153501669565836]},{"name":"bottle","coordinates":[0.6924741956922743,0.4944167137145996,0.05050453609890408,0.08255496819814047]},{"name":"bowl","coordinates":[1.2311464945475261,0.2495900313059489,0.06205645667182075,0.03293839891751607]}]}
