{"src":"https://a0.muscache.com/im/pictures/dd9e01e1-20e8-46ed-98cb-c7816b458fd3.jpg?aki_policy=xx_large","name":"Апартаменты бизнес-класса на Московском","listingId":13868542,"photoId":"209-10","tags":[{"name":"refrigerator","coordinates":[0.680543658830143,0.5660458246866862,0.12596634868326223,0.32672163645426433]},{"name":"chair","coordinates":[0.7889227722843635,0.7796433130900066,0.10360629936865774,0.3502317110697428]},{"name":"microwave","coordinates":[0.5856856117389299,0.4864670753479004,0.11063028595984202,0.07655320962270101]},{"name":"spoon","coordinates":[0.35306878459409596,0.422693411509196,0.012074849878290043,0.09338167508443197]},{"name":"spoon","coordinates":[0.3208603524633879,0.4243635177612305,0.009182309224596763,0.09846468766530354]},{"name":"spoon","coordinates":[0.33768839818525137,0.42492669423421225,0.008847351355746224,0.09054927825927735]},{"name":"knife","coordinates":[0.39284920217366237,0.48587605158487956,0.01611127536675147,0.024338761965433758]},{"name":"knife","coordinates":[0.3824339919424585,0.4807543436686198,0.011664219536024706,0.024123074611028035]}]}
