{"src":"https://a0.muscache.com/im/pictures/bbc4d9d6-41bf-4653-933b-adb0f79b56e6.jpg?aki_policy=xx_large","name":"Апартаменты бизнес-класса на Московском","listingId":13868542,"photoId":"209-10","tags":[{"name":"refrigerator","coordinates":[0.8068598570088624,0.38481779098510743,0.1833505984822752,0.5956579208374023]},{"name":"microwave","coordinates":[0.6912374745244565,0.5065469821294148,0.1323045331027668,0.09671158790588379]},{"name":"sink","coordinates":[0.5146241923094739,0.563099346558253,0.17708392840600296,0.044015769163767496]},{"name":"sink","coordinates":[0.3276199159886055,0.5560856709877651,0.1332929407655015,0.0255647877852122]},{"name":"spoon","coordinates":[0.46358549321593034,0.39919864734013877,0.016836856947586,0.10700240929921469]},{"name":"spoon","coordinates":[0.4826320636884968,0.39214744567871096,0.01038270053185022,0.09962476094563802]},{"name":"knife","coordinates":[0.5071672269949329,0.495905543367068,0.008586973258157963,0.030736380815505983]},{"name":"knife","coordinates":[0.5209102883169303,0.5012839049100877,0.010824537465694865,0.023984962701797487]}]}
