{"src":"https://a0.muscache.com/im/pictures/8766683f-5a62-4a8f-a4c5-8cc3f7bce8e5.jpg?aki_policy=xx_large","name":"Апартаменты бизнес-класса на Московском","listingId":13868542,"photoId":"209-11","tags":[{"name":"chair","coordinates":[0.3568357686280262,0.7890413284301758,0.20778779644268774,0.4320867856343587]},{"name":"diningtable","coordinates":[0.234276957756917,0.7654361089070638,0.31911054166409336,0.2801891009012858]},{"name":"chair","coordinates":[0.1524993293370183,0.8339460372924805,0.25376379442780383,0.34526872634887695]},{"name":"sofa","coordinates":[0.3695628773082386,0.4796435356140137,0.15429849134603507,0.1510669231414795]},{"name":"tvmonitor","coordinates":[0.6337104646584734,0.4360277811686198,0.055470480937731596,0.13630639712015788]},{"name":"wine-glass","coordinates":[0.2682131077461092,0.6717205683390299,0.036953153346367035,0.08315032323201497]},{"name":"wine-glass","coordinates":[0.1996279871039711,0.626393445332845,0.028195148211694047,0.10873246192932129]}]}
