{"src":"https://a0.muscache.com/im/pictures/bbc4d9d6-41bf-4653-933b-adb0f79b56e6.jpg?aki_policy=xx_large","name":"Апартаменты бизнес-класса на Московском","listingId":13868542,"photoId":"209-9","tags":[{"name":"refrigerator","coordinates":[0.7893381754557292,0.6826467514038086,0.1610684076944987,0.5956579208374023]},{"name":"microwave","coordinates":[0.6653458489312066,0.5549027760823567,0.11622585720486112,0.09671158790588379]},{"name":"sink","coordinates":[0.5298647138807508,0.5851072311401367,0.15556331210666233,0.044015769163767496]},{"name":"sink","coordinates":[0.3463520685831706,0.5688680648803711,0.11709414588080512,0.0255647877852122]},{"name":"spoon","coordinates":[0.414642333984375,0.4526998519897461,0.014790711137983534,0.10700240929921469]},{"name":"spoon","coordinates":[0.4285393185085721,0.44195982615152996,0.00912091400888231,0.09962476094563802]},{"name":"knife","coordinates":[0.4493040296766493,0.511273733774821,0.007543417480256822,0.030736380815505983]},{"name":"knife","coordinates":[0.4623597462972005,0.5132763862609864,0.009509055482016669,0.023984962701797487]}]}
