{"src":"https://a0.muscache.com/im/pictures/8766683f-5a62-4a8f-a4c5-8cc3f7bce8e5.jpg?aki_policy=xx_large","name":"Апартаменты бизнес-класса на Московском","listingId":13868542,"photoId":"209-12","tags":[{"name":"chair","coordinates":[0.2861998802007631,0.5729979356129965,0.23510873211091235,0.4320867856343587]},{"name":"diningtable","coordinates":[0.08454645255810461,0.6253415584564209,0.3610687255859375,0.2801891009012858]},{"name":"chair","coordinates":[0.028985734915690675,0.661311674118042,0.2871298747327119,0.34526872634887695]},{"name":"sofa","coordinates":[0.3308615778341276,0.4041100740432739,0.17458639673768728,0.1510669231414795]},{"name":"tvmonitor","coordinates":[0.6856517518782231,0.36787458260854083,0.06276400571219183,0.13630639712015788]},{"name":"wine-glass","coordinates":[0.2825730874841243,0.6301454067230224,0.04181193111194481,0.08315032323201497]},{"name":"wine-glass","coordinates":[0.20992484118302948,0.5720272143681844,0.03190238147387564,0.10873246192932129]}]}
