{"src":"https://a0.muscache.com/im/pictures/bbc4d9d6-41bf-4653-933b-adb0f79b56e6.jpg?aki_policy=xx_large","name":"Апартаменты бизнес-класса на Московском","listingId":13868542,"photoId":"209-10","tags":[{"name":"refrigerator","coordinates":[0.89853515625,0.6826467514038086,0.1833505984822752,0.5956579208374023]},{"name":"microwave","coordinates":[0.7573897410758399,0.5549027760823567,0.1323045331027668,0.09671158790588379]},{"name":"sink","coordinates":[0.6031661565124753,0.5851072311401367,0.17708392840600296,0.044015769163767496]},{"name":"sink","coordinates":[0.39426638637135625,0.5688680648803711,0.1332929407655015,0.0255647877852122]},{"name":"spoon","coordinates":[0.4720039216897233,0.4526998519897461,0.016836856947586,0.10700240929921469]},{"name":"spoon","coordinates":[0.4878234139544219,0.44195982615152996,0.01038270053185022,0.09962476094563802]},{"name":"knife","coordinates":[0.5114607136240119,0.511273733774821,0.008586973258157963,0.030736380815505983]},{"name":"knife","coordinates":[0.5263225570497777,0.5132763862609864,0.010824537465694865,0.023984962701797487]}]}
