{"src":"https://a0.muscache.com/im/pictures/3d079449-904e-4172-8e78-761066c89f36.jpg?aki_policy=xx_large","name":"Апартаменты бизнес-класса на Московском","listingId":13868542,"photoId":"209-2","tags":[{"name":"sofa","coordinates":[0.623663330078125,0.6689300537109375,0.36111195882161456,0.31311251322428385]},{"name":"bed","coordinates":[0.5844936158921984,0.47014832496643066,0.4039623260498047,0.27864853541056317]},{"name":"tvmonitor","coordinates":[0.00884780353969998,0.5182394981384277,0.16895100275675456,0.3309659957885742]},{"name":"chair","coordinates":[0.46380549006991917,0.43229249318440754,0.04127516216701931,0.14864425659179686]},{"name":"remote","coordinates":[0.5661926746368408,0.7828468382358551,0.05711558659871419,0.053122444947560625]}]}
