{"src":"https://a0.muscache.com/im/pictures/dd9e01e1-20e8-46ed-98cb-c7816b458fd3.jpg?aki_policy=xx_large","name":"Апартаменты бизнес-класса на Московском","listingId":13868542,"photoId":"209-11","tags":[{"name":"refrigerator","coordinates":[0.5811072614457872,0.402685006459554,0.11853083504570855,0.32672163645426433]},{"name":"chair","coordinates":[0.6936090893215603,0.6045274575551352,0.0974906497531467,0.3502317110697428]},{"name":"microwave","coordinates":[0.4990638785892063,0.4481904705365499,0.10410002602471245,0.07655320962270101]},{"name":"spoon","coordinates":[0.32654686967531843,0.37600257396698,0.011362098322974312,0.09338167508443197]},{"name":"spoon","coordinates":[0.29760052992237934,0.3751311739285787,0.008640297916200426,0.09846468766530354]},{"name":"spoon","coordinates":[0.31359284652603997,0.37965205510457356,0.008325111865997315,0.09054927825927735]},{"name":"knife","coordinates":[0.362080055475235,0.4737066706021627,0.01516026258468628,0.024338761965433758]},{"name":"knife","coordinates":[0.3543719099627601,0.4686928063631058,0.010975706577301025,0.024123074611028035]}]}
