{"src":"https://a0.muscache.com/im/pictures/dd9e01e1-20e8-46ed-98cb-c7816b458fd3.jpg?aki_policy=xx_large","name":"Апартаменты бизнес-класса на Московском","listingId":13868542,"photoId":"209-10","tags":[{"name":"refrigerator","coordinates":[0.6403726789686415,0.5660458246866862,0.11853083504570855,0.32672163645426433]},{"name":"chair","coordinates":[0.7423544141981336,0.7796433130900066,0.0974906497531467,0.3502317110697428]},{"name":"microwave","coordinates":[0.5511138916015625,0.4864670753479004,0.10410002602471245,0.07655320962270101]},{"name":"spoon","coordinates":[0.3322279188368056,0.422693411509196,0.011362098322974312,0.09338167508443197]},{"name":"spoon","coordinates":[0.3019206788804796,0.4243635177612305,0.008640297916200426,0.09846468766530354]},{"name":"spoon","coordinates":[0.3177554024590386,0.42492669423421225,0.008325111865997315,0.09054927825927735]},{"name":"knife","coordinates":[0.3696601867675781,0.48587605158487956,0.01516026258468628,0.024338761965433758]},{"name":"knife","coordinates":[0.3598597632514106,0.4807543436686198,0.010975706577301025,0.024123074611028035]}]}
