{"src":"https://a0.muscache.com/im/pictures/8766683f-5a62-4a8f-a4c5-8cc3f7bce8e5.jpg?aki_policy=xx_large","name":"Апартаменты бизнес-класса на Московском","listingId":13868542,"photoId":"209-12","tags":[{"name":"chair","coordinates":[0.40375424625621925,0.7890413284301758,0.23510873211091235,0.4320867856343587]},{"name":"diningtable","coordinates":[0.26508081535107336,0.7654361089070638,0.3610687255859375,0.2801891009012858]},{"name":"chair","coordinates":[0.17255067228204662,0.8339460372924805,0.2871298747327119,0.34526872634887695]},{"name":"sofa","coordinates":[0.41815477620297126,0.4796435356140137,0.17458639673768728,0.1510669231414795]},{"name":"tvmonitor","coordinates":[0.7170337547343191,0.4360277811686198,0.06276400571219183,0.13630639712015788]},{"name":"wine-glass","coordinates":[0.3034790530400967,0.6717205683390299,0.04181193111194481,0.08315032323201497]},{"name":"wine-glass","coordinates":[0.2258760319199673,0.626393445332845,0.03190238147387564,0.10873246192932129]}]}
