{"src":"https://a0.muscache.com/im/pictures/217b8955-8e0c-4ff0-99f3-74586deb4135.jpg?aki_policy=xx_large","name":"Spacious room in central Lalitpur (Patan)","listingId":5544774,"photoId":"2097-1","tags":[{"name":"diningtable","coordinates":[0.9084473503960504,0.6148159662882487,1.6746202256944445,0.62100830078125]},{"name":"chair","coordinates":[1.6223403930664062,0.31519260406494143,0.3104221767849392,0.4313066482543945]},{"name":"cup","coordinates":[0.9291060553656684,0.7444255828857422,0.5047616746690539,0.2610893249511719]},{"name":"chair","coordinates":[0.11352421442667643,0.3258042017618815,0.21540431976318358,0.42404890060424805]},{"name":"bowl","coordinates":[0.8827591790093317,0.4010086377461751,0.4317043728298611,0.20630489985148112]},{"name":"chair","coordinates":[0.921227773030599,0.18115310668945311,0.2859862433539497,0.21300172805786133]},{"name":"oven","coordinates":[0.6536797841389974,0.21779338518778482,0.2681840048895942,0.2034626007080078]},{"name":"cup","coordinates":[0.8929767184787326,0.9262547175089518,0.21132748921712238,0.1250130812327067]}]}
