{"src":"https://a0.muscache.com/im/pictures/da541123-3919-4051-b770-50a3f483a496.jpg?aki_policy=xx_large","name":"A real holiday home 15 min from city centre/beach","listingId":13760878,"photoId":"210-4","tags":[{"name":"refrigerator","coordinates":[0.7920073986053466,0.5690046946207682,0.08229467868804932,0.6879299799601237]},{"name":"oven","coordinates":[0.3986629009246826,0.637096087137858,0.13610656261444093,0.2144939104715983]},{"name":"sink","coordinates":[0.6256851196289063,0.5222909927368165,0.0993826687335968,0.03135567903518677]},{"name":"bottle","coordinates":[0.593744945526123,0.485836664835612,0.014721305668354034,0.06354324420293173]},{"name":"bottle","coordinates":[0.5990397930145264,0.4839030265808105,0.013555721938610077,0.0576483170191447]},{"name":"knife","coordinates":[0.2962715864181519,0.41326974232991537,0.011990103125572204,0.054711103439331055]},{"name":"bottle","coordinates":[0.6211424827575683,0.4866122881571452,0.012355107814073563,0.04508415857950846]}]}
