{"src":"https://a0.muscache.com/im/pictures/70127209/1640ddca_original.jpg?aki_policy=xx_large","name":"Комната в центре города","listingId":5635092,"photoId":"2100-1","tags":[{"name":"chair","coordinates":[0.044875168800354005,0.7945874532063802,0.10180891752243042,0.44934326807657876]},{"name":"tvmonitor","coordinates":[0.7922110080718994,0.44409205118815104,0.11632510423660278,0.2245926856994629]},{"name":"car","coordinates":[0.3379422426223755,0.32431100209554037,0.07838993072509766,0.08110835552215576]},{"name":"car","coordinates":[0.29141247272491455,0.33521989186604817,0.06381540894508361,0.06471210718154907]},{"name":"remote","coordinates":[0.8801976203918457,0.7929025014241536,0.05769393444061279,0.052578671773274736]}]}
