{"src":"https://a0.muscache.com/im/pictures/70127475/6282b3a9_original.jpg?aki_policy=xx_large","name":"Комната в центре города","listingId":5635092,"photoId":"2100-4","tags":[{"name":"sink","coordinates":[0.6541841295030382,0.5646587212880453,0.2574222140842014,0.07433284123738607]},{"name":"microwave","coordinates":[0.18015645874871145,0.2975067853927612,0.14142772886488172,0.0849367618560791]},{"name":"bottle","coordinates":[0.922835906346639,0.49755018949508667,0.05137815475463867,0.11657691796620687]},{"name":"bowl","coordinates":[0.4968322224087185,0.5043831864992777,0.0981392118665907,0.056337984402974446]},{"name":"banana","coordinates":[0.1805339707268609,0.4466253558794657,0.0839389165242513,0.06369839509328207]}]}
