{"src":"https://a0.muscache.com/im/pictures/70127209/1640ddca_original.jpg?aki_policy=xx_large","name":"Комната в центре города","listingId":5635092,"photoId":"2100-1","tags":[{"name":"chair","coordinates":[-0.006029289960861203,0.5699158191680909,0.10180891752243042,0.44934326807657876]},{"name":"tvmonitor","coordinates":[0.734048455953598,0.3317957083384196,0.11632510423660278,0.2245926856994629]},{"name":"car","coordinates":[0.29874727725982664,0.2837568243344625,0.07838993072509766,0.08110835552215576]},{"name":"car","coordinates":[0.25950476825237273,0.30286383827527363,0.06381540894508361,0.06471210718154907]},{"name":"remote","coordinates":[0.8513506531715392,0.7666131655375162,0.05769393444061279,0.052578671773274736]}]}
