{"src":"https://a0.muscache.com/im/pictures/71082923/3133a69a_original.jpg?aki_policy=xx_large","name":"Marvelous studio apartment 1+0","listingId":5712223,"photoId":"2103-12","tags":[{"name":"diningtable","coordinates":[-0.02048157585991761,0.8280014594395956,1.0481408860948351,0.17685866355895996]},{"name":"bottle","coordinates":[0.8873785045411852,0.6592521985371907,0.08300649325052897,0.35186214447021485]},{"name":"bottle","coordinates":[0.7947001563178168,0.6443076769510905,0.06499387953016493,0.33158486684163413]},{"name":"bottle","coordinates":[0.7280443933275011,0.6448643207550049,0.0642825444539388,0.316766897837321]},{"name":"bowl","coordinates":[0.42132480939229333,0.8222446759541829,0.1514669312371148,0.11079463958740235]},{"name":"wine-glass","coordinates":[0.8004669798745049,0.8015881061553956,0.07262323697408041,0.18773221969604492]},{"name":"bottle","coordinates":[0.835740770234002,0.6202393770217896,0.047656710942586264,0.19332849184672038]}]}
