{"src":"https://a0.muscache.com/im/pictures/101847336/8aa90ab8_original.jpg?aki_policy=xx_large","name":"❤️❤️❤️❤️❤️Columbus House-Studio-","listingId":5758707,"photoId":"2105-4","tags":[{"name":"sofa","coordinates":[0.28104288313123915,0.8149734497070312,0.5914811028374566,0.3466975212097168]},{"name":"diningtable","coordinates":[0.8293262905544705,0.7296980539957683,0.30136362711588544,0.3540534019470215]},{"name":"chair","coordinates":[0.6881738450792101,0.719618288675944,0.13992928398980034,0.2995126724243164]},{"name":"sofa","coordinates":[0.4554669274224175,0.640829340616862,0.17107677459716797,0.20481217702229818]},{"name":"bottle","coordinates":[0.8820232815212674,0.5403409322102865,0.025569876035054524,0.10816170374552408]}]}
