{"src":"https://a0.muscache.com/im/pictures/101847629/86ec8211_original.jpg?aki_policy=xx_large","name":"❤️❤️❤️❤️❤️Columbus House-Studio-","listingId":5758707,"photoId":"2105-19","tags":[{"name":"pottedplant","coordinates":[0.9752712249755859,0.4912538528442383,0.30115060806274413,0.9467189153035481]},{"name":"diningtable","coordinates":[0.40573701858520506,0.851864242553711,0.7351876735687256,0.2509202321370443]},{"name":"vase","coordinates":[0.48844246864318847,0.64466978708903,0.11455296277999878,0.39659077326456704]},{"name":"cup","coordinates":[0.32501606941223143,0.8160916010538737,0.12346135377883911,0.12426017125447592]},{"name":"cup","coordinates":[0.5079160213470459,0.7643206914265951,0.11623597145080566,0.09745825926462809]},{"name":"spoon","coordinates":[0.4907677173614502,0.8297102610270183,0.1374780535697937,0.05685869455337524]}]}
