{"src":"https://a0.muscache.com/im/pictures/101847336/8aa90ab8_original.jpg?aki_policy=xx_large","name":"❤️❤️❤️❤️❤️Columbus House-Studio-","listingId":5758707,"photoId":"2105-4","tags":[{"name":"sofa","coordinates":[-0.01469766828748914,0.6416246891021729,0.5914811028374566,0.3466975212097168]},{"name":"diningtable","coordinates":[0.6786444769965277,0.5526713530222576,0.30136362711588544,0.3540534019470215]},{"name":"chair","coordinates":[0.6182092030843099,0.5698619524637858,0.13992928398980034,0.2995126724243164]},{"name":"sofa","coordinates":[0.3699285401238335,0.538423252105713,0.17107677459716797,0.20481217702229818]},{"name":"bottle","coordinates":[0.8692383435037402,0.48626008033752444,0.025569876035054524,0.10816170374552408]}]}
