{"src":"https://a0.muscache.com/im/pictures/97216152/dfe110ab_original.jpg?aki_policy=xx_large","name":"❤️❤️❤️❤️❤️Columbus House-Studio-","listingId":5758707,"photoId":"2105-8","tags":[{"name":"diningtable","coordinates":[0.445288872718811,0.5792024294535318,0.5412795543670654,0.39186916351318357]},{"name":"bed","coordinates":[-0.0013788819313049483,0.6835235118865967,0.28813579082489016,0.2890297889709473]},{"name":"bed","coordinates":[0.0060445547103882,0.5801240603129069,0.24787120819091796,0.25481319427490234]},{"name":"chair","coordinates":[0.35473327040672303,0.5830188751220703,0.160508930683136,0.3081986745198568]},{"name":"chair","coordinates":[0.2413476824760437,0.5653413931528728,0.14565041065216064,0.30578495661417643]},{"name":"clock","coordinates":[0.3061978191137314,0.03204401731491089,0.0666833221912384,0.12371459801991781]}]}
