{"src":"https://a0.muscache.com/im/pictures/7210acee-35e4-4286-ab34-93b5955ec522.jpg?aki_policy=xx_large","name":"3-4 persoons huis in Scheveningen dicht bij strand","listingId":13764012,"photoId":"211-4","tags":[{"name":"microwave","coordinates":[0.8670805931091309,0.19330859184265137,0.2507364511489868,0.31541322072347006]},{"name":"oven","coordinates":[0.8670805931091309,0.19330859184265137,0.2507364511489868,0.31541322072347006]},{"name":"oven","coordinates":[0.6089337348937989,0.3734484990437826,0.2522341251373291,0.09540239175160727]},{"name":"sink","coordinates":[0.34199013710021975,0.41312589645385744,0.15338922739028932,0.12029611269632975]},{"name":"bottle","coordinates":[0.37231173515319826,0.31507158279418945,0.03333353400230408,0.10280930201212565]},{"name":"bottle","coordinates":[0.24703989028930665,0.4050624211629232,0.020297670364379884,0.11733185450236003]}]}
