{"src":"https://a0.muscache.com/im/pictures/d6f03391-f211-4a73-a731-1ae2f4ad8859.jpg?aki_policy=xx_large","name":"Kc Kuching Home stay House73","listingId":6080190,"photoId":"2116-1","tags":[{"name":"diningtable","coordinates":[0.5029222604451054,0.657512092590332,0.7271279559678481,0.5396352767944336]},{"name":"chair","coordinates":[0.7093911014741371,0.7426211675008138,0.46568686355852673,0.5004015604654948]},{"name":"chair","coordinates":[0.2528379205236569,0.6358805974324544,0.2043590813456757,0.38143803278605143]},{"name":"pottedplant","coordinates":[0.4342204315614031,0.39697539011637367,0.18934219526984206,0.12638792196909587]},{"name":"chair","coordinates":[0.12109703504351112,0.5267964045206706,0.08681447569182064,0.25859305063883464]},{"name":"chair","coordinates":[0.0905692804250256,0.3525745391845703,0.15618253758470652,0.08921016057332357]},{"name":"sofa","coordinates":[0.0905692804250256,0.3525745391845703,0.15618253758470652,0.08921016057332357]},{"name":"microwave","coordinates":[0.6196416655494345,0.2531046231587728,0.1328334004942229,0.0861120621363322]},{"name":"tvmonitor","coordinates":[0.6196416655494345,0.2531046231587728,0.1328334004942229,0.0861120621363322]},{"name":"chair","coordinates":[0.25859481644890797,0.3747924168904622,0.16506492626648425,0.05149083137512207]},{"name":"vase","coordinates":[0.4331479838783395,0.4357526143391927,0.11126491171707416,0.05373080571492513]}]}
