{"src":"https://a0.muscache.com/im/pictures/94526737-daac-4c69-8dd9-d67fd5d09748.jpg?aki_policy=xx_large","name":"Kc Kuching Home stay House73","listingId":6080190,"photoId":"2116-4","tags":[{"name":"chair","coordinates":[0.7989853637950156,0.8139716466267903,0.14491719011639917,0.3482206344604492]},{"name":"chair","coordinates":[0.701740304711965,0.7570619583129883,0.08569692188281522,0.3150396664937337]},{"name":"refrigerator","coordinates":[0.5080086449906489,0.5767443339029948,0.07816226032764113,0.3010935465494792]},{"name":"chair","coordinates":[0.8744967678975296,0.7598381678263346,0.06809210727508481,0.31821527481079104]},{"name":"pottedplant","coordinates":[0.7573844469000087,0.599397341410319,0.07168065166008829,0.08867708047231039]},{"name":"chair","coordinates":[0.8596406324754262,0.6384244283040365,0.07249149649028738,0.06586131254831949]},{"name":"clock","coordinates":[0.7018370180388831,0.2722042401631673,0.042219967666233094,0.06484086116154988]},{"name":"chair","coordinates":[0.7159563142886656,0.6035516103108723,0.049197091439073914,0.03078132669130961]},{"name":"vase","coordinates":[0.7601431340248782,0.6313748677571615,0.028727869234237723,0.04220678806304932]},{"name":"vase","coordinates":[0.16474309296100273,0.5737334569295247,0.022084584564654963,0.05027465422948201]}]}
