{"src":"https://a0.muscache.com/im/pictures/da4a83f1-e866-4272-a5d8-5bd5a82c84a9.jpg?aki_policy=xx_large","name":"Kc Kuching Home stay House73","listingId":6080190,"photoId":"2116-1","tags":[{"name":"refrigerator","coordinates":[1.828783532200663,0.5891170501708984,0.8506526857753998,0.7645193099975586]},{"name":"sink","coordinates":[0.6074032121441107,0.722531255086263,0.8870684881106182,0.1924376169840495]},{"name":"microwave","coordinates":[1.2510395972479524,0.5620075225830078,0.3220148428739884,0.1221868356068929]},{"name":"bottle","coordinates":[0.9176816657627243,0.602908198038737,0.0699594827970365,0.08852130572001139]},{"name":"knife","coordinates":[1.009652790896792,0.5150854746500652,0.021686109105435995,0.04583616654078166]},{"name":"knife","coordinates":[0.9775657237226989,0.5160335222880046,0.01992115104068274,0.047404694557189944]}]}
