{"src":"https://a0.muscache.com/im/pictures/94526737-daac-4c69-8dd9-d67fd5d09748.jpg?aki_policy=xx_large","name":"Kc Kuching Home stay House73","listingId":6080190,"photoId":"2116-4","tags":[{"name":"chair","coordinates":[0.726526768736816,0.6398613293965657,0.14491719011639917,0.3482206344604492]},{"name":"chair","coordinates":[0.6588918437705574,0.5995421250661215,0.08569692188281522,0.3150396664937337]},{"name":"refrigerator","coordinates":[0.4689275148268283,0.42619756062825526,0.07816226032764113,0.3010935465494792]},{"name":"chair","coordinates":[0.8404507142599872,0.6007305304209392,0.06809210727508481,0.31821527481079104]},{"name":"pottedplant","coordinates":[0.7215441210699646,0.5550588011741637,0.07168065166008829,0.08867708047231039]},{"name":"chair","coordinates":[0.8233948842302825,0.6054937720298768,0.07249149649028738,0.06586131254831949]},{"name":"clock","coordinates":[0.6807270342057665,0.23978380958239237,0.042219967666233094,0.06484086116154988]},{"name":"chair","coordinates":[0.6913577685691286,0.5881609469652176,0.049197091439073914,0.03078132669130961]},{"name":"vase","coordinates":[0.7457791994077594,0.6102714737256368,0.028727869234237723,0.04220678806304932]},{"name":"vase","coordinates":[0.15370080067867525,0.5485961298147837,0.022084584564654963,0.05027465422948201]}]}
