{"src":"https://a0.muscache.com/im/pictures/da4a83f1-e866-4272-a5d8-5bd5a82c84a9.jpg?aki_policy=xx_large","name":"Kc Kuching Home stay House73","listingId":6080190,"photoId":"2116-1","tags":[{"name":"refrigerator","coordinates":[0.8157621740714162,0.5891170501708984,0.37944911035631956,0.7645193099975586]},{"name":"sink","coordinates":[0.27094325607820113,0.722531255086263,0.395693041669385,0.1924376169840495]},{"name":"microwave","coordinates":[0.558048978313109,0.5620075225830078,0.1436405805721827,0.1221868356068929]},{"name":"bottle","coordinates":[0.4093486066485082,0.602908198038737,0.031206700398678074,0.08852130572001139]},{"name":"knife","coordinates":[0.4503740006714292,0.5150854746500652,0.009673483602355235,0.04583616654078166]},{"name":"knife","coordinates":[0.43606098044972164,0.5160335222880046,0.008886191939511229,0.047404694557189944]}]}
