{"src":"https://a0.muscache.com/im/pictures/d6f03391-f211-4a73-a731-1ae2f4ad8859.jpg?aki_policy=xx_large","name":"Kc Kuching Home stay House73","listingId":6080190,"photoId":"2116-1","tags":[{"name":"diningtable","coordinates":[0.13935828246118132,0.38769445419311527,0.7271279559678481,0.5396352767944336]},{"name":"chair","coordinates":[0.4765476696948737,0.49242038726806636,0.46568686355852673,0.5004015604654948]},{"name":"chair","coordinates":[0.15065837985081904,0.4451615810394287,0.2043590813456757,0.38143803278605143]},{"name":"pottedplant","coordinates":[0.33954933392648207,0.33378142913182574,0.18934219526984206,0.12638792196909587]},{"name":"chair","coordinates":[0.0776897971976008,0.39749987920125324,0.08681447569182064,0.25859305063883464]},{"name":"chair","coordinates":[0.012478011632672342,0.30796945889790855,0.15618253758470652,0.08921016057332357]},{"name":"sofa","coordinates":[0.012478011632672342,0.30796945889790855,0.15618253758470652,0.08921016057332357]},{"name":"microwave","coordinates":[0.553224965302323,0.2100485920906067,0.1328334004942229,0.0861120621363322]},{"name":"tvmonitor","coordinates":[0.553224965302323,0.2100485920906067,0.1328334004942229,0.0861120621363322]},{"name":"chair","coordinates":[0.17606235331566583,0.34904700120290116,0.16506492626648425,0.05149083137512207]},{"name":"vase","coordinates":[0.3775155280198024,0.40888721148173013,0.11126491171707416,0.05373080571492513]}]}
