{"src":"https://a0.muscache.com/im/pictures/360fb8e4-f2c0-46cd-b6d7-95ea62a8fd13.jpg?aki_policy=xx_large","name":"** The best location and hospitality!","listingId":6218705,"photoId":"2120-1","tags":[{"name":"person","coordinates":[0.6663236021166551,0.7005872090657552,0.3225623967750348,0.5994190851847331]},{"name":"person","coordinates":[0.4855007972770341,0.6848519643147787,0.19543378508969705,0.40209967295328775]},{"name":"chair","coordinates":[0.8695668524263299,0.8064553578694661,0.15005109041556197,0.33788042068481444]},{"name":"diningtable","coordinates":[0.9560332954841794,0.8176762262980143,0.08583952223309556,0.2753421465555827]},{"name":"bowl","coordinates":[0.4644808921760909,0.9500741322835287,0.06578635373599671,0.08208491802215576]},{"name":"person","coordinates":[0.3575290048570063,0.5470543543497721,0.041683961022049396,0.10542185306549072]},{"name":"chair","coordinates":[0.9682903263267124,0.628425407409668,0.06070424850527534,0.06427558660507202]},{"name":"person","coordinates":[0.23886887254569064,0.5522944768269856,0.03126405973262018,0.09982995986938477]},{"name":"bowl","coordinates":[0.45496021424613176,0.8548521677652995,0.04383178679104143,0.05928996404012044]}]}
