{"src":"https://a0.muscache.com/im/pictures/56ddf2fb-9768-420c-a069-28d9309184d6.jpg?aki_policy=xx_large","name":"Lavender Lodge - Lilac room","listingId":6254141,"photoId":"2123-6","tags":[{"name":"chair","coordinates":[0.5240265369415283,0.393547503153483,0.45012683868408204,0.5762648264567057]},{"name":"chair","coordinates":[-0.00791159868240357,0.47979291280110675,0.41502065658569337,0.5022904713948567]},{"name":"diningtable","coordinates":[0.3022149562835693,0.41364024480183914,0.3435481071472168,0.31467723846435547]},{"name":"chair","coordinates":[0.554307472705841,0.24469048182169598,0.21485745906829834,0.28295911153157555]},{"name":"tvmonitor","coordinates":[0.11618529558181762,0.13736477692921956,0.20077641010284425,0.22445616722106934]},{"name":"bowl","coordinates":[0.44035876989364625,0.413125874598821,0.09023821353912354,0.06572524309158326]}]}
