{"src":"https://a0.muscache.com/im/pictures/36c455f4-be03-47ae-b6d2-8fc35937fc12.jpg?aki_policy=xx_large","name":"Suite Guest House With Free Wi-Fi &amp; Parking","listingId":6378872,"photoId":"2126-31","tags":[{"name":"sofa","coordinates":[0.025308736165364554,0.4907076517740886,0.7619537353515625,0.4590892791748047]},{"name":"diningtable","coordinates":[0.29165456559922964,0.7225538969039917,0.5581981658935546,0.2587716261545817]},{"name":"tvmonitor","coordinates":[0.6939744737413194,0.25378690560658773,0.19462738037109376,0.1849497636159261]},{"name":"remote","coordinates":[0.570628309249878,0.7713014026482901,0.06684664620293511,0.06010842720667521]},{"name":"remote","coordinates":[0.6045363479190403,0.7673848628997803,0.0672803348965115,0.05780916213989258]}]}
