{"src":"https://a0.muscache.com/im/pictures/8f65c8ff-0953-4681-9ae2-c4da10e806f0.jpg?aki_policy=xx_large","name":"Charming rooms close to the centre of Delft","listingId":1379322,"photoId":"213-8","tags":[{"name":"diningtable","coordinates":[0.5550976753234863,0.7129626592000325,0.9253264427185058,0.5394842147827148]},{"name":"cup","coordinates":[0.8511406898498535,0.4868674596150716,0.30834450721740725,0.43585662841796874]},{"name":"cake","coordinates":[0.34449708461761475,0.8665690104166667,0.260412335395813,0.26622519493103025]},{"name":"cake","coordinates":[0.8062155723571778,0.8718089421590169,0.2675315380096436,0.22564741770426433]},{"name":"vase","coordinates":[0.5643622875213623,0.6772160847981771,0.17184584140777587,0.2952686627705892]}]}
