{"src":"https://a0.muscache.com/im/pictures/4d7a443a-021f-4434-83f4-55dda1c10244.jpg?aki_policy=xx_large","name":"Sweet appartments for boy or a girl","listingId":646053,"photoId":"2131-6","tags":[{"name":"pottedplant","coordinates":[-0.002151579327053496,0.5595262527465821,0.17469351026746963,0.411883290608724]},{"name":"cup","coordinates":[0.5023448692427741,0.4057397921880086,0.026300946871439617,0.06033711433410645]},{"name":"bottle","coordinates":[0.5686504787868925,0.04958793918291728,0.02477908664279514,0.061636579036712644]},{"name":"bowl","coordinates":[0.45172502729627817,0.10449389715989431,0.03836725023057726,0.029553824663162233]},{"name":"bottle","coordinates":[0.3798363122675154,0.4010106523831686,0.014825446075863308,0.07095576127370198]},{"name":"bottle","coordinates":[0.371232928832372,0.40728434324264523,0.01401912768681844,0.05970900058746338]}]}
