{"src":"https://a0.muscache.com/im/pictures/4d7a443a-021f-4434-83f4-55dda1c10244.jpg?aki_policy=xx_large","name":"Sweet appartments for boy or a girl","listingId":646053,"photoId":"2131-4","tags":[{"name":"pottedplant","coordinates":[0.08519517580668132,0.7654678980509441,0.17469351026746963,0.411883290608724]},{"name":"cup","coordinates":[0.515495342678494,0.43590834935506184,0.026300946871439617,0.06033711433410645]},{"name":"bottle","coordinates":[0.58104002210829,0.0804062287012736,0.02477908664279514,0.061636579036712644]},{"name":"bowl","coordinates":[0.4709086524115668,0.11927080949147542,0.03836725023057726,0.029553824663162233]},{"name":"bottle","coordinates":[0.3872490353054471,0.43648853302001955,0.014825446075863308,0.07095576127370198]},{"name":"bottle","coordinates":[0.37824249267578125,0.43713884353637694,0.01401912768681844,0.05970900058746338]}]}
