{"src":"https://a0.muscache.com/im/pictures/14a8c69f-c31c-47d5-86ca-2f8188c8132b.jpg?aki_policy=xx_large","name":"ZOOM B&amp;B","listingId":6479053,"photoId":"2133-4","tags":[{"name":"diningtable","coordinates":[0.13169767591688364,0.0527856190999349,0.8450592041015625,0.8772715886433919]},{"name":"pottedplant","coordinates":[0.5256616592407227,0.01337963740030923,0.2910934024386936,0.3506728808085124]},{"name":"pottedplant","coordinates":[0.3632955975002713,0.002196756998697924,0.20843781365288627,0.2597103754679362]},{"name":"pottedplant","coordinates":[0.2199307017856174,0.04174743493398031,0.15347266727023653,0.2566101868947347]},{"name":"bowl","coordinates":[0.6583909829457602,0.5390412092208863,0.1535091718037923,0.25224620501200357]},{"name":"bowl","coordinates":[0.5499908606211344,0.8452669699986776,0.14928272035386828,0.1493192195892334]},{"name":"cup","coordinates":[0.763057369656033,0.27642459869384767,0.11974589029947917,0.1616164525349935]},{"name":"bowl","coordinates":[0.8137334585189819,0.6066491921742757,0.07057063314649793,0.15903730392456056]}]}
