{"src":"https://a0.muscache.com/im/pictures/90546524/7b4d92a8_original.jpg?aki_policy=xx_large","name":"ZOOM B&amp;B","listingId":6479053,"photoId":"2133-12","tags":[{"name":"toilet","coordinates":[0.16021388803489905,0.6908751964569092,0.13015690556278936,0.2142607053120931]},{"name":"sink","coordinates":[0.49531933191872424,0.5204907735188803,0.21473433883101853,0.09177233378092448]},{"name":"toilet","coordinates":[0.35786945986649626,0.6026517152786255,0.10126462080841693,0.16031063397725423]},{"name":"person","coordinates":[0.6751410339104296,0.34005137681961056,0.026902940538194444,0.09480206966400147]},{"name":"bottle","coordinates":[0.6657544548128859,0.475005555152893,0.02118437339248971,0.08612780570983887]}]}
