{"src":"https://a0.muscache.com/im/pictures/14a8c69f-c31c-47d5-86ca-2f8188c8132b.jpg?aki_policy=xx_large","name":"ZOOM B&amp;B","listingId":6479053,"photoId":"2133-4","tags":[{"name":"diningtable","coordinates":[0.5542272779676649,0.49142141342163087,0.8450592041015625,0.8772715886433919]},{"name":"pottedplant","coordinates":[0.6712083604600695,0.18871607780456542,0.2910934024386936,0.3506728808085124]},{"name":"pottedplant","coordinates":[0.46751450432671443,0.13205194473266602,0.20843781365288627,0.2597103754679362]},{"name":"pottedplant","coordinates":[0.2966670354207357,0.17005252838134766,0.15347266727023653,0.2566101868947347]},{"name":"bowl","coordinates":[0.7351455688476562,0.6651643117268881,0.1535091718037923,0.25224620501200357]},{"name":"bowl","coordinates":[0.6246322207980686,0.9199265797932943,0.14928272035386828,0.1493192195892334]},{"name":"cup","coordinates":[0.8229303148057726,0.3572328249613444,0.11974589029947917,0.1616164525349935]},{"name":"bowl","coordinates":[0.8490187750922309,0.686167844136556,0.07057063314649793,0.15903730392456056]}]}
