{"src":"https://a0.muscache.com/im/pictures/89268419/faefeec0_original.jpg?aki_policy=xx_large","name":"Departamento para 2 personas","listingId":6493931,"photoId":"2135-8","tags":[{"name":"tvmonitor","coordinates":[0.19419116973876954,0.18598618507385253,0.4851665496826172,0.4445984204610189]},{"name":"keyboard","coordinates":[0.335675573348999,0.6170909722646077,0.3606274604797363,0.0853608767191569]},{"name":"bottle","coordinates":[0.1708305522799492,0.7809910297393798,0.04789938032627106,0.21231985092163086]},{"name":"person","coordinates":[0.2771741136908531,0.3006303628285726,0.048872950673103335,0.10087060928344727]},{"name":"person","coordinates":[0.24544035494327548,0.3155494968096415,0.03892905116081238,0.08767103354136149]}]}
