{"src":"https://a0.muscache.com/im/pictures/89268064/dd42d84e_original.jpg?aki_policy=xx_large","name":"Departamento para 2 personas","listingId":6493931,"photoId":"2135-4","tags":[{"name":"diningtable","coordinates":[0.12610406875610347,0.6362817287445068,0.7036798477172852,0.36183595657348633]},{"name":"refrigerator","coordinates":[-0.0045500993728637695,0.3441027959187826,0.2963972330093384,0.6446206410725911]},{"name":"oven","coordinates":[0.7673665642738342,0.41254210472106934,0.24435698986053467,0.38387664159138996]},{"name":"microwave","coordinates":[0.8258274555206299,0.16602021853129068,0.16507596969604493,0.19780486424763996]},{"name":"pottedplant","coordinates":[0.06998347640037536,0.16065385341644284,0.13776077032089235,0.19265666007995605]},{"name":"chair","coordinates":[0.6929508805274964,0.8994229475657145,0.20831849575042724,0.09193830490112305]},{"name":"cup","coordinates":[0.3893492460250854,0.6404960711797079,0.05974259376525879,0.15131325721740724]},{"name":"vase","coordinates":[0.07552141547203063,0.26596447626749675,0.07537928819656373,0.08444430033365885]},{"name":"bowl","coordinates":[0.5349310100078583,0.045700540145238236,0.05685821771621704,0.064922034740448]}]}
