{"src":"https://a0.muscache.com/im/pictures/89268064/dd42d84e_original.jpg?aki_policy=xx_large","name":"Departamento para 2 personas","listingId":6493931,"photoId":"2135-4","tags":[{"name":"diningtable","coordinates":[0.47794399261474607,0.81719970703125,0.7036798477172852,0.36183595657348633]},{"name":"refrigerator","coordinates":[0.14364851713180543,0.6664131164550782,0.2963972330093384,0.6446206410725911]},{"name":"oven","coordinates":[0.8895450592041015,0.6044804255167643,0.24435698986053467,0.38387664159138996]},{"name":"microwave","coordinates":[0.9083654403686523,0.26492265065511067,0.16507596969604493,0.19780486424763996]},{"name":"pottedplant","coordinates":[0.13886386156082153,0.2569821834564209,0.13776077032089235,0.19265666007995605]},{"name":"chair","coordinates":[0.79711012840271,0.945392100016276,0.20831849575042724,0.09193830490112305]},{"name":"cup","coordinates":[0.4192205429077148,0.7161526997884115,0.05974259376525879,0.15131325721740724]},{"name":"vase","coordinates":[0.1132110595703125,0.30818662643432615,0.07537928819656373,0.08444430033365885]},{"name":"bowl","coordinates":[0.5633601188659668,0.07816155751546223,0.05685821771621704,0.064922034740448]}]}
