{"src":"https://a0.muscache.com/im/pictures/89268071/d412686f_original.jpg?aki_policy=xx_large","name":"Departamento para 2 personas","listingId":6493931,"photoId":"2135-2","tags":[{"name":"diningtable","coordinates":[0.3035370588302613,0.5040151437123617,0.5372970104217529,0.4831831932067871]},{"name":"refrigerator","coordinates":[0.7707906484603883,0.2383095423380534,0.22522492408752443,0.7211995442708333]},{"name":"chair","coordinates":[0.2618172287940979,0.6574758211771647,0.32413041591644287,0.32858384450276695]},{"name":"chair","coordinates":[0.6215358972549438,0.6707101186116536,0.21564278602600098,0.3286426544189453]},{"name":"pottedplant","coordinates":[0.8554731965065002,0.07300277551015218,0.1260613203048706,0.1860655943552653]},{"name":"cup","coordinates":[0.4227089077234268,0.4539434393246969,0.04550959467887879,0.10650750001271565]},{"name":"vase","coordinates":[0.8573085635900497,0.1907068987687429,0.07083476185798646,0.06459742784500122]}]}
