{"src":"https://a0.muscache.com/im/pictures/89268419/faefeec0_original.jpg?aki_policy=xx_large","name":"Departamento para 2 personas","listingId":6493931,"photoId":"2135-8","tags":[{"name":"tvmonitor","coordinates":[0.43677444458007814,0.408285395304362,0.4851665496826172,0.4445984204610189]},{"name":"keyboard","coordinates":[0.5159893035888672,0.6597714106241862,0.3606274604797363,0.0853608767191569]},{"name":"bottle","coordinates":[0.19478024244308473,0.8871509552001953,0.04789938032627106,0.21231985092163086]},{"name":"person","coordinates":[0.3016105890274048,0.3510656674702962,0.048872950673103335,0.10087060928344727]},{"name":"person","coordinates":[0.26490488052368166,0.35938501358032227,0.03892905116081238,0.08767103354136149]}]}
