{"src":"https://a0.muscache.com/im/pictures/89268071/d412686f_original.jpg?aki_policy=xx_large","name":"Departamento para 2 personas","listingId":6493931,"photoId":"2135-2","tags":[{"name":"diningtable","coordinates":[0.5721855640411377,0.7456067403157552,0.5372970104217529,0.4831831932067871]},{"name":"refrigerator","coordinates":[0.8834031105041504,0.5989093144734701,0.22522492408752443,0.7211995442708333]},{"name":"chair","coordinates":[0.42388243675231935,0.8217677434285482,0.32413041591644287,0.32858384450276695]},{"name":"chair","coordinates":[0.7293572902679444,0.8350314458211263,0.21564278602600098,0.3286426544189453]},{"name":"pottedplant","coordinates":[0.9185038566589355,0.16603557268778482,0.1260613203048706,0.1860655943552653]},{"name":"cup","coordinates":[0.4454637050628662,0.5071971893310547,0.04550959467887879,0.10650750001271565]},{"name":"vase","coordinates":[0.892725944519043,0.2230056126912435,0.07083476185798646,0.06459742784500122]}]}
