{"src":"https://z0.muscache.cn/im/pictures/88679692/0ac7db3e_original.jpg?aki_policy=xx_large","name":"Private room* Next to Airport","listingId":6595039,"photoId":"2139-6","tags":[{"name":"diningtable","coordinates":[0.13168023427327474,0.6911639849344888,0.42064454820421004,0.26788756052652996]},{"name":"chair","coordinates":[0.5088315010070801,0.6326068719228108,0.17632613711886935,0.35131406784057617]},{"name":"chair","coordinates":[0.632109440697564,0.7617606480916341,0.138479126824273,0.23299204508463542]},{"name":"chair","coordinates":[0.008769427405463326,0.9063247561454774,0.3135863833957248,0.09011563460032145]},{"name":"chair","coordinates":[0.6089827087190417,0.6255941232045491,0.08049734433492024,0.28166723251342773]},{"name":"chair","coordinates":[0.1901023334927029,0.6253374417622884,0.1060100343492296,0.15220762888590494]},{"name":"tvmonitor","coordinates":[0.1901023334927029,0.6253374417622884,0.1060100343492296,0.15220762888590494]},{"name":"tvmonitor","coordinates":[0.38747837808397084,0.5870730400085449,0.09978613323635525,0.1547751744588216]},{"name":"chair","coordinates":[0.4806815597746107,0.7143658717473349,0.0803130414750841,0.16757079760233562]},{"name":"sink","coordinates":[0.8295537577735053,0.5891440163056056,0.13153630362616645,0.027854138612747194]},{"name":"microwave","coordinates":[0.6318900452719795,0.5278204103310903,0.07160665194193522,0.05062214930852254]},{"name":"pottedplant","coordinates":[0.2936514337857564,0.40666890541712447,0.04215269883473714,0.08060438632965088]},{"name":"bottle","coordinates":[0.9554421186447143,0.5306206464767456,0.022215975655449763,0.07093453407287598]},{"name":"pottedplant","coordinates":[0.24645022286309137,0.5764135758082072,0.032841004265679256,0.04169634183247884]}]}
