{"src":"https://z0.muscache.cn/im/pictures/88679692/0ac7db3e_original.jpg?aki_policy=xx_large","name":"Private room* Next to Airport","listingId":6595039,"photoId":"2139-6","tags":[{"name":"diningtable","coordinates":[0.34200250837537977,0.8251077651977539,0.42064454820421004,0.26788756052652996]},{"name":"chair","coordinates":[0.5969945695665148,0.8082639058430989,0.17632613711886935,0.35131406784057617]},{"name":"chair","coordinates":[0.7013490041097005,0.8782566706339519,0.138479126824273,0.23299204508463542]},{"name":"chair","coordinates":[0.16556261910332573,0.951382573445638,0.3135863833957248,0.09011563460032145]},{"name":"chair","coordinates":[0.6492313808865018,0.766427739461263,0.08049734433492024,0.28166723251342773]},{"name":"chair","coordinates":[0.2431073506673177,0.7014412562052409,0.1060100343492296,0.15220762888590494]},{"name":"tvmonitor","coordinates":[0.2431073506673177,0.7014412562052409,0.1060100343492296,0.15220762888590494]},{"name":"tvmonitor","coordinates":[0.43737144470214845,0.6644606272379557,0.09978613323635525,0.1547751744588216]},{"name":"chair","coordinates":[0.5208380805121527,0.7981512705485027,0.0803130414750841,0.16757079760233562]},{"name":"sink","coordinates":[0.8953219095865885,0.6030710856119792,0.13153630362616645,0.027854138612747194]},{"name":"microwave","coordinates":[0.667693371242947,0.5531314849853516,0.07160665194193522,0.05062214930852254]},{"name":"pottedplant","coordinates":[0.314727783203125,0.4469710985819499,0.04215269883473714,0.08060438632965088]},{"name":"bottle","coordinates":[0.9665501064724392,0.5660879135131835,0.022215975655449763,0.07093453407287598]},{"name":"pottedplant","coordinates":[0.262870724995931,0.5972617467244467,0.032841004265679256,0.04169634183247884]}]}
