{"src":"https://a0.muscache.com/im/pictures/ed5b5168-0990-4e08-8f51-9db065534bc6.jpg?aki_policy=xx_large","name":"Apartment with garden near city center and WTC","listingId":13808063,"photoId":"214-2","tags":[{"name":"sofa","coordinates":[0.18752335442437065,0.7168304443359375,0.3908164554172092,0.5804105122884115]},{"name":"chair","coordinates":[0.48330167134602864,0.5380431493123372,0.14910992516411675,0.28503068288167316]},{"name":"clock","coordinates":[0.9127762688530816,0.10716134707132975,0.12233521143595377,0.24109832445780435]},{"name":"vase","coordinates":[0.8491652594672309,0.38736804326375324,0.044059422281053334,0.07221177419026693]},{"name":"microwave","coordinates":[0.5637254079182943,0.27641414006551107,0.024992110994127063,0.05219229062398275]}]}
