{"src":"https://a0.muscache.com/im/pictures/83181655/8f36a8dc_original.jpg?aki_policy=xx_large","name":"Welcome to your home away from home","listingId":6602710,"photoId":"2140-3","tags":[{"name":"chair","coordinates":[0.5706101059913635,0.2033769448598226,0.33017194271087646,0.5144154548645019]},{"name":"sofa","coordinates":[-0.018910670280456537,0.6936084906260173,0.40988311767578123,0.29269431432088217]},{"name":"sofa","coordinates":[0.7204275846481323,0.598698886235555,0.2810640811920166,0.37626250584920246]},{"name":"tvmonitor","coordinates":[0.10596458911895754,0.01891323725382485,0.2640620231628418,0.3079422950744629]},{"name":"person","coordinates":[0.162570983171463,0.03663729031880697,0.1486045241355896,0.22443103790283203]},{"name":"book","coordinates":[0.3582038044929504,0.6476104815800985,0.17877633571624757,0.10488343238830566]},{"name":"pottedplant","coordinates":[0.917140731215477,-0.0011731942494710296,0.08373573422431946,0.2175002098083496]},{"name":"remote","coordinates":[0.5639359414577484,0.5895752688248952,0.07781516313552857,0.030647385120391845]}]}
