{"src":"https://a0.muscache.com/im/pictures/83181657/d894650c_original.jpg?aki_policy=xx_large","name":"Welcome to your home away from home","listingId":6602710,"photoId":"2140-4","tags":[{"name":"sofa","coordinates":[0.2609987735748291,0.8441301981608073,0.5558326244354248,0.29917977650960287]},{"name":"tvmonitor","coordinates":[0.858449649810791,0.41687498092651365,0.2127082586288452,0.24044547080993653]},{"name":"book","coordinates":[0.5826116085052491,0.7958178838094075,0.11762269735336303,0.05609678427378337]},{"name":"book","coordinates":[0.6061511516571045,0.7419579188028972,0.08928055167198182,0.04182255268096924]},{"name":"remote","coordinates":[0.6799497604370117,0.7465391159057617,0.028046321868896485,0.02972228725751241]}]}
