{"src":"https://a0.muscache.com/im/pictures/83181657/d894650c_original.jpg?aki_policy=xx_large","name":"Welcome to your home away from home","listingId":6602710,"photoId":"2140-4","tags":[{"name":"sofa","coordinates":[-0.016917538642883312,0.6945403099060058,0.5558326244354248,0.29917977650960287]},{"name":"tvmonitor","coordinates":[0.7520955204963684,0.2966522455215454,0.2127082586288452,0.24044547080993653]},{"name":"book","coordinates":[0.5238002598285676,0.7677694916725158,0.11762269735336303,0.05609678427378337]},{"name":"book","coordinates":[0.5615108758211136,0.7210466424624126,0.08928055167198182,0.04182255268096924]},{"name":"remote","coordinates":[0.6659265995025635,0.7316779722770055,0.028046321868896485,0.02972228725751241]}]}
