{"src":"https://a0.muscache.com/im/pictures/96609382/683477ff_original.jpg?aki_policy=xx_large","name":"lovely apartement under the roofs","listingId":6623328,"photoId":"2141-4","tags":[{"name":"diningtable","coordinates":[0.49887817092859266,0.8759175618489583,1.0136162039786223,0.27320245107014973]},{"name":"chair","coordinates":[0.8944678952178593,0.7724761327107748,0.3659958284427888,0.43808879852294924]},{"name":"chair","coordinates":[0.06994408723011153,0.7043849309285481,0.13958238252834582,0.25033413569132484]},{"name":"cup","coordinates":[0.35853388190552626,0.8274806340535482,0.15583538499410815,0.11766761144002279]},{"name":"sink","coordinates":[1.5266368440097982,0.4348034222920736,0.30016301533388695,0.033753748734792074]},{"name":"orange","coordinates":[0.6691490771368394,0.43630746205647786,0.03721295626316388,0.030412022272745767]},{"name":"apple","coordinates":[0.6691490771368394,0.43630746205647786,0.03721295626316388,0.030412022272745767]},{"name":"orange","coordinates":[0.706327678472016,0.4352041880289714,0.03510679711638607,0.027064500252405803]},{"name":"apple","coordinates":[0.706327678472016,0.4352041880289714,0.03510679711638607,0.027064500252405803]}]}
