{"src":"https://a0.muscache.com/im/pictures/96609382/683477ff_original.jpg?aki_policy=xx_large","name":"lovely apartement under the roofs","listingId":6623328,"photoId":"2141-5","tags":[{"name":"diningtable","coordinates":[-0.004636806911892333,0.7393163363138835,0.5926839192708333,0.27320245107014973]},{"name":"chair","coordinates":[0.4160123083326551,0.5534317334493002,0.21400589413113064,0.43808879852294924]},{"name":"chair","coordinates":[0.00008940166897244278,0.5792178630828857,0.08161692089504666,0.25033413569132484]},{"name":"cup","coordinates":[0.1640825218624539,0.7686468283335368,0.09112041261461046,0.11766761144002279]},{"name":"sink","coordinates":[0.8049024952782525,0.41792654792467754,0.17551198535495335,0.033753748734792074]},{"name":"orange","coordinates":[0.3803867141405742,0.421101450920105,0.021759242481655543,0.030412022272745767]},{"name":"apple","coordinates":[0.3803867141405742,0.421101450920105,0.021759242481655543,0.030412022272745767]},{"name":"orange","coordinates":[0.4027416275607215,0.42167193790276847,0.020527724424997965,0.027064500252405803]},{"name":"apple","coordinates":[0.4027416275607215,0.42167193790276847,0.020527724424997965,0.027064500252405803]}]}
