{"src":"https://a0.muscache.com/im/pictures/96609382/683477ff_original.jpg?aki_policy=xx_large","name":"lovely apartement under the roofs","listingId":6623328,"photoId":"2141-5","tags":[{"name":"diningtable","coordinates":[0.2917051527235243,0.8759175618489583,0.5926839192708333,0.27320245107014973]},{"name":"chair","coordinates":[0.5230152553982205,0.7724761327107748,0.21400589413113064,0.43808879852294924]},{"name":"chair","coordinates":[0.04089786211649577,0.7043849309285481,0.08161692089504666,0.25033413569132484]},{"name":"cup","coordinates":[0.20964272816975912,0.8274806340535482,0.09112041261461046,0.11766761144002279]},{"name":"sink","coordinates":[0.8926584879557292,0.4348034222920736,0.17551198535495335,0.033753748734792074]},{"name":"orange","coordinates":[0.39126633538140193,0.43630746205647786,0.021759242481655543,0.030412022272745767]},{"name":"apple","coordinates":[0.39126633538140193,0.43630746205647786,0.021759242481655543,0.030412022272745767]},{"name":"orange","coordinates":[0.4130054897732205,0.4352041880289714,0.020527724424997965,0.027064500252405803]},{"name":"apple","coordinates":[0.4130054897732205,0.4352041880289714,0.020527724424997965,0.027064500252405803]}]}
