{"src":"https://a0.muscache.com/im/pictures/96665464/1c70e348_original.jpg?aki_policy=xx_large","name":"Comfortable travel themed room,close to airport!","listingId":6642584,"photoId":"2144-12","tags":[{"name":"sofa","coordinates":[0.011377066153067106,0.4742557366689046,0.4555229469581887,0.30069646835327146]},{"name":"sofa","coordinates":[0.8614036701343678,0.47328861554463697,0.13273453889069733,0.33711938858032225]},{"name":"book","coordinates":[-0.0008845576533564881,0.8177169839541117,0.2570368731463397,0.09098281065622965]},{"name":"cup","coordinates":[0.2631282205934878,0.7258275071779886,0.08545168417471427,0.06980405648549398]},{"name":"remote","coordinates":[0.005087817156756366,0.7608576079209646,0.11721787629304109,0.03916862408320109]}]}
