{"src":"https://a0.muscache.com/im/pictures/108305345/cd6df375_original.jpg?aki_policy=xx_large","name":"Comfortable travel themed room,close to airport!","listingId":6642584,"photoId":"2144-8","tags":[{"name":"diningtable","coordinates":[0.3636887311935425,0.5777994473775229,0.26738200187683103,0.27091439565022785]},{"name":"chair","coordinates":[0.35811650156974795,0.5651611646016439,0.12319818735122681,0.30280882517496743]},{"name":"chair","coordinates":[0.5340141117572784,0.5877606074015299,0.1271302580833435,0.25016695658365884]},{"name":"pottedplant","coordinates":[0.44355057179927826,0.4483049313227336,0.07092488408088685,0.14147594769795735]},{"name":"tvmonitor","coordinates":[0.8041340529918671,0.5254226803779601,0.11423135995864868,0.07871065934499105]},{"name":"tvmonitor","coordinates":[0.5990069001913071,0.5004324436187744,0.07896736264228821,0.07449000676472982]},{"name":"book","coordinates":[0.1473314806818962,0.8713303963343302,0.03587194979190826,0.11657255490620931]},{"name":"book","coordinates":[0.16436214745044708,0.8696635087331136,0.03538810610771179,0.10938056310017903]},{"name":"book","coordinates":[0.1273386687040329,0.8936570763587951,0.0323468029499054,0.10220979849497477]},{"name":"vase","coordinates":[0.476157733798027,0.5300628284613291,0.04003005623817444,0.057309162616729734]},{"name":"book","coordinates":[0.7349295802414417,0.5017226795355479,0.009082947671413422,0.029245197772979736]},{"name":"book","coordinates":[0.7177765596657991,0.5438730617364247,0.007227279990911484,0.031955643494923906]},{"name":"book","coordinates":[0.7183675833046436,0.5012769907712936,0.006737886369228363,0.03005881905555725]},{"name":"book","coordinates":[0.6997441250830888,0.5001862287521363,0.006787880510091782,0.02692411740620931]}]}
