{"src":"https://a0.muscache.com/im/pictures/96665464/1c70e348_original.jpg?aki_policy=xx_large","name":"Comfortable travel themed room,close to airport!","listingId":6642584,"photoId":"2144-12","tags":[{"name":"sofa","coordinates":[0.23913853963216145,0.6246039708455403,0.4555229469581887,0.30069646835327146]},{"name":"sofa","coordinates":[0.9277709395797165,0.6418483098347981,0.13273453889069733,0.33711938858032225]},{"name":"book","coordinates":[0.12763387891981337,0.8632083892822265,0.2570368731463397,0.09098281065622965]},{"name":"cup","coordinates":[0.3058540626808449,0.7607295354207356,0.08545168417471427,0.06980405648549398]},{"name":"remote","coordinates":[0.06369675530327691,0.7804419199625651,0.11721787629304109,0.03916862408320109]}]}
