{"src":"https://a0.muscache.com/im/pictures/108305345/cd6df375_original.jpg?aki_policy=xx_large","name":"Comfortable travel themed room,close to airport!","listingId":6642584,"photoId":"2144-8","tags":[{"name":"diningtable","coordinates":[0.497379732131958,0.7132566452026368,0.26738200187683103,0.27091439565022785]},{"name":"chair","coordinates":[0.41971559524536134,0.7165655771891276,0.12319818735122681,0.30280882517496743]},{"name":"chair","coordinates":[0.5975792407989502,0.7128440856933593,0.1271302580833435,0.25016695658365884]},{"name":"pottedplant","coordinates":[0.47901301383972167,0.5190429051717123,0.07092488408088685,0.14147594769795735]},{"name":"tvmonitor","coordinates":[0.8612497329711915,0.5647780100504557,0.11423135995864868,0.07871065934499105]},{"name":"tvmonitor","coordinates":[0.6384905815124512,0.5376774470011393,0.07896736264228821,0.07449000676472982]},{"name":"book","coordinates":[0.16526745557785033,0.9296166737874348,0.03587194979190826,0.11657255490620931]},{"name":"book","coordinates":[0.182056200504303,0.9243537902832031,0.03538810610771179,0.10938056310017903]},{"name":"book","coordinates":[0.1435120701789856,0.9447619756062825,0.0323468029499054,0.10220979849497477]},{"name":"vase","coordinates":[0.49617276191711424,0.558717409769694,0.04003005623817444,0.057309162616729734]},{"name":"book","coordinates":[0.7394710540771484,0.5163452784220378,0.009082947671413422,0.029245197772979736]},{"name":"book","coordinates":[0.7213901996612548,0.5598508834838867,0.007227279990911484,0.031955643494923906]},{"name":"book","coordinates":[0.7217365264892578,0.5163064002990723,0.006737886369228363,0.03005881905555725]},{"name":"book","coordinates":[0.7031380653381347,0.5136482874552409,0.006787880510091782,0.02692411740620931]}]}
