{"src":"https://a0.muscache.com/im/pictures/c3325fba-2784-4889-9ba3-e14017ad83b1.jpg?aki_policy=xx_large","name":"Quiet Home in Gated Community","listingId":6710323,"photoId":"2146-1","tags":[{"name":"diningtable","coordinates":[0.18789712037557757,0.766290791829427,0.41203181047847764,0.4496912638346354]},{"name":"pottedplant","coordinates":[0.6817309190327091,0.40934413274129233,0.07099291730947532,0.10379749139149984]},{"name":"chair","coordinates":[0.2631456902054961,0.5960945129394531,0.07431499911653393,0.08540136019388835]},{"name":"sink","coordinates":[0.37891503716257297,0.43425636291503905,0.1544330522707928,0.037792885303497316]},{"name":"banana","coordinates":[0.7789587354845574,0.45807215372721355,0.09642364264462244,0.05907826026280721]},{"name":"vase","coordinates":[0.11794118918333536,0.5933955510457357,0.05447473192029426,0.10386371612548828]},{"name":"pottedplant","coordinates":[0.8562564597519455,0.43879254659016925,0.037243785932370196,0.13267700672149657]},{"name":"vase","coordinates":[0.6811118753039883,0.4374072074890137,0.03878082690999666,0.040365540981292726]}]}
