{"src":"https://a0.muscache.com/im/pictures/c3325fba-2784-4889-9ba3-e14017ad83b1.jpg?aki_policy=xx_large","name":"Quiet Home in Gated Community","listingId":6710323,"photoId":"2146-1","tags":[{"name":"diningtable","coordinates":[-0.018118784863661253,0.5414451599121093,0.41203181047847764,0.4496912638346354]},{"name":"pottedplant","coordinates":[0.6462344603779715,0.3574453870455424,0.07099291730947532,0.10379749139149984]},{"name":"chair","coordinates":[0.22598819064722914,0.553393832842509,0.07431499911653393,0.08540136019388835]},{"name":"sink","coordinates":[0.3016985110271766,0.4153599202632904,0.1544330522707928,0.037792885303497316]},{"name":"banana","coordinates":[0.7307469141622462,0.42853302359580997,0.09642364264462244,0.05907826026280721]},{"name":"vase","coordinates":[0.09070382322318823,0.5414636929829916,0.05447473192029426,0.10386371612548828]},{"name":"pottedplant","coordinates":[0.8376345667857604,0.372454043229421,0.037243785932370196,0.13267700672149657]},{"name":"vase","coordinates":[0.66172146184899,0.4172244369983673,0.03878082690999666,0.040365540981292726]}]}
