{"src":"https://z0.muscache.cn/im/pictures/3fbbedc6-17e3-4fed-b67e-f9eec0e33a0f.jpg?aki_policy=xx_large","name":"Rooms at first floor in Duplex","listingId":6835985,"photoId":"2150-6","tags":[{"name":"bed","coordinates":[0.5000526428222656,0.8925895690917969,1.064122772216797,0.21430269877115884]},{"name":"tvmonitor","coordinates":[0.49651752048068576,0.43501434326171873,0.1891031053331163,0.15615533192952474]},{"name":"chair","coordinates":[0.9698148939344619,0.7073795954386394,0.06335396236843532,0.3750967343648275]},{"name":"chair","coordinates":[0.03536821471320258,0.7062803904215494,0.07075175709194607,0.23557591438293457]},{"name":"book","coordinates":[0.1858197530110677,0.6798669179280599,0.020132083363003202,0.07156591415405274]},{"name":"book","coordinates":[0.31588077545166016,0.6793055216471354,0.013623230987124972,0.07751056353251139]},{"name":"book","coordinates":[0.22144169277615017,0.6808668772379557,0.015126721064249674,0.06643352508544922]},{"name":"book","coordinates":[0.24041366577148438,0.6806137084960937,0.014320026503668891,0.065864896774292]},{"name":"book","coordinates":[0.279904047648112,0.6852537155151367,0.013669533199734157,0.0572402040163676]},{"name":"book","coordinates":[0.2596510569254557,0.682078234354655,0.011021403471628825,0.06094237565994263]}]}
