{"src":"https://a0.muscache.com/im/pictures/68b2536b-6bee-40e5-aa0f-f083a73e33d7.jpg?aki_policy=xx_large","name":"HOSTAL","listingId":6849923,"photoId":"2151-7","tags":[{"name":"diningtable","coordinates":[0.513888168334961,0.6542311350504557,0.9863104926215278,0.6383953094482422]},{"name":"sandwich","coordinates":[0.6387346479627821,0.6520548502604167,0.5320930480957031,0.26392923990885414]},{"name":"bottle","coordinates":[0.8194079081217448,0.20785719553629559,0.22618060641818577,0.41509122848510743]},{"name":"cup","coordinates":[0.5702046712239583,0.35674816767374673,0.2678222868177626,0.20470170974731444]},{"name":"bowl","coordinates":[0.12010278701782226,0.3774311065673828,0.20457182990180123,0.09445026715596518]}]}
