{"src":"https://a0.muscache.com/im/pictures/14a180e3-5f12-4d29-bd0d-223e7dd505e6.jpg?aki_policy=xx_large","name":"HOSTAL","listingId":6849923,"photoId":"2151-7","tags":[{"name":"sandwich","coordinates":[0.2871091842651367,0.6469841639200846,0.5737238883972168,0.5790831247965494]},{"name":"diningtable","coordinates":[0.2871091842651367,0.6469841639200846,0.5737238883972168,0.5790831247965494]},{"name":"sandwich","coordinates":[0.16664605140686034,0.6439759572347005,0.3088885545730591,0.4674867312113444]},{"name":"sandwich","coordinates":[0.416147518157959,0.6050408681233724,0.301794171333313,0.3799692471822103]},{"name":"bottle","coordinates":[0.334606409072876,0.20302602450052898,0.18881964683532715,0.4286532719930013]},{"name":"cup","coordinates":[0.47968621253967286,0.32671289443969725,0.15240030288696288,0.24578158060709634]}]}
