{"src":"https://a0.muscache.com/im/pictures/68b2536b-6bee-40e5-aa0f-f083a73e33d7.jpg?aki_policy=xx_large","name":"HOSTAL","listingId":6849923,"photoId":"2151-7","tags":[{"name":"diningtable","coordinates":[0.020732922024197076,0.3350334803263346,0.9863104926215278,0.6383953094482422]},{"name":"sandwich","coordinates":[0.37268812391493056,0.5200902303059896,0.5320930480957031,0.26392923990885414]},{"name":"bottle","coordinates":[0.7063176049126519,0.0003115812937418694,0.22618060641818577,0.41509122848510743]},{"name":"cup","coordinates":[0.436293527815077,0.2543973128000895,0.2678222868177626,0.20470170974731444]},{"name":"bowl","coordinates":[0.017816872066921646,0.33020597298940024,0.20457182990180123,0.09445026715596518]}]}
