{"src":"https://a0.muscache.com/im/pictures/68b2536b-6bee-40e5-aa0f-f083a73e33d7.jpg?aki_policy=xx_large","name":"HOSTAL","listingId":6849923,"photoId":"2151-5","tags":[{"name":"diningtable","coordinates":[0.35817955585786243,0.6542311350504557,0.687457458555179,0.6383953094482422]},{"name":"sandwich","coordinates":[0.44519743130029343,0.6520548502604167,0.3708683394277892,0.26392923990885414]},{"name":"bottle","coordinates":[0.5711265187295801,0.20785719553629559,0.15764766371838698,0.41509122848510743]},{"name":"cup","coordinates":[0.39743210385406585,0.35674816767374673,0.18667187464548796,0.20470170974731444]},{"name":"bowl","coordinates":[0.0837115262854134,0.3774311065673828,0.14258636740493405,0.09445026715596518]}]}
