{"src":"https://a0.muscache.com/im/pictures/90867644/6a0a4a4b_original.jpg?aki_policy=xx_large","name":"噢家民宿·汕头市井生活最佳体验·多人间床位","listingId":6854727,"photoId":"2152-16","tags":[{"name":"chair","coordinates":[0.1409834543863932,0.49120693206787114,0.16862492031521267,0.28547414143880206]},{"name":"pottedplant","coordinates":[0.42161149978637696,0.6649182001749674,0.06643250783284506,0.155194091796875]},{"name":"pottedplant","coordinates":[0.30821850034925674,0.5135050137837728,0.06792977650960287,0.10248533884684245]},{"name":"pottedplant","coordinates":[0.6008918788697984,0.5689501126607259,0.04894459512498644,0.13950608571370443]},{"name":"pottedplant","coordinates":[0.5655791097217135,0.768465252717336,0.05191698604159885,0.11740998427073161]},{"name":"pottedplant","coordinates":[0.6925160037146674,0.8401773810386658,0.050598790910508895,0.09246755441029866]},{"name":"pottedplant","coordinates":[0.4248207171758016,0.7182149887084961,0.046840058432685,0.09341723124186198]},{"name":"pottedplant","coordinates":[0.716500480969747,0.6893310109774272,0.061323955323961045,0.07092077732086181]},{"name":"person","coordinates":[0.8163043287065295,0.4357909003893534,0.06839994854397244,0.05858501593271891]},{"name":"vase","coordinates":[0.6753620478841994,0.6882449050744375,0.03753587669796414,0.05087123314539591]},{"name":"book","coordinates":[0.07637565202183194,0.34093342820803324,0.021018307738833956,0.04157337745030721]},{"name":"book","coordinates":[0.0716286751959059,0.300628532965978,0.028769209649827744,0.020618506272633872]}]}
