{"src":"https://a0.muscache.com/im/pictures/90867644/6a0a4a4b_original.jpg?aki_policy=xx_large","name":"噢家民宿·汕头市井生活最佳体验·多人间床位","listingId":6854727,"photoId":"2152-16","tags":[{"name":"chair","coordinates":[0.22529591454399955,0.6339440027872721,0.16862492031521267,0.28547414143880206]},{"name":"pottedplant","coordinates":[0.4548277537027995,0.7425152460734049,0.06643250783284506,0.155194091796875]},{"name":"pottedplant","coordinates":[0.34218338860405817,0.564747683207194,0.06792977650960287,0.10248533884684245]},{"name":"pottedplant","coordinates":[0.6253641764322917,0.6387031555175782,0.04894459512498644,0.13950608571370443]},{"name":"pottedplant","coordinates":[0.591537602742513,0.8271702448527019,0.05191698604159885,0.11740998427073161]},{"name":"pottedplant","coordinates":[0.7178153991699219,0.8864111582438151,0.050598790910508895,0.09246755441029866]},{"name":"pottedplant","coordinates":[0.4482407463921441,0.7649236043294271,0.046840058432685,0.09341723124186198]},{"name":"pottedplant","coordinates":[0.7471624586317275,0.7247913996378581,0.061323955323961045,0.07092077732086181]},{"name":"person","coordinates":[0.8505043029785156,0.4650834083557129,0.06839994854397244,0.05858501593271891]},{"name":"vase","coordinates":[0.6941299862331815,0.7136805216471355,0.03753587669796414,0.05087123314539591]},{"name":"book","coordinates":[0.08688480589124892,0.36172011693318684,0.021018307738833956,0.04157337745030721]},{"name":"book","coordinates":[0.08601328002081977,0.31093778610229494,0.028769209649827744,0.020618506272633872]}]}
