{"src":"https://a0.muscache.com/im/pictures/cd976147-dc15-41cd-a572-d6abb498741a.jpg?aki_policy=xx_large","name":"古城区庭院,免费停车可做饭!一楼六人房","listingId":6860143,"photoId":"2153-5","tags":[{"name":"sofa","coordinates":[0.24440080963686545,0.4029950618743896,0.4121444341370393,0.44405768712361654]},{"name":"sofa","coordinates":[0.7175426350515309,0.442365042368571,0.2810715422013539,0.364985720316569]},{"name":"diningtable","coordinates":[0.17016882757152405,0.3995381037394206,0.1526523850060305,0.23183860778808593]},{"name":"chair","coordinates":[0.0678777097826707,0.41832900047302246,0.1326084163490688,0.22291803359985352]},{"name":"diningtable","coordinates":[0.17578494001661787,0.4170713106791178,0.07772568767690857,0.20478102366129558]},{"name":"teddy-bear","coordinates":[0.8510839464933053,0.46392524639765426,0.08332383815038519,0.11213478247324625]},{"name":"chair","coordinates":[0.4537887506922694,0.3718613545099894,0.04447229515362184,0.06918368339538575]},{"name":"book","coordinates":[0.0017611526149702,0.2961176137129466,0.02157972386218245,0.053003203868865964]},{"name":"apple","coordinates":[0.6518919073325039,0.6148345659176508,0.02564762630117785,0.031894359985987344]},{"name":"book","coordinates":[0.4290723157360093,0.2885773519674937,0.009258401576268989,0.03507985671361288]},{"name":"book","coordinates":[0.41802009853103067,0.21693815092245738,0.02945903146714594,0.010499149560928345]},{"name":"book","coordinates":[0.44645007794026037,0.2897059440612793,0.008036305078710733,0.03131885528564453]},{"name":"book","coordinates":[0.4176528261500373,0.2929647316535314,0.006061684604480303,0.02973476449648539]}]}
