{"src":"https://a0.muscache.com/im/pictures/d5773d21-9678-49e8-ad7a-a99dd2fae3d5.jpg?aki_policy=xx_large","name":"古城区庭院,免费停车可做饭!一楼六人房","listingId":6860143,"photoId":"2153-2","tags":[{"name":"diningtable","coordinates":[0.5725844316767426,0.6178651809692383,0.8345801406361131,0.728259785970052]},{"name":"sofa","coordinates":[0.34617912107985865,0.27936890920003254,0.7168342514363665,0.5596365610758464]},{"name":"chair","coordinates":[0.8915693519125623,0.3838957150777181,0.25176174983191457,0.783610471089681]},{"name":"orange","coordinates":[0.6159385800531205,0.4943288485209147,0.0676170121215994,0.097468630472819]},{"name":"orange","coordinates":[0.5216616634623933,0.40800383885701497,0.05882628374384613,0.07885809739430745]}]}
