{"src":"https://a0.muscache.com/im/pictures/88114421/bdb39e73_original.jpg?aki_policy=xx_large","name":"Modern Clean Classy Makati Studio","listingId":6952999,"photoId":"2156-5","tags":[{"name":"diningtable","coordinates":[0.03210071987575952,0.3059390068054199,0.9171841939290365,0.6623083114624023]},{"name":"chair","coordinates":[0.05616978539360892,0.4145935376485188,0.4083726247151693,0.5664232254028321]},{"name":"chair","coordinates":[-0.004471794764200843,0.329813543955485,0.1717275513543023,0.6491881688435872]},{"name":"chair","coordinates":[0.6610956297980415,0.2614993890126546,0.23588894738091362,0.3310837745666504]},{"name":"pottedplant","coordinates":[0.33392353057861324,0.04777512550354002,0.15033904181586372,0.49284118016560874]},{"name":"bowl","coordinates":[0.36567285325792104,0.5617811957995097,0.1390321519639757,0.13280548254648844]},{"name":"cup","coordinates":[0.5721825732125176,0.6172089338302613,0.0694269339243571,0.21924856503804524]},{"name":"bowl","coordinates":[0.6212361282772488,0.44814832607905075,0.11618914074367948,0.09707416693369547]},{"name":"bowl","coordinates":[0.09088631735907662,0.3777589797973633,0.10420163472493489,0.09163163503011068]},{"name":"cup","coordinates":[0.2311355537838406,0.3902251402537028,0.04668080012003581,0.1394932746887207]},{"name":"cup","coordinates":[0.2669071502155728,0.25148152907689414,0.03723240163591173,0.11583767731984457]}]}
