{"src":"https://a0.muscache.com/im/pictures/88114395/c594cafe_original.jpg?aki_policy=xx_large","name":"Modern Clean Classy Makati Studio","listingId":6952999,"photoId":"2156-1","tags":[{"name":"chair","coordinates":[0.5670176188151042,0.7965958913167318,0.2925509134928385,0.4354784329732259]},{"name":"diningtable","coordinates":[0.6674801720513238,0.8004735310872396,0.2689761267768012,0.38955599466959634]},{"name":"chair","coordinates":[0.3547438303629557,0.773366101582845,0.18456187778049046,0.42770589192708336]},{"name":"pottedplant","coordinates":[0.5427795834011502,0.5164048194885253,0.0964525858561198,0.2375615437825521]},{"name":"bowl","coordinates":[0.5932611253526475,0.6672136942545573,0.05942568249172635,0.06299923261006674]},{"name":"cup","coordinates":[0.6851109398735894,0.6810272852579753,0.03274305661519369,0.09941630363464356]},{"name":"bowl","coordinates":[0.3945325215657552,0.6312523523966471,0.04522079361809624,0.041464571158091226]}]}
