{"src":"https://a0.muscache.com/im/pictures/98994461/0f626658_original.jpg?aki_policy=xx_large","name":"Deluxe room, 5 min to Hermitage","listingId":7110750,"photoId":"2161-6","tags":[{"name":"sofa","coordinates":[0.03845672607421874,0.5353891213734945,0.3943485260009766,0.29439573287963866]},{"name":"diningtable","coordinates":[0.5771208975050184,0.564995527267456,0.2689156214396159,0.3901007016499837]},{"name":"chair","coordinates":[0.5284893883599175,0.5417977174123128,0.15424830118815105,0.45112136205037434]},{"name":"chair","coordinates":[0.8472174697452122,0.5411130905151368,0.09861993789672852,0.4513867696126302]},{"name":"chair","coordinates":[0.7353848907682631,0.5392054478327434,0.07466851870218913,0.08231628735860189]},{"name":"pottedplant","coordinates":[0.4327432288063897,0.4767269253730774,0.06257064077589247,0.0766821304957072]},{"name":"clock","coordinates":[0.6233345746994018,0.1975594937801361,0.03369609514872233,0.05558631817499796]}]}
