{"src":"https://a0.muscache.com/im/pictures/100946018/4929f2e0_original.jpg?aki_policy=xx_large","name":"Deluxe room, 5 min to Hermitage","listingId":7110750,"photoId":"2161-7","tags":[{"name":"diningtable","coordinates":[0.4020535338158701,0.8073905944824219,0.6918356759207589,0.35818506876627604]},{"name":"sofa","coordinates":[0.5966902447013962,0.6400051752726237,0.2970912089200915,0.22326895395914714]},{"name":"chair","coordinates":[0.09399510231338629,0.8110801060994466,0.15800510267583595,0.361555290222168]},{"name":"chair","coordinates":[0.8415511101901698,0.8382881800333659,0.162518755060618,0.2977087656656901]},{"name":"sofa","coordinates":[0.3163017037869835,0.5919428507486979,0.20307048295392377,0.13832718531290691]},{"name":"pottedplant","coordinates":[0.9348751463476015,0.5208714167277019,0.13353439672988335,0.1406248092651367]},{"name":"chair","coordinates":[0.4582595611486782,0.5913540522257487,0.11307664545310311,0.14128799438476564]}]}
