{"src":"https://a0.muscache.com/im/pictures/100946018/4929f2e0_original.jpg?aki_policy=xx_large","name":"Deluxe room, 5 min to Hermitage","listingId":7110750,"photoId":"2161-8","tags":[{"name":"diningtable","coordinates":[0.055667898390028225,0.6282980600992839,0.6860703786214193,0.35818506876627604]},{"name":"sofa","coordinates":[0.4444101015726726,0.5283706982930501,0.29461544884575736,0.22326895395914714]},{"name":"chair","coordinates":[0.014867613050672746,0.6303024609883626,0.15668839348687066,0.361555290222168]},{"name":"chair","coordinates":[0.7539559682210286,0.6894337972005209,0.16116443210177953,0.2977087656656901]},{"name":"sofa","coordinates":[0.2129767417907715,0.5227792580922445,0.20137822892930773,0.13832718531290691]},{"name":"pottedplant","coordinates":[0.8608737150828044,0.4505590120951335,0.13242161009046766,0.1406248092651367]},{"name":"chair","coordinates":[0.39837356143527564,0.5207100550333659,0.11213434007432725,0.14128799438476564]}]}
