{"src":"https://a0.muscache.com/im/pictures/100946018/4929f2e0_original.jpg?aki_policy=xx_large","name":"Deluxe room, 5 min to Hermitage","listingId":7110750,"photoId":"2161-7","tags":[{"name":"diningtable","coordinates":[0.39870308770073787,0.8073905944824219,0.6860703786214193,0.35818506876627604]},{"name":"sofa","coordinates":[0.5917178259955512,0.6400051752726237,0.29461544884575736,0.22326895395914714]},{"name":"chair","coordinates":[0.09321180979410808,0.8110801060994466,0.15668839348687066,0.361555290222168]},{"name":"chair","coordinates":[0.8345381842719184,0.8382881800333659,0.16116443210177953,0.2977087656656901]},{"name":"sofa","coordinates":[0.31366585625542537,0.5919428507486979,0.20137822892930773,0.13832718531290691]},{"name":"pottedplant","coordinates":[0.9270845201280382,0.5208714167277019,0.13242161009046766,0.1406248092651367]},{"name":"chair","coordinates":[0.45444073147243924,0.5913540522257487,0.11213434007432725,0.14128799438476564]}]}
