{"src":"https://a0.muscache.com/im/pictures/98994461/0f626658_original.jpg?aki_policy=xx_large","name":"Deluxe room, 5 min to Hermitage","listingId":7110750,"photoId":"2161-6","tags":[{"name":"sofa","coordinates":[0.23563098907470703,0.6825869878133138,0.3943485260009766,0.29439573287963866]},{"name":"diningtable","coordinates":[0.7115787082248264,0.760045878092448,0.2689156214396159,0.3901007016499837]},{"name":"chair","coordinates":[0.6056135389539931,0.7673583984375,0.15424830118815105,0.45112136205037434]},{"name":"chair","coordinates":[0.8965274386935764,0.7668064753214519,0.09861993789672852,0.4513867696126302]},{"name":"chair","coordinates":[0.7727191501193577,0.5803635915120443,0.07466851870218913,0.08231628735860189]},{"name":"pottedplant","coordinates":[0.46402854919433595,0.515067990620931,0.06257064077589247,0.0766821304957072]},{"name":"clock","coordinates":[0.640182622273763,0.2253526528676351,0.03369609514872233,0.05558631817499796]}]}
