{"src":"https://a0.muscache.com/im/pictures/068fc8fd-804c-4ae0-8a09-afdea28bd948.jpg?aki_policy=xx_large","name":"Shenyang[暖]BEST PHOTO HOUSE 设计治愈你 - 网红打卡地 清新美拍屋","listingId":7185999,"photoId":"2164-4","tags":[{"name":"diningtable","coordinates":[0.10558380550808374,0.6197765191396077,0.3724087185329861,0.37299795150756837]},{"name":"bed","coordinates":[0.840221823586358,0.6411766052246094,0.16017660564846462,0.3413841247558594]},{"name":"chair","coordinates":[0.36611235936482744,0.5794751803080241,0.13565671708848742,0.3506413141886393]},{"name":"chair","coordinates":[0.3219090620676677,0.7791333278020223,0.143638981713189,0.21547449429829915]},{"name":"chair","coordinates":[0.2073703553941515,0.842401655515035,0.1428751203748915,0.15452176729838055]},{"name":"vase","coordinates":[0.2543418222003513,0.543274962902069,0.04655321439107259,0.11730215549468995]}]}
