{"src":"https://a0.muscache.com/im/pictures/a30ef2c0-0514-4af7-bc69-c6039fd82c53.jpg?aki_policy=xx_large","name":"Garden Home Backyard Yurt Experience","listingId":7322651,"photoId":"2168-10","tags":[{"name":"vase","coordinates":[0.13305257161458334,0.5358774820963542,0.2607285393608941,0.8704661687215169]},{"name":"pottedplant","coordinates":[0.5850424872504341,0.6511181513468425,0.26329835255940753,0.4417166074117025]},{"name":"cup","coordinates":[0.7767708672417535,0.6865128835042318,0.1403344472249349,0.25905594825744627]},{"name":"vase","coordinates":[0.5988725026448568,0.8015796661376953,0.1274173100789388,0.17869564692179363]},{"name":"bottle","coordinates":[0.37096405029296875,0.5365416208902994,0.04946205880906847,0.23264915148417156]}]}
