{"src":"https://a0.muscache.com/im/pictures/63009c18-4da7-4b93-adc2-3df225f7c76a.jpg?aki_policy=xx_large","name":"Garden Home Backyard Yurt Experience","listingId":7322651,"photoId":"2168-29","tags":[{"name":"diningtable","coordinates":[0.0966181225246853,0.526212485631307,0.3154093424479167,0.4464917818705241]},{"name":"chair","coordinates":[0.28478214475843644,0.49502882957458494,0.2577514860365126,0.4799351692199707]},{"name":"chair","coordinates":[0.010736317104763457,0.4955718517303466,0.22686294979519314,0.47166821161905925]},{"name":"chair","coordinates":[0.8925062682893541,0.4834301312764486,0.0885066827138265,0.1699867884318034]},{"name":"pottedplant","coordinates":[0.8774199432796902,0.28539104461669923,0.08016631868150499,0.18100687662760417]},{"name":"cup","coordinates":[0.2212554958131578,0.47880882819493614,0.07184710502624511,0.11432270208994548]},{"name":"pottedplant","coordinates":[0.6774142914348179,0.40539422432581584,0.042494432131449385,0.08751254876454671]}]}
