{"src":"https://a0.muscache.com/im/pictures/a280c1c4-2e06-4646-859b-5c07f67ca90d.jpg?aki_policy=xx_large","name":"Garden Home Backyard Yurt Experience","listingId":7322651,"photoId":"2168-34","tags":[{"name":"dog","coordinates":[0.20734456380208333,0.5419066508611043,0.29676886664496527,0.1653472105662028]},{"name":"chair","coordinates":[0.47175741548891426,0.5084154605865479,0.21875809563530815,0.16276706059773763]},{"name":"chair","coordinates":[0.8222510231865777,0.5224273920059205,0.1914441567880136,0.17411239941914877]},{"name":"chair","coordinates":[0.1810405731201172,0.4468271136283874,0.21228024518048322,0.1176958958307902]},{"name":"pottedplant","coordinates":[0.40137069843433526,0.3089137077331543,0.13259716740360966,0.13885103861490886]},{"name":"pottedplant","coordinates":[0.124620932119864,0.4033250053723653,0.10541435524269387,0.05109547773996989]},{"name":"sports-ball","coordinates":[0.16356223071063006,0.84952785273393,0.049592265376338256,0.027680236101150512]}]}
