{"src":"https://a0.muscache.com/im/pictures/63009c18-4da7-4b93-adc2-3df225f7c76a.jpg?aki_policy=xx_large","name":"Garden Home Backyard Yurt Experience","listingId":7322651,"photoId":"2168-29","tags":[{"name":"diningtable","coordinates":[0.25432279374864364,0.749458376566569,0.3154093424479167,0.4464917818705241]},{"name":"chair","coordinates":[0.4136578877766927,0.7349964141845703,0.2577514860365126,0.4799351692199707]},{"name":"chair","coordinates":[0.12416779200236003,0.7314059575398763,0.22686294979519314,0.47166821161905925]},{"name":"chair","coordinates":[0.9367596096462674,0.5684235254923503,0.0885066827138265,0.1699867884318034]},{"name":"pottedplant","coordinates":[0.9175031026204427,0.3758944829305013,0.08016631868150499,0.18100687662760417]},{"name":"cup","coordinates":[0.25717904832628036,0.5359701792399089,0.07184710502624511,0.11432270208994548]},{"name":"pottedplant","coordinates":[0.6986615075005426,0.4491504987080892,0.042494432131449385,0.08751254876454671]}]}
