{"src":"https://a0.muscache.com/im/pictures/f3a371e1-dca9-4cbc-a39a-2eb751a11b4c.jpg?aki_policy=xx_large","name":"FrogStay Wulan Room by the River","listingId":7403769,"photoId":"2170-7","tags":[{"name":"diningtable","coordinates":[-0.013516362508138036,0.6660597324371338,1.0337598164876303,0.30390666325887045]},{"name":"person","coordinates":[0.8112107038497924,0.32835211753845217,0.18958573341369628,0.312235164642334]},{"name":"person","coordinates":[0.0017765879631042453,0.34555842081705734,0.12569251855214436,0.3652449289957682]},{"name":"pottedplant","coordinates":[0.0894795020421346,0.47887862523396807,0.16972171465555827,0.25250911712646484]},{"name":"cup","coordinates":[0.0629452387491862,0.6759966532389322,0.060672060648600264,0.048505401611328124]},{"name":"cup","coordinates":[0.7331557969252268,0.7190157910188039,0.04372487465540568,0.048133782545725506]}]}
