{"src":"https://a0.muscache.com/im/pictures/f3a371e1-dca9-4cbc-a39a-2eb751a11b4c.jpg?aki_policy=xx_large","name":"FrogStay Wulan Room by the River","listingId":7403769,"photoId":"2170-7","tags":[{"name":"diningtable","coordinates":[0.5033635457356771,0.818013064066569,1.0337598164876303,0.30390666325887045]},{"name":"person","coordinates":[0.9060035705566406,0.48446969985961913,0.18958573341369628,0.312235164642334]},{"name":"person","coordinates":[0.06462284723917643,0.5281808853149415,0.12569251855214436,0.3652449289957682]},{"name":"pottedplant","coordinates":[0.17434035936991374,0.6051331837972005,0.16972171465555827,0.25250911712646484]},{"name":"cup","coordinates":[0.09328126907348633,0.7002493540445963,0.060672060648600264,0.048505401611328124]},{"name":"cup","coordinates":[0.7550182342529297,0.7430826822916666,0.04372487465540568,0.048133782545725506]}]}
