{"src":"https://a0.muscache.com/im/pictures/96566592/16ea08a4_original.jpg?aki_policy=xx_large","name":"Matakami Homestay","listingId":7588818,"photoId":"2174-3","tags":[{"name":"oven","coordinates":[0.6734492831759983,0.7759135564168295,0.24172272152370877,0.12048485279083251]},{"name":"bowl","coordinates":[0.8767411973741319,0.8095527013142904,0.12425411012437608,0.11936078866322836]},{"name":"bottle","coordinates":[0.5705582088894314,0.2561635653177897,0.030367673767937555,0.14020660718282063]},{"name":"bottle","coordinates":[0.5357379913330078,0.25609299341837566,0.03046345445844862,0.13762545585632324]},{"name":"bottle","coordinates":[0.5045466952853732,0.2580205758412679,0.028968845473395455,0.13660244941711425]},{"name":"bottle","coordinates":[0.45862558152940536,0.2613750139872233,0.030532926983303493,0.10533552964528402]},{"name":"bottle","coordinates":[0.5639656914605035,0.39304656982421876,0.019618528419070774,0.11405560175577799]},{"name":"bottle","coordinates":[0.43463685777452254,0.2506295998891195,0.022776333491007487,0.07087316513061523]},{"name":"apple","coordinates":[0.8928298102484808,0.811837641398112,0.02617463270823161,0.0374870777130127]}]}
