{"src":"https://a0.muscache.com/im/pictures/96566592/16ea08a4_original.jpg?aki_policy=xx_large","name":"Matakami Homestay","listingId":7588818,"photoId":"2174-3","tags":[{"name":"oven","coordinates":[0.5525879224141439,0.7156711300214132,0.24172272152370877,0.12048485279083251]},{"name":"bowl","coordinates":[0.8146141423119438,0.7498723069826762,0.12425411012437608,0.11936078866322836]},{"name":"bottle","coordinates":[0.5553743720054627,0.1860602617263794,0.030367673767937555,0.14020660718282063]},{"name":"bottle","coordinates":[0.5205062641037835,0.18728026549021404,0.03046345445844862,0.13762545585632324]},{"name":"bottle","coordinates":[0.4900622725486755,0.1897193511327108,0.028968845473395455,0.13660244941711425]},{"name":"bottle","coordinates":[0.44335911803775363,0.20870724916458128,0.030532926983303493,0.10533552964528402]},{"name":"bottle","coordinates":[0.554156427250968,0.33601876894632976,0.019618528419070774,0.11405560175577799]},{"name":"bottle","coordinates":[0.4232486910290188,0.21519301732381185,0.022776333491007487,0.07087316513061523]},{"name":"apple","coordinates":[0.8797424938943651,0.7930941025416056,0.02617463270823161,0.0374870777130127]}]}
