{"src":"https://a0.muscache.com/im/pictures/97398896/ff72d85c_original.jpg?aki_policy=xx_large","name":"Single Room with double bed / TV","listingId":7668263,"photoId":"2176-2","tags":[{"name":"diningtable","coordinates":[0.010246070226033521,0.5129855950673421,0.15899525748358834,0.4619683901468913]},{"name":"chair","coordinates":[0.116795900132921,0.5158604939778646,0.13456183539496527,0.3569505055745443]},{"name":"oven","coordinates":[0.6935344802008734,0.49302138487497965,0.08123836517333985,0.1827908992767334]},{"name":"clock","coordinates":[0.22566337055630153,0.17360095580418905,0.053210120730929907,0.08977938493092855]},{"name":"bottle","coordinates":[0.6004960099856059,0.431543888648351,0.013222813606262207,0.05612462759017944]},{"name":"bottle","coordinates":[0.6201425221231249,0.429876301685969,0.011930701467725966,0.05442249377568563]},{"name":"bottle","coordinates":[0.33238283991813655,0.4591802636782328,0.013557642036014133,0.03628482023874919]}]}
