{"src":"https://a0.muscache.com/im/pictures/97398896/ff72d85c_original.jpg?aki_policy=xx_large","name":"Single Room with double bed / TV","listingId":7668263,"photoId":"2176-2","tags":[{"name":"diningtable","coordinates":[0.08974369896782769,0.7439697901407878,0.15899525748358834,0.4619683901468913]},{"name":"chair","coordinates":[0.18407681783040364,0.6943357467651368,0.13456183539496527,0.3569505055745443]},{"name":"oven","coordinates":[0.7341536627875433,0.5844168345133464,0.08123836517333985,0.1827908992767334]},{"name":"clock","coordinates":[0.2522684309217665,0.2184906482696533,0.053210120730929907,0.08977938493092855]},{"name":"bottle","coordinates":[0.607107416788737,0.45960620244344075,0.013222813606262207,0.05612462759017944]},{"name":"bottle","coordinates":[0.6261078728569879,0.45708754857381184,0.011930701467725966,0.05442249377568563]},{"name":"bottle","coordinates":[0.33916166093614364,0.4773226737976074,0.013557642036014133,0.03628482023874919]}]}
