{"src":"https://a0.muscache.com/im/pictures/58197ef6-b42e-4f91-8e71-ad64ec4c1c60.jpg?aki_policy=xx_large","name":"경기.분당.서현역앞 2호","listingId":7716286,"photoId":"2178-3","tags":[{"name":"diningtable","coordinates":[0.11447976430257162,0.8784994761149089,0.2347749498155382,0.24306877454121908]},{"name":"chair","coordinates":[0.32737100389268664,0.5925737380981445,0.12967582278781467,0.28255478541056317]},{"name":"refrigerator","coordinates":[0.3608064863416884,0.423351256052653,0.1090915044148763,0.26867758433024086]},{"name":"chair","coordinates":[0.47842644585503474,0.5482305526733399,0.09434239069620769,0.20007023811340333]},{"name":"oven","coordinates":[0.6190901862250434,0.5229094505310059,0.0739827103084988,0.149788236618042]},{"name":"book","coordinates":[0.14650918112860786,0.8344874064127604,0.11895931031968858,0.044429520765940346]},{"name":"book","coordinates":[0.14169207678900825,0.8559613545735677,0.11812660429212782,0.04186736345291138]},{"name":"book","coordinates":[0.16151014963785806,0.8001172383626302,0.09569207297431098,0.04808696508407593]},{"name":"book","coordinates":[0.1633951610989041,0.7827561060587566,0.08728258344862196,0.04355514446894328]},{"name":"remote","coordinates":[0.02233979966905382,0.9069517135620118,0.05670347213745117,0.03063656687736511]}]}
