{"src":"https://a0.muscache.com/im/pictures/58197ef6-b42e-4f91-8e71-ad64ec4c1c60.jpg?aki_policy=xx_large","name":"경기.분당.서현역앞 2호","listingId":7716286,"photoId":"2178-3","tags":[{"name":"diningtable","coordinates":[-0.0029077106051974833,0.7569650888442994,0.2347749498155382,0.24306877454121908]},{"name":"chair","coordinates":[0.2625330924987793,0.4512963453928629,0.12967582278781467,0.28255478541056317]},{"name":"refrigerator","coordinates":[0.30626073413425026,0.28901246388753254,0.1090915044148763,0.26867758433024086]},{"name":"chair","coordinates":[0.4312552505069309,0.4481954336166382,0.09434239069620769,0.20007023811340333]},{"name":"oven","coordinates":[0.582098831070794,0.4480153322219849,0.0739827103084988,0.149788236618042]},{"name":"book","coordinates":[0.08702952596876357,0.8122726460297902,0.11895931031968858,0.044429520765940346]},{"name":"book","coordinates":[0.08262877464294434,0.835027672847112,0.11812660429212782,0.04186736345291138]},{"name":"book","coordinates":[0.11366411315070257,0.7760737558205922,0.09569207297431098,0.04808696508407593]},{"name":"book","coordinates":[0.11975386937459312,0.7609785338242849,0.08728258344862196,0.04355514446894328]},{"name":"remote","coordinates":[-0.006011936399671767,0.8916334301233292,0.05670347213745117,0.03063656687736511]}]}
