{"src":"https://a0.muscache.com/im/pictures/65e4fea2-d6f2-46aa-8363-254335d3b23b.jpg?aki_policy=xx_large","name":"CHAMBRE  DANS UN RIAD","listingId":7748757,"photoId":"2179-8","tags":[{"name":"diningtable","coordinates":[0.10018891228569876,0.1549503008524577,0.9144163343641493,0.6938176472981771]},{"name":"fork","coordinates":[0.6776078436109755,0.8074306885401408,0.14048201243082684,0.18477304776509604]},{"name":"wine-glass","coordinates":[0.5896036201053195,0.4460791985193888,0.10257512198554145,0.24594051043192547]},{"name":"bottle","coordinates":[0.5568766011132135,0.09888153076171874,0.06007907655504015,0.20966695149739584]},{"name":"wine-glass","coordinates":[0.40170662932925755,0.261149541536967,0.07149145868089464,0.15904189745585123]}]}
