{"src":"https://a0.muscache.com/im/pictures/65e4fea2-d6f2-46aa-8363-254335d3b23b.jpg?aki_policy=xx_large","name":"CHAMBRE  DANS UN RIAD","listingId":7748757,"photoId":"2179-8","tags":[{"name":"diningtable","coordinates":[0.5573970794677734,0.5018591245015462,0.9144163343641493,0.6938176472981771]},{"name":"fork","coordinates":[0.7478488498263889,0.8998172124226888,0.14048201243082684,0.18477304776509604]},{"name":"wine-glass","coordinates":[0.6408911810980903,0.5690494537353515,0.10257512198554145,0.24594051043192547]},{"name":"bottle","coordinates":[0.5869161393907335,0.20371500651041666,0.06007907655504015,0.20966695149739584]},{"name":"wine-glass","coordinates":[0.4374523586697049,0.3406704902648926,0.07149145868089464,0.15904189745585123]}]}
