{"src":"https://a0.muscache.com/im/pictures/b874b53f-d0d7-4492-b01c-dcc76c61da5b.jpg?aki_policy=xx_large","name":"Private Large Room Sultanahmet - Free WiFi","listingId":13963637,"photoId":"218-7","tags":[{"name":"bed","coordinates":[0.40496593051486546,0.7457019805908203,0.4933443705240885,0.3300580660502116]},{"name":"sofa","coordinates":[0.8797842237684462,0.7666563669840495,0.23299882676866318,0.42372795740763347]},{"name":"tvmonitor","coordinates":[0.648698255750868,0.5234360059102376,0.0687373055352105,0.11815483570098877]},{"name":"wine-glass","coordinates":[0.19735454983181425,0.7990138371785481,0.045338810814751516,0.1377729574839274]},{"name":"laptop","coordinates":[0.41448927985297307,0.6377477010091146,0.07976469463772244,0.07744901974995931]}]}
