{"src":"https://a0.muscache.com/im/pictures/b874b53f-d0d7-4492-b01c-dcc76c61da5b.jpg?aki_policy=xx_large","name":"Private Large Room Sultanahmet - Free WiFi","listingId":13963637,"photoId":"218-7","tags":[{"name":"bed","coordinates":[0.1582937452528212,0.5806729475657144,0.4933443705240885,0.3300580660502116]},{"name":"sofa","coordinates":[0.7632848103841147,0.5547923882802328,0.23299882676866318,0.42372795740763347]},{"name":"tvmonitor","coordinates":[0.6143296029832628,0.4643585880597433,0.0687373055352105,0.11815483570098877]},{"name":"wine-glass","coordinates":[0.1746851444244385,0.7301273584365844,0.045338810814751516,0.1377729574839274]},{"name":"laptop","coordinates":[0.37460693253411187,0.5990231911341349,0.07976469463772244,0.07744901974995931]}]}
