{"src":"https://a0.muscache.com/im/pictures/a0ca900d-7e5f-4b0f-9e51-e285e52b0c4e.jpg?aki_policy=xx_large","name":"Bright and modern apartment near Shopping Centers","listingId":7765572,"photoId":"2181-34","tags":[{"name":"bus","coordinates":[0.245634757147895,0.514313284556071,0.6310103522406684,0.29917316436767577]},{"name":"person","coordinates":[0.5113033665551079,0.6717946211496989,0.048295519087049696,0.19764674504597982]},{"name":"person","coordinates":[0.38887033727433945,0.6875156799952189,0.04801887406243218,0.15594576199849447]},{"name":"motorbike","coordinates":[0.045171152220831984,0.7317048112551371,0.0781514114803738,0.09225825468699138]},{"name":"person","coordinates":[0.8606609145800272,0.6898452520370484,0.04416397677527534,0.14957305590311687]},{"name":"bicycle","coordinates":[0.11053092479705809,0.7303075035413107,0.06902400652567546,0.08740147749582926]},{"name":"motorbike","coordinates":[0.00236509111192491,0.7271438320477803,0.04669858614603679,0.09299499988555908]},{"name":"person","coordinates":[0.18224967850579157,0.7043160557746888,0.03265072504679362,0.08838339646657307]}]}
