{"src":"https://a0.muscache.com/im/pictures/a0ca900d-7e5f-4b0f-9e51-e285e52b0c4e.jpg?aki_policy=xx_large","name":"Bright and modern apartment near Shopping Centers","listingId":7765572,"photoId":"2181-34","tags":[{"name":"bus","coordinates":[0.5611399332682292,0.6638998667399089,0.6310103522406684,0.29917316436767577]},{"name":"person","coordinates":[0.5354511260986328,0.7706179936726888,0.048295519087049696,0.19764674504597982]},{"name":"person","coordinates":[0.41287977430555556,0.7654885609944662,0.04801887406243218,0.15594576199849447]},{"name":"motorbike","coordinates":[0.08424685796101888,0.7778339385986328,0.0781514114803738,0.09225825468699138]},{"name":"person","coordinates":[0.8827429029676649,0.7646317799886068,0.04416397677527534,0.14957305590311687]},{"name":"bicycle","coordinates":[0.14504292805989583,0.7740082422892253,0.06902400652567546,0.08740147749582926]},{"name":"motorbike","coordinates":[0.025714384184943304,0.7736413319905598,0.04669858614603679,0.09299499988555908]},{"name":"person","coordinates":[0.19857504102918838,0.7485077540079753,0.03265072504679362,0.08838339646657307]}]}
