{"src":"https://a0.muscache.com/im/pictures/31428037/581e6c8a_original.jpg?aki_policy=xx_large","name":"Room w/ terrace in Bunglaw, Jodhpur","listingId":788910,"photoId":"2186-6","tags":[{"name":"sofa","coordinates":[0.6261907577514648,0.5887742360432943,0.29025797843933104,0.1726367473602295]},{"name":"bed","coordinates":[0.24277408123016359,0.6761514663696289,0.24301531314849853,0.203610356648763]},{"name":"diningtable","coordinates":[0.363421630859375,0.5394304275512696,0.13754780292510987,0.18084055582682293]},{"name":"chair","coordinates":[0.4014453887939453,0.5318982442220052,0.06567848324775696,0.1913382053375244]},{"name":"pottedplant","coordinates":[0.39046554565429686,0.44072866439819336,0.04718528687953949,0.07492238680521647]}]}
