{"src":"https://a0.muscache.com/im/pictures/31428037/581e6c8a_original.jpg?aki_policy=xx_large","name":"Room w/ terrace in Bunglaw, Jodhpur","listingId":788910,"photoId":"2186-6","tags":[{"name":"sofa","coordinates":[0.48106176853179927,0.5024558623631795,0.29025797843933104,0.1726367473602295]},{"name":"bed","coordinates":[0.12126642465591432,0.5743462880452473,0.24301531314849853,0.203610356648763]},{"name":"diningtable","coordinates":[0.29464772939682005,0.4490101496378581,0.13754780292510987,0.18084055582682293]},{"name":"chair","coordinates":[0.36860614717006684,0.43622914155324294,0.06567848324775696,0.1913382053375244]},{"name":"pottedplant","coordinates":[0.3668729022145271,0.40326747099558513,0.04718528687953949,0.07492238680521647]}]}
