{"src":"https://a0.muscache.com/im/pictures/5446004e-2600-45ca-af8b-69776ea95f1e.jpg?aki_policy=xx_large","name":"Cozy private room  at the center  of Alexandria","listingId":13993651,"photoId":"219-6","tags":[{"name":"sofa","coordinates":[0.18927440643310547,0.7974261601765951,0.3443244695663452,0.33600292205810545]},{"name":"chair","coordinates":[0.18927440643310547,0.7974261601765951,0.3443244695663452,0.33600292205810545]},{"name":"chair","coordinates":[0.098783677816391,0.6653364181518555,0.1615894079208374,0.1583123524983724]},{"name":"clock","coordinates":[0.2862993240356445,0.27484718958536786,0.07549488544464111,0.10808607737223307]},{"name":"spoon","coordinates":[0.12425012588500976,0.3042509396870931,0.04111995995044708,0.10510026613871257]},{"name":"sink","coordinates":[0.6090643882751465,0.45302667617797854,0.09358603358268738,0.01787577271461487]}]}
