{"src":"https://a0.muscache.com/im/pictures/5446004e-2600-45ca-af8b-69776ea95f1e.jpg?aki_policy=xx_large","name":"Cozy private room  at the center  of Alexandria","listingId":13993651,"photoId":"219-6","tags":[{"name":"sofa","coordinates":[0.017112171649932867,0.6294246991475423,0.3443244695663452,0.33600292205810545]},{"name":"chair","coordinates":[0.017112171649932867,0.6294246991475423,0.3443244695663452,0.33600292205810545]},{"name":"chair","coordinates":[0.0179889738559723,0.5861802419026694,0.1615894079208374,0.1583123524983724]},{"name":"clock","coordinates":[0.24855188131332395,0.22080415089925132,0.07549488544464111,0.10808607737223307]},{"name":"spoon","coordinates":[0.10369014590978623,0.2517008066177368,0.04111995995044708,0.10510026613871257]},{"name":"sink","coordinates":[0.5622713714838028,0.4440887898206711,0.09358603358268738,0.01787577271461487]}]}
