{"src":"https://a0.muscache.com/im/pictures/4414477d-6f0a-4b74-9f44-4029a7e89073.jpg?aki_policy=xx_large","name":"Posh Nashville Studio Suite in Cozy Green Hills!","listingId":7947943,"photoId":"2191-5","tags":[{"name":"oven","coordinates":[0.16528241899278429,0.759176770846049,0.5088588714599609,0.23736939430236817]},{"name":"clock","coordinates":[0.16528241899278429,0.759176770846049,0.5088588714599609,0.23736939430236817]},{"name":"bed","coordinates":[0.021350902981228298,0.34935798645019533,0.3631870693630642,0.14386475880940755]},{"name":"sink","coordinates":[0.7604255464341905,0.5755336960156758,0.24545071919759115,0.11983079115549723]},{"name":"microwave","coordinates":[0.7012939559088812,0.2355002482732137,0.2430248472425673,0.11849897702534994]},{"name":"cup","coordinates":[0.5879854732089572,0.5639334201812743,0.09455865224202474,0.056156190236409505]}]}
