{"src":"https://a0.muscache.com/im/pictures/1ff968b5-11a2-4e2e-b465-7ddf70122bcf.jpg?aki_policy=xx_large","name":"Posh Nashville Studio Suite in Cozy Green Hills!","listingId":7947943,"photoId":"2191-11","tags":[{"name":"diningtable","coordinates":[0.48043638865152993,0.6022056261698405,0.4809583452012804,0.38095010121663414]},{"name":"chair","coordinates":[0.26906456417507596,0.6973193327585856,0.39511155022515193,0.31101051966349286]},{"name":"bed","coordinates":[-0.008402676052517377,0.5526146332422892,0.5552215576171875,0.21877853075663248]},{"name":"chair","coordinates":[0.7593978352016872,0.586947218577067,0.23524638281928167,0.40794531504313153]},{"name":"tvmonitor","coordinates":[0.7249515427483453,0.28932268619537355,0.20680213504367403,0.13816014925638834]},{"name":"cat","coordinates":[0.13539484871758356,0.5580527563889821,0.1505872302585178,0.056274171670277914]}]}
