{"src":"https://a0.muscache.com/im/pictures/22857341/5150cfc4_original.jpg?aki_policy=xx_large","name":"Colonel Sharma's Home Stay-A/C Room","listingId":802044,"photoId":"2195-21","tags":[{"name":"bed","coordinates":[0.5343133926391601,0.8040210088094075,1.0525124549865723,0.37627394994099933]},{"name":"sofa","coordinates":[0.581915283203125,0.460762627919515,0.3489401340484619,0.3049292246500651]},{"name":"book","coordinates":[0.12517092227935792,0.5316147804260254,0.19160058498382568,0.1509473164876302]},{"name":"chair","coordinates":[0.0395085334777832,0.29762099583943685,0.08226167559623718,0.3485553741455078]},{"name":"chair","coordinates":[0.3116602420806885,0.24371719360351562,0.15463684797286986,0.18087536493937176]}]}
