{"src":"https://a0.muscache.com/im/pictures/6b308a1a-f6b5-4991-9783-e8467668398a.jpg?aki_policy=xx_large","name":"Colonel Sharma's Home Stay-A/C Room","listingId":802044,"photoId":"2195-2","tags":[{"name":"bed","coordinates":[-0.0005086051093207422,0.7290684700012208,0.40735189649793835,0.27897485097249347]},{"name":"sofa","coordinates":[0.7551483366224501,0.7300903161366781,0.2332225799560547,0.26881182988484703]},{"name":"chair","coordinates":[0.3956782076093886,0.5942246039708455,0.12371909883287217,0.2606112321217855]},{"name":"chair","coordinates":[0.2864238050248888,0.5938790400822958,0.11227197647094726,0.2068504810333252]},{"name":"bed","coordinates":[0.48344937960306805,0.5666470527648926,0.14799169964260525,0.1525233586629232]},{"name":"tvmonitor","coordinates":[0.26565096113416886,0.3640786131223043,0.07893770005967882,0.09513499736785888]},{"name":"vase","coordinates":[0.8032260431183709,0.5310002764066061,0.02656403382619222,0.03692675431569417]}]}
