{"src":"https://a0.muscache.com/im/pictures/26823207/978db365_original.jpg?aki_policy=xx_large","name":"Familyhouse 180m2+garden in centre","listingId":1383347,"photoId":"220-0","tags":[{"name":"diningtable","coordinates":[0.8344720840454102,0.8681125005086263,0.5865017890930175,0.275724983215332]},{"name":"chair","coordinates":[0.5126638412475586,0.8594237009684245,0.18517237901687622,0.13931716283162435]},{"name":"sofa","coordinates":[0.4060770034790039,0.6254065195719402,0.1430858850479126,0.1463835875193278]},{"name":"chair","coordinates":[0.4924792766571045,0.9493353525797527,0.20692009925842286,0.09487236340840657]},{"name":"chair","coordinates":[0.6122235298156739,0.5823050816853841,0.07905721664428711,0.10799691677093506]},{"name":"cup","coordinates":[0.8123039245605469,0.7766852696736654,0.04905706942081452,0.1207909901936849]}]}
