{"src":"https://a0.muscache.com/im/pictures/27463914/acdee424_original.jpg?aki_policy=xx_large","name":"Familyhouse 180m2+garden in centre","listingId":1383347,"photoId":"220-4","tags":[{"name":"diningtable","coordinates":[0.41456803215874566,0.7632368087768555,0.47175750732421873,0.4669411341349284]},{"name":"chair","coordinates":[0.30042453342013886,0.8169235865275065,0.18552941216362848,0.3543920834859212]},{"name":"chair","coordinates":[0.5216884613037109,0.8021769841512044,0.1690015368991428,0.3831813812255859]},{"name":"chair","coordinates":[0.6600196838378907,0.6987127939860026,0.0657911565568712,0.2978379567464193]},{"name":"pottedplant","coordinates":[0.6570226033528646,0.48964672088623046,0.040032034450107154,0.09906369845072428]},{"name":"cup","coordinates":[0.4163912455240885,0.5495780309041342,0.028170108795166016,0.07280426025390625]}]}
