{"src":"https://a0.muscache.com/im/pictures/28d0ee46-4219-46aa-8265-920ae1b4eb74.jpg?aki_policy=xx_large","name":"Joli studio 36 m2 au calme dans la verdure","listingId":8205360,"photoId":"2201-5","tags":[{"name":"diningtable","coordinates":[0.3030030356513129,0.7918469111124674,0.4101234859890408,0.4174835522969564]},{"name":"chair","coordinates":[0.43681267632378473,0.7187428156534831,0.09135812123616537,0.1625728925069173]},{"name":"orange","coordinates":[0.32988796234130857,0.9508117039998373,0.09788344701131185,0.09956105550130208]},{"name":"bowl","coordinates":[0.22876048617892794,0.6196714401245117,0.07859653366936578,0.08054933547973633]},{"name":"bottle","coordinates":[0.27309063805474176,0.5710850397745768,0.026859347025553384,0.11561983426411947]},{"name":"cup","coordinates":[0.30248245663113066,0.716624641418457,0.032774514622158475,0.062381207942962646]}]}
