{"src":"https://a0.muscache.com/im/pictures/28d0ee46-4219-46aa-8265-920ae1b4eb74.jpg?aki_policy=xx_large","name":"Joli studio 36 m2 au calme dans la verdure","listingId":8205360,"photoId":"2201-5","tags":[{"name":"diningtable","coordinates":[0.6060060713026258,0.7918469111124674,0.8202469719780816,0.4174835522969564]},{"name":"chair","coordinates":[0.8736253526475695,0.7187428156534831,0.18271624247233073,0.1625728925069173]},{"name":"orange","coordinates":[0.6597759246826171,0.9508117039998373,0.1957668940226237,0.09956105550130208]},{"name":"bowl","coordinates":[0.4575209723578559,0.6196714401245117,0.15719306733873156,0.08054933547973633]},{"name":"bottle","coordinates":[0.5461812761094835,0.5710850397745768,0.05371869405110677,0.11561983426411947]},{"name":"cup","coordinates":[0.6049649132622613,0.716624641418457,0.06554902924431695,0.062381207942962646]}]}
