{"src":"https://a0.muscache.com/im/pictures/28d0ee46-4219-46aa-8265-920ae1b4eb74.jpg?aki_policy=xx_large","name":"Joli studio 36 m2 au calme dans la verdure","listingId":8205360,"photoId":"2201-5","tags":[{"name":"diningtable","coordinates":[0.19588258531358504,0.5831051349639892,0.8202469719780816,0.4174835522969564]},{"name":"chair","coordinates":[0.7822672314114041,0.6374563694000244,0.18271624247233073,0.1625728925069173]},{"name":"orange","coordinates":[0.5618924776713052,0.9010311762491863,0.1957668940226237,0.09956105550130208]},{"name":"bowl","coordinates":[0.37892443868849013,0.5793967723846435,0.15719306733873156,0.08054933547973633]},{"name":"bottle","coordinates":[0.5193219290839302,0.5132751226425171,0.05371869405110677,0.11561983426411947]},{"name":"cup","coordinates":[0.5721903986401028,0.6854340374469757,0.06554902924431695,0.062381207942962646]}]}
