{"src":"https://a0.muscache.com/im/pictures/397f64d1-dd7f-448a-829f-e6e4c2f34fab.jpg?aki_policy=xx_large","name":"DZ APARTMENT+POOL NÃ„HE ARENA VOLKSPARK u. COSSI","listingId":8244992,"photoId":"2203-3","tags":[{"name":"chair","coordinates":[0.612842305501302,0.6794808705647787,0.3316112659595631,0.3162947336832682]},{"name":"bed","coordinates":[0.1959694191261574,0.8687243143717448,0.38591153180157695,0.26668809254964193]},{"name":"tvmonitor","coordinates":[0.3537846883138021,0.286173407236735,0.28786996912073204,0.12909286022186278]},{"name":"pottedplant","coordinates":[0.7563826384367767,0.5173091252644857,0.15410580105251737,0.14045066833496095]},{"name":"bottle","coordinates":[0.3399441471806279,0.5368349711100261,0.054929927543357564,0.05827946662902832]},{"name":"bottle","coordinates":[0.3134825529875579,0.5399054845174154,0.042335164105450664,0.05701441367467244]}]}
