{"src":"https://a0.muscache.com/im/pictures/397f64d1-dd7f-448a-829f-e6e4c2f34fab.jpg?aki_policy=xx_large","name":"DZ APARTMENT+POOL NÃ„HE ARENA VOLKSPARK u. COSSI","listingId":8244992,"photoId":"2203-3","tags":[{"name":"chair","coordinates":[0.44703667252152046,0.5213335037231446,0.3316112659595631,0.3162947336832682]},{"name":"bed","coordinates":[0.003013653225368923,0.7353802680969238,0.38591153180157695,0.26668809254964193]},{"name":"tvmonitor","coordinates":[0.2098497037534361,0.22162697712580362,0.28786996912073204,0.12909286022186278]},{"name":"pottedplant","coordinates":[0.679329737910518,0.44708379109700525,0.15410580105251737,0.14045066833496095]},{"name":"bottle","coordinates":[0.3124791834089491,0.507695237795512,0.054929927543357564,0.05827946662902832]},{"name":"bottle","coordinates":[0.29231497093483255,0.5113982776800792,0.042335164105450664,0.05701441367467244]}]}
