{"src":"https://a0.muscache.com/im/pictures/63a3b416-a98d-4bdf-a9d0-f1efd55df66d.jpg?aki_policy=xx_large","name":"SUPER COZY ROOM IN CITY CENTER 2!","listingId":8296641,"photoId":"2208-0","tags":[{"name":"diningtable","coordinates":[0.26469860076904295,0.619618797302246,0.33281917572021485,0.3287158966064453]},{"name":"chair","coordinates":[0.4637240409851074,0.6756688992182414,0.21916112899780274,0.2572190761566162]},{"name":"chair","coordinates":[0.2883560717105865,0.5555703163146973,0.12907241582870482,0.1403018315633138]},{"name":"refrigerator","coordinates":[0.8615526229143142,0.4421074231465658,0.07602271437644958,0.15651715596516927]},{"name":"chair","coordinates":[0.5983372628688812,0.5371670564015706,0.057860386371612546,0.1208823839823405]},{"name":"chair","coordinates":[0.5268178045749664,0.5324237068494161,0.05325716733932495,0.10492530663808187]},{"name":"book","coordinates":[0.32717562317848203,0.6904491027196248,0.09109300374984741,0.05221044222513835]}]}
