{"src":"https://a0.muscache.com/im/pictures/37c2325c-e0c5-452e-981b-63655aae7df7.jpg?aki_policy=xx_large","name":"SUPER COZY ROOM IN CITY CENTER 2!","listingId":8296641,"photoId":"2208-4","tags":[{"name":"toilet","coordinates":[0.6650655004713271,0.5690193970998128,0.31965401967366536,0.3566159248352051]},{"name":"sink","coordinates":[0.5319195323520236,0.5135457237561545,0.21021294063991972,0.07727345625559488]},{"name":"pottedplant","coordinates":[0.8871260166168212,0.5154172579447428,0.07050080829196506,0.07208258310953776]},{"name":"bottle","coordinates":[0.699408745765686,0.3812728961308797,0.032390631569756405,0.07687007586161296]},{"name":"vase","coordinates":[0.9022700349489847,0.5593781431516011,0.036726477411058216,0.02863446076711019]},{"name":"bottle","coordinates":[0.6657355301909976,0.4069596727689107,0.01708986626731025,0.043424010276794434]}]}
