{"src":"https://a0.muscache.com/im/pictures/37c2325c-e0c5-452e-981b-63655aae7df7.jpg?aki_policy=xx_large","name":"SUPER COZY ROOM IN CITY CENTER 2!","listingId":8296641,"photoId":"2208-4","tags":[{"name":"toilet","coordinates":[0.8248925103081597,0.7473273595174154,0.31965401967366536,0.3566159248352051]},{"name":"sink","coordinates":[0.6370260026719835,0.5521824518839519,0.21021294063991972,0.07727345625559488]},{"name":"pottedplant","coordinates":[0.9223764207628038,0.5514585494995117,0.07050080829196506,0.07208258310953776]},{"name":"bottle","coordinates":[0.7156040615505642,0.4197079340616862,0.032390631569756405,0.07687007586161296]},{"name":"vase","coordinates":[0.9206332736545139,0.5736953735351562,0.036726477411058216,0.02863446076711019]},{"name":"bottle","coordinates":[0.6742804633246527,0.4286716779073079,0.01708986626731025,0.043424010276794434]}]}
