{"src":"https://a0.muscache.com/im/pictures/37c2325c-e0c5-452e-981b-63655aae7df7.jpg?aki_policy=xx_large","name":"SUPER COZY ROOM IN CITY CENTER 2!","listingId":8296641,"photoId":"2208-4","tags":[{"name":"toilet","coordinates":[0.46400203704833987,0.7473273595174154,0.17980538606643676,0.3566159248352051]},{"name":"sink","coordinates":[0.3583271265029907,0.5521824518839519,0.11824477910995483,0.07727345625559488]},{"name":"pottedplant","coordinates":[0.5188367366790771,0.5514585494995117,0.039656704664230345,0.07208258310953776]},{"name":"bottle","coordinates":[0.4025272846221924,0.4197079340616862,0.018219730257987975,0.07687007586161296]},{"name":"vase","coordinates":[0.517856216430664,0.5736953735351562,0.020658643543720247,0.02863446076711019]},{"name":"bottle","coordinates":[0.3792827606201172,0.4286716779073079,0.009613049775362014,0.043424010276794434]}]}
