{"src":"https://a0.muscache.com/im/pictures/63a3b416-a98d-4bdf-a9d0-f1efd55df66d.jpg?aki_policy=xx_large","name":"SUPER COZY ROOM IN CITY CENTER 2!","listingId":8296641,"photoId":"2208-0","tags":[{"name":"diningtable","coordinates":[0.4311081886291504,0.7839767456054687,0.33281917572021485,0.3287158966064453]},{"name":"chair","coordinates":[0.5733046054840087,0.8042784372965495,0.21916112899780274,0.2572190761566162]},{"name":"chair","coordinates":[0.35289227962493896,0.6257212320963542,0.12907241582870482,0.1403018315633138]},{"name":"refrigerator","coordinates":[0.899563980102539,0.5203660011291504,0.07602271437644958,0.15651715596516927]},{"name":"chair","coordinates":[0.6272674560546875,0.5976082483927408,0.057860386371612546,0.1208823839823405]},{"name":"chair","coordinates":[0.5534463882446289,0.5848863601684571,0.05325716733932495,0.10492530663808187]},{"name":"book","coordinates":[0.37272212505340574,0.716554323832194,0.09109300374984741,0.05221044222513835]}]}
