{"src":"https://a0.muscache.com/im/pictures/110284487/f13e234b_original.jpg?aki_policy=xx_large","name":"Bathgate Rd","listingId":8316424,"photoId":"2209-5","tags":[{"name":"cat","coordinates":[0.7957212951448229,0.6500725030899047,0.08224905331929525,0.17950587272644042]},{"name":"bottle","coordinates":[0.9503665036625332,0.6505494832992553,0.04184426996443007,0.21643147468566895]},{"name":"bowl","coordinates":[0.8580533848868476,0.31786737442016605,0.08082672225104438,0.10741392771402995]},{"name":"cup","coordinates":[0.6563750955793592,0.6895767291386922,0.0480674425760905,0.10743788083394369]},{"name":"bottle","coordinates":[0.5103377315733167,0.29681806564331054,0.034696563084920244,0.14507770538330078]},{"name":"bottle","coordinates":[0.5683387345737881,0.30191954771677654,0.03438932365841336,0.13714677492777508]},{"name":"bottle","coordinates":[0.402459094259474,0.2960140307744344,0.02947469817267524,0.1451012134552002]},{"name":"bottle","coordinates":[0.5425762163268195,0.2976095676422119,0.023931802643669977,0.14315760930379232]},{"name":"bottle","coordinates":[0.5977307895819347,0.48537685871124264,0.018258021937476263,0.07155057589213053]},{"name":"bottle","coordinates":[0.5712779144446055,0.4872592926025391,0.018465170595380994,0.06736157735188802]}]}
