{"src":"https://a0.muscache.com/im/pictures/110284487/f13e234b_original.jpg?aki_policy=xx_large","name":"Bathgate Rd","listingId":8316424,"photoId":"2209-5","tags":[{"name":"cat","coordinates":[0.8368458218044705,0.739825439453125,0.08224905331929525,0.17950587272644042]},{"name":"bottle","coordinates":[0.9712886386447482,0.7587652206420898,0.04184426996443007,0.21643147468566895]},{"name":"bowl","coordinates":[0.8984667460123698,0.371574338277181,0.08082672225104438,0.10741392771402995]},{"name":"cup","coordinates":[0.6804088168674045,0.7432956695556641,0.0480674425760905,0.10743788083394369]},{"name":"bottle","coordinates":[0.5276860131157769,0.3693569183349609,0.034696563084920244,0.14507770538330078]},{"name":"bottle","coordinates":[0.5855333964029948,0.37049293518066406,0.03438932365841336,0.13714677492777508]},{"name":"bottle","coordinates":[0.41719644334581163,0.3685646375020345,0.02947469817267524,0.1451012134552002]},{"name":"bottle","coordinates":[0.5545421176486545,0.36918837229410806,0.023931802643669977,0.14315760930379232]},{"name":"bottle","coordinates":[0.6068598005506728,0.5211521466573079,0.018258021937476263,0.07155057589213053]},{"name":"bottle","coordinates":[0.580510499742296,0.5209400812784831,0.018465170595380994,0.06736157735188802]}]}
