{"src":"https://a0.muscache.com/im/pictures/ac08dbac-5513-48cc-914b-26ab51002ffd.jpg?aki_policy=xx_large","name":"Buena Vista","listingId":8333532,"photoId":"2211-4","tags":[{"name":"diningtable","coordinates":[0.49097227873625576,0.7179117202758789,0.9664002595124421,0.5260711352030436]},{"name":"cup","coordinates":[0.3817237288863571,0.5914717356363932,0.12728603504322195,0.08212242921193441]},{"name":"cup","coordinates":[0.564311048719618,0.5268726348876953,0.10308453595196759,0.08063286940256754]},{"name":"bowl","coordinates":[0.0685941908094618,0.599404780069987,0.13224241468641493,0.061974350611368814]},{"name":"cup","coordinates":[0.1074978510538737,0.5462465286254883,0.10143438975016277,0.07958846886952718]},{"name":"cup","coordinates":[0.6114496866861979,0.4502578099568685,0.08562371289288556,0.08396859963734944]},{"name":"bottle","coordinates":[0.44908226860894096,0.5540046056111654,0.08431821752477575,0.07537720203399659]},{"name":"bowl","coordinates":[0.6640870836046007,0.5649553298950195,0.10869543993914568,0.0486659049987793]},{"name":"bowl","coordinates":[0.6639845106336806,0.5107683499654134,0.10073377114755136,0.04984083573023478]}]}
