{"src":"https://a0.muscache.com/im/pictures/ac08dbac-5513-48cc-914b-26ab51002ffd.jpg?aki_policy=xx_large","name":"Buena Vista","listingId":8333532,"photoId":"2211-4","tags":[{"name":"diningtable","coordinates":[0.007772148980034699,0.4548761526743571,0.9664002595124421,0.5260711352030436]},{"name":"cup","coordinates":[0.31808071136474614,0.550410521030426,0.12728603504322195,0.08212242921193441]},{"name":"cup","coordinates":[0.5127687807436342,0.48655620018641155,0.10308453595196759,0.08063286940256754]},{"name":"bowl","coordinates":[0.0024729834662543387,0.5684176047643026,0.13224241468641493,0.061974350611368814]},{"name":"cup","coordinates":[0.05678065617879232,0.5064522941907247,0.10143438975016277,0.07958846886952718]},{"name":"cup","coordinates":[0.5686378302397551,0.40827351013819374,0.08562371289288556,0.08396859963734944]},{"name":"bottle","coordinates":[0.4069231598465531,0.516316004594167,0.08431821752477575,0.07537720203399659]},{"name":"bowl","coordinates":[0.6097393636350278,0.5406223773956299,0.10869543993914568,0.0486659049987793]},{"name":"bowl","coordinates":[0.6136176250599049,0.48584793210029603,0.10073377114755136,0.04984083573023478]}]}
