{"src":"https://a0.muscache.com/im/pictures/bde617ab-867c-49d4-9019-9bce2499c20a.jpg?aki_policy=xx_large","name":"Maisonnette à proximité d’agricongo","listingId":8530444,"photoId":"2220-4","tags":[{"name":"sofa","coordinates":[0.6230260213216146,0.5411011377970377,0.43889541625976564,0.36639833450317383]},{"name":"diningtable","coordinates":[0.17806559668646918,0.6384684880574544,0.3135011249118381,0.3979418436686198]},{"name":"chair","coordinates":[0.09823285208808051,0.6484138488769531,0.20583485497368706,0.545979372660319]},{"name":"chair","coordinates":[0.31339338090684676,0.6319108963012695,0.2065996593899197,0.4718565622965495]},{"name":"tvmonitor","coordinates":[0.9559991624620225,0.354216194152832,0.09140261544121636,0.15881702105204265]},{"name":"vase","coordinates":[0.18717246585422093,0.43464454015096027,0.06996463139851888,0.09489287535349528]}]}
