{"src":"https://a0.muscache.com/im/pictures/bde617ab-867c-49d4-9019-9bce2499c20a.jpg?aki_policy=xx_large","name":"Maisonnette à proximité d’agricongo","listingId":8530444,"photoId":"2220-4","tags":[{"name":"sofa","coordinates":[0.40357831319173176,0.3579019705454508,0.43889541625976564,0.36639833450317383]},{"name":"diningtable","coordinates":[0.021315034230550117,0.4394975662231445,0.3135011249118381,0.3979418436686198]},{"name":"chair","coordinates":[-0.004684575398763019,0.37542416254679356,0.20583485497368706,0.545979372660319]},{"name":"chair","coordinates":[0.21009355121188691,0.39598261515299477,0.2065996593899197,0.4718565622965495]},{"name":"tvmonitor","coordinates":[0.9102978547414143,0.2748076836268107,0.09140261544121636,0.15881702105204265]},{"name":"vase","coordinates":[0.15219015015496148,0.3871981024742126,0.06996463139851888,0.09489287535349528]}]}
