{"src":"https://a0.muscache.com/im/pictures/bd0fbb2d-372f-4272-baf1-a4e3a0705b0d.jpg?aki_policy=xx_large","name":"Комната Ленинский проспект. The Center Of Moscow.","listingId":8563819,"photoId":"2223-2","tags":[{"name":"diningtable","coordinates":[0.4731965303421021,0.7531359910964965,0.5311124324798584,0.23448538780212402]},{"name":"oven","coordinates":[0.5582601428031921,0.5592604080835978,0.16175730228424073,0.21669888496398926]},{"name":"chair","coordinates":[0.7944226861000061,0.7209190686543783,0.15513179302215577,0.12476367950439453]},{"name":"bowl","coordinates":[0.7034705460071563,0.764343802134196,0.11730407476425171,0.11031055450439453]},{"name":"bowl","coordinates":[0.7693975090980529,0.856539535522461,0.09529006481170654,0.10087013244628906]},{"name":"orange","coordinates":[0.7136474698781967,0.7735817968845368,0.06033962368965149,0.05797035296758016]},{"name":"vase","coordinates":[0.9307372480630874,0.009162112077077227,0.03445407748222351,0.09285878340403239]},{"name":"sink","coordinates":[0.41457008123397826,0.5472200204928717,0.11508934497833252,0.023642895619074504]},{"name":"apple","coordinates":[0.762941625714302,0.7469242095947266,0.04188808798789978,0.05725313822428386]},{"name":"apple","coordinates":[0.7109157219529152,0.749417777856191,0.046105262637138364,0.034136144320170085]},{"name":"cup","coordinates":[0.8657427296042443,0.06618303259213765,0.03043546974658966,0.039590871334075926]},{"name":"spoon","coordinates":[0.7484801724553108,0.45997243324915565,0.01150742471218109,0.05021059513092041]}]}
