{"src":"https://a0.muscache.com/im/pictures/bd0fbb2d-372f-4272-baf1-a4e3a0705b0d.jpg?aki_policy=xx_large","name":"Комната Ленинский проспект. The Center Of Moscow.","listingId":8563819,"photoId":"2223-2","tags":[{"name":"diningtable","coordinates":[0.6566691080729167,0.8703786849975585,0.4720999399820964,0.23448538780212402]},{"name":"oven","coordinates":[0.5681233723958333,0.6676098505655924,0.14378426869710287,0.21669888496398926]},{"name":"chair","coordinates":[0.7751009623209636,0.7833009084065755,0.13789492713080512,0.12476367950439453]},{"name":"bowl","coordinates":[0.6774422963460286,0.8194990793863932,0.10427028867933485,0.11031055450439453]},{"name":"bowl","coordinates":[0.7262600368923611,0.9069746017456055,0.08470227983262804,0.10087013244628906]},{"name":"orange","coordinates":[0.661170917087131,0.8025669733683268,0.05363522105746799,0.05797035296758016]},{"name":"vase","coordinates":[0.8426349216037327,0.05559150377909342,0.030625846650865342,0.09285878340403239]},{"name":"sink","coordinates":[0.4196575588650174,0.5590414683024089,0.10230163998074002,0.023642895619074504]},{"name":"apple","coordinates":[0.6967872619628906,0.7755507787068685,0.03723385598924425,0.05725313822428386]},{"name":"apple","coordinates":[0.6524163140190973,0.766485850016276,0.04098245567745633,0.034136144320170085]},{"name":"cup","coordinates":[0.7830759684244791,0.08597846825917561,0.027053750885857476,0.039590871334075926]},{"name":"spoon","coordinates":[0.6704301198323568,0.48507773081461586,0.010228821966383193,0.05021059513092041]}]}
