{"src":"https://a0.muscache.com/im/pictures/bd0fbb2d-372f-4272-baf1-a4e3a0705b0d.jpg?aki_policy=xx_large","name":"Комната Ленинский проспект. The Center Of Moscow.","listingId":8563819,"photoId":"2223-2","tags":[{"name":"diningtable","coordinates":[0.7387527465820313,0.8703786849975585,0.5311124324798584,0.23448538780212402]},{"name":"oven","coordinates":[0.6391387939453125,0.6676098505655924,0.16175730228424073,0.21669888496398926]},{"name":"chair","coordinates":[0.871988582611084,0.7833009084065755,0.15513179302215577,0.12476367950439453]},{"name":"bowl","coordinates":[0.7621225833892822,0.8194990793863932,0.11730407476425171,0.11031055450439453]},{"name":"bowl","coordinates":[0.8170425415039062,0.9069746017456055,0.09529006481170654,0.10087013244628906]},{"name":"orange","coordinates":[0.7438172817230224,0.8025669733683268,0.06033962368965149,0.05797035296758016]},{"name":"vase","coordinates":[0.9479642868041992,0.05559150377909342,0.03445407748222351,0.09285878340403239]},{"name":"sink","coordinates":[0.47211475372314454,0.5590414683024089,0.11508934497833252,0.023642895619074504]},{"name":"apple","coordinates":[0.7838856697082519,0.7755507787068685,0.04188808798789978,0.05725313822428386]},{"name":"apple","coordinates":[0.7339683532714844,0.766485850016276,0.046105262637138364,0.034136144320170085]},{"name":"cup","coordinates":[0.8809604644775391,0.08597846825917561,0.03043546974658966,0.039590871334075926]},{"name":"spoon","coordinates":[0.7542338848114014,0.48507773081461586,0.01150742471218109,0.05021059513092041]}]}
