{"src":"https://a0.muscache.com/im/pictures/4e911fa0-008a-4655-b243-edc7911099c1.jpg?aki_policy=xx_large","name":"The real Norwegian cabin experience","listingId":8607817,"photoId":"2227-6","tags":[{"name":"sofa","coordinates":[0.27624118946216725,0.7210315704345703,0.4896084255642361,0.264991553624471]},{"name":"chair","coordinates":[0.8538811012550637,0.6444251378377278,0.3234707302517361,0.19630459149678547]},{"name":"sofa","coordinates":[0.8538811012550637,0.6444251378377278,0.3234707302517361,0.19630459149678547]},{"name":"sofa","coordinates":[0.6043824937608507,0.5483226140340169,0.2515328301323785,0.15030145645141602]},{"name":"chair","coordinates":[0.6043824937608507,0.5483226140340169,0.2515328301323785,0.15030145645141602]},{"name":"cup","coordinates":[0.23804666024667245,0.7955245971679688,0.04648958488746926,0.03752840757369995]},{"name":"pottedplant","coordinates":[0.4894961321795428,0.5814992268880208,0.05364834467569987,0.030741318066914877]}]}
