{"src":"https://a0.muscache.com/im/pictures/2d5dfa64-8cf1-431c-ae7b-b2cbde5b4ab9.jpg?aki_policy=xx_large","name":"The real Norwegian cabin experience","listingId":8607817,"photoId":"2227-21","tags":[{"name":"diningtable","coordinates":[-0.03179406172392385,0.5839664936065674,0.6840716835678808,0.4258144696553548]},{"name":"chair","coordinates":[0.6657245459146058,0.5460508743921915,0.33344057601019245,0.25851025581359866]},{"name":"book","coordinates":[0.03643378453538909,0.8989745378494263,0.5052437283345406,0.09626847902933756]},{"name":"chair","coordinates":[0.500112935249379,0.5063666343688965,0.2434246947433775,0.16336472829182944]},{"name":"pottedplant","coordinates":[0.3278901409629165,0.48986693620681765,0.05825877410686569,0.04886001745859782]},{"name":"vase","coordinates":[0.33488470165934786,0.513086391488711,0.04287659600870499,0.02401311993598938]}]}
