{"src":"https://a0.muscache.com/im/pictures/2600b95f-4cd7-42f1-a795-d1d615b54648.jpg?aki_policy=xx_large","name":"The real Norwegian cabin experience","listingId":8607817,"photoId":"2227-12","tags":[{"name":"chair","coordinates":[-0.012251384169967086,0.5392923355102539,0.08939935189706308,0.3676698048909505]},{"name":"clock","coordinates":[0.004164003442834921,0.14332842032114668,0.13677142107928242,0.09064116477966308]},{"name":"bottle","coordinates":[0.33686565116599754,0.4288414438565572,0.06972052962691695,0.12391266028086344]},{"name":"cup","coordinates":[0.1878300384238914,0.4688453753789267,0.09472727598967376,0.08423282305399576]},{"name":"bowl","coordinates":[0.6660575018988715,0.2551203707853953,0.15566564489293983,0.04752286672592163]},{"name":"bottle","coordinates":[0.2813800635161223,0.4311923623085022,0.057393285963270396,0.11879018942515056]},{"name":"wine-glass","coordinates":[0.38152527985749424,0.08751583099365234,0.06210621021412037,0.08432776133219401]},{"name":"wine-glass","coordinates":[0.4491189356203432,0.08274345795313517,0.057513448927137584,0.0872590144475301]},{"name":"wine-glass","coordinates":[0.3052527851528592,0.10448168913523355,0.06479152396873192,0.0728281815846761]},{"name":"cup","coordinates":[0.340517665721752,0.33574455976486206,0.08732969495985243,0.050691692034403484]},{"name":"cup","coordinates":[0.2613216894644278,0.3368089497089386,0.08217105159053097,0.050809578100840254]},{"name":"cup","coordinates":[0.4325717678776494,0.33460360566775005,0.08530179482919198,0.047421244780222575]}]}
