{"src":"https://a0.muscache.com/im/pictures/3193edd4-98d3-4108-b1dd-72fc6b10b486.jpg?aki_policy=xx_large","name":"The real Norwegian cabin experience","listingId":8607817,"photoId":"2227-0","tags":[{"name":"dog","coordinates":[0.16806498633490669,0.8868585586547851,0.09371927049424914,0.11314787069956461]},{"name":"bench","coordinates":[0.316786617702908,0.7753578821818033,0.12117267184787327,0.06992709636688232]},{"name":"pottedplant","coordinates":[0.658221181233724,0.7807704925537109,0.06892824172973633,0.1155521551767985]},{"name":"chair","coordinates":[0.47562878926595054,0.7984253565470377,0.04690871238708496,0.11675519148508708]},{"name":"chair","coordinates":[0.5726671854654948,0.8003061294555665,0.0471292601691352,0.10819742679595948]},{"name":"chair","coordinates":[0.6048177507188585,0.7837779998779297,0.032885577943589955,0.11080617109934489]},{"name":"chair","coordinates":[0.4279440138075087,0.7778980890909831,0.03381429513295491,0.10582433541615804]}]}
