{"src":"https://a0.muscache.com/im/pictures/2d6f2a9d-cf00-4c6f-bb14-e376e313ea3a.jpg?aki_policy=xx_large","name":"The real Norwegian cabin experience","listingId":8607817,"photoId":"2227-9","tags":[{"name":"chair","coordinates":[0.3391147189670139,0.8202475865681966,0.3766670227050781,0.36074775060017905]},{"name":"microwave","coordinates":[1.0306367097077547,0.5449445088704427,0.31946125736943,0.0949304978052775]},{"name":"clock","coordinates":[0.3142567669903791,0.2680434544881185,0.12383099308720341,0.08619353771209717]},{"name":"chair","coordinates":[0.3792849787959346,0.5898478825887045,0.1439315089473018,0.031593241294225055]},{"name":"bottle","coordinates":[1.1060340033637153,0.291046937306722,0.04022229512532552,0.059146181742350264]},{"name":"cup","coordinates":[0.5139608312536169,0.41292203267415367,0.03877160107647931,0.025966630379358927]},{"name":"cup","coordinates":[0.4796150490089699,0.41310354868570964,0.03605356569643374,0.02670629819234212]},{"name":"cup","coordinates":[0.5506792986834491,0.41154282887776694,0.03542250880488643,0.0251214861869812]},{"name":"cup","coordinates":[0.5836331402813947,0.41097596486409504,0.036000823974609374,0.02374024788538615]},{"name":"cup","coordinates":[0.6106133920175058,0.4117632548014323,0.03308883949562355,0.02270642320315043]}]}
