{"src":"https://a0.muscache.com/im/pictures/2d6f2a9d-cf00-4c6f-bb14-e376e313ea3a.jpg?aki_policy=xx_large","name":"The real Norwegian cabin experience","listingId":8607817,"photoId":"2227-9","tags":[{"name":"chair","coordinates":[0.25433603922526044,0.8202475865681966,0.2825002670288086,0.36074775060017905]},{"name":"microwave","coordinates":[0.772977532280816,0.5449445088704427,0.2395959430270725,0.0949304978052775]},{"name":"clock","coordinates":[0.23569257524278428,0.2680434544881185,0.09287324481540256,0.08619353771209717]},{"name":"chair","coordinates":[0.28446373409695097,0.5898478825887045,0.10794863171047635,0.031593241294225055]},{"name":"bottle","coordinates":[0.8295255025227865,0.291046937306722,0.03016672134399414,0.059146181742350264]},{"name":"cup","coordinates":[0.38547062344021266,0.41292203267415367,0.029078700807359484,0.025966630379358927]},{"name":"cup","coordinates":[0.3597112867567274,0.41310354868570964,0.027040174272325305,0.02670629819234212]},{"name":"cup","coordinates":[0.4130094740125868,0.41154282887776694,0.026566881603664824,0.0251214861869812]},{"name":"cup","coordinates":[0.437724855211046,0.41097596486409504,0.027000617980957032,0.02374024788538615]},{"name":"cup","coordinates":[0.45796004401312934,0.4117632548014323,0.024816629621717663,0.02270642320315043]}]}
