{"src":"https://a0.muscache.com/im/pictures/3193edd4-98d3-4108-b1dd-72fc6b10b486.jpg?aki_policy=xx_large","name":"The real Norwegian cabin experience","listingId":8607817,"photoId":"2227-0","tags":[{"name":"dog","coordinates":[0.12120535108778212,0.8302846233050029,0.09371927049424914,0.11314787069956461]},{"name":"bench","coordinates":[0.25620028177897136,0.7403943339983622,0.12117267184787327,0.06992709636688232]},{"name":"pottedplant","coordinates":[0.6237570603688558,0.7229944149653117,0.06892824172973633,0.1155521551767985]},{"name":"chair","coordinates":[0.45217443307240807,0.7400477608044942,0.04690871238708496,0.11675519148508708]},{"name":"chair","coordinates":[0.5491025553809272,0.7462074160575867,0.0471292601691352,0.10819742679595948]},{"name":"chair","coordinates":[0.5883749617470635,0.7283749143282573,0.032885577943589955,0.11080617109934489]},{"name":"chair","coordinates":[0.41103686624103125,0.7249859213829041,0.03381429513295491,0.10582433541615804]}]}
