{"src":"https://a0.muscache.com/im/pictures/110068121/6f76646d_original.jpg?aki_policy=xx_large","name":"Sofa cama en moderno apartamento","listingId":8634050,"photoId":"2228-2","tags":[{"name":"sofa","coordinates":[0.43799307081434463,0.7184937159220378,0.6281556447347005,0.5345404942830404]},{"name":"diningtable","coordinates":[0.8653535630967882,0.7621598561604818,0.2778598573472765,0.31435654958089193]},{"name":"chair","coordinates":[0.9203419155544705,0.8658637364705404,0.1507712894015842,0.23772385915120442]},{"name":"chair","coordinates":[0.7756073845757379,0.6456940968831381,0.10420222812228733,0.23759247461954752]},{"name":"pottedplant","coordinates":[0.5952646891276042,0.46063963572184247,0.08818976084391277,0.19893134435017903]},{"name":"chair","coordinates":[0.8593543158637152,0.5918169657389323,0.08714668485853407,0.16912458737691244]}]}
