{"src":"https://a0.muscache.com/im/pictures/110067634/ae865dd0_original.jpg?aki_policy=xx_large","name":"Sofa cama en moderno apartamento","listingId":8634050,"photoId":"2228-1","tags":[{"name":"sofa","coordinates":[-0.010237926907009531,0.5482747395833334,0.6916571723090278,0.43646647135416666]},{"name":"chair","coordinates":[0.515875350104438,0.691668430964152,0.47005814446343314,0.27087151209513344]},{"name":"chair","coordinates":[0.5124072286817762,0.7681416352589925,0.2861857732137044,0.2059178352355957]},{"name":"pottedplant","coordinates":[0.7523276593950059,0.42862054506937664,0.15899790657891166,0.3158719062805176]},{"name":"chair","coordinates":[0.49566905233595104,0.5964900890986125,0.11820321612887913,0.14292489687601725]},{"name":"pottedplant","coordinates":[0.9079280270470513,0.5193048874537151,0.09697234895494249,0.1637845834096273]},{"name":"pottedplant","coordinates":[0.41917166709899906,0.42550849119822187,0.07789083056979709,0.19132018089294434]},{"name":"vase","coordinates":[0.7961181826061672,0.5737407525380452,0.07693562507629395,0.17099726994832357]},{"name":"chair","coordinates":[0.6096167087554931,0.5698736548423767,0.07972711986965603,0.12406214872996012]}]}
