{"src":"https://a0.muscache.com/im/pictures/110067634/ae865dd0_original.jpg?aki_policy=xx_large","name":"Sofa cama en moderno apartamento","listingId":8634050,"photoId":"2228-1","tags":[{"name":"sofa","coordinates":[0.33559065924750436,0.7665079752604167,0.6916571723090278,0.43646647135416666]},{"name":"chair","coordinates":[0.7509044223361545,0.8271041870117187,0.47005814446343314,0.27087151209513344]},{"name":"chair","coordinates":[0.6555001152886285,0.8711005528767903,0.2861857732137044,0.2059178352355957]},{"name":"pottedplant","coordinates":[0.8318266126844618,0.5865564982096354,0.15899790657891166,0.3158719062805176]},{"name":"chair","coordinates":[0.5547706604003906,0.6679525375366211,0.11820321612887913,0.14292489687601725]},{"name":"pottedplant","coordinates":[0.9564142015245226,0.6011971791585287,0.09697234895494249,0.1637845834096273]},{"name":"pottedplant","coordinates":[0.4581170823838976,0.521168581644694,0.07789083056979709,0.19132018089294434]},{"name":"vase","coordinates":[0.8345859951443142,0.659239387512207,0.07693562507629395,0.17099726994832357]},{"name":"chair","coordinates":[0.6494802686903212,0.6319047292073567,0.07972711986965603,0.12406214872996012]}]}
