{"src":"https://a0.muscache.com/im/pictures/57c99876-6fd1-431a-a464-d831f2a850d6.jpg?aki_policy=xx_large","name":"Уютная 1-к квартира в центре города","listingId":14033237,"photoId":"223-2","tags":[{"name":"refrigerator","coordinates":[0.2823615550994873,0.6605854670206706,0.23789665699005128,0.7018000284830729]},{"name":"oven","coordinates":[0.8081429481506348,0.8212416330973308,0.37683396339416503,0.29930054346720375]},{"name":"pottedplant","coordinates":[0.4555086612701416,0.052176435788472496,0.16430888175964356,0.09304269154866536]},{"name":"cup","coordinates":[0.6423879623413086,0.6429478327433268,0.0770837664604187,0.11056202252705892]},{"name":"sink","coordinates":[0.41922435760498045,0.6887197494506836,0.14576138257980348,0.0522502064704895]},{"name":"bottle","coordinates":[0.4142292499542236,0.591372299194336,0.020875446498394012,0.1260842243830363]}]}
