{"src":"https://a0.muscache.com/im/pictures/57c99876-6fd1-431a-a464-d831f2a850d6.jpg?aki_policy=xx_large","name":"Уютная 1-к квартира в центре города","listingId":14033237,"photoId":"223-2","tags":[{"name":"refrigerator","coordinates":[0.16341322660446167,0.3096854527791341,0.23789665699005128,0.7018000284830729]},{"name":"oven","coordinates":[0.6197259664535523,0.6715913613637289,0.37683396339416503,0.29930054346720375]},{"name":"pottedplant","coordinates":[0.37335422039031985,0.005655090014139816,0.16430888175964356,0.09304269154866536]},{"name":"cup","coordinates":[0.6038460791110992,0.5876668214797973,0.0770837664604187,0.11056202252705892]},{"name":"sink","coordinates":[0.34634366631507874,0.6625946462154388,0.14576138257980348,0.0522502064704895]},{"name":"bottle","coordinates":[0.4037915267050266,0.5283301870028179,0.020875446498394012,0.1260842243830363]}]}
