{"src":"https://a0.muscache.com/im/pictures/a984c488-cb0b-4f66-b3e8-12a4a12673cc.jpg?aki_policy=xx_large","name":"Near KIX 20min 8 adults can stay","listingId":8654005,"photoId":"2231-28","tags":[{"name":"sink","coordinates":[0.519925308227539,0.8625733693440755,0.8298782348632813,0.3025099118550619]},{"name":"microwave","coordinates":[0.07132158279418946,0.8594718297322591,0.16077892515394424,0.2851600646972656]},{"name":"person","coordinates":[0.21383503807915583,0.35857133865356444,0.12936613294813368,0.32640231450398766]},{"name":"bottle","coordinates":[0.6516243828667535,0.7261665980021159,0.08687206904093424,0.12356298764546712]},{"name":"bottle","coordinates":[0.2808876249525282,0.5615501403808594,0.07145395808749729,0.1413795789082845]},{"name":"bottle","coordinates":[0.508616214328342,0.5550556818644206,0.059714587529500325,0.1444307327270508]},{"name":"bottle","coordinates":[0.36003706190321183,0.5805301030476888,0.029162308904859754,0.09258600076039632]},{"name":"cell-phone","coordinates":[0.2126647737291124,0.22520003318786622,0.05013304816351997,0.04966325759887695]}]}
