{"src":"https://a0.muscache.com/im/pictures/4e67265b-0956-4e54-85b7-b4a57fc9e80c.jpg?aki_policy=xx_large","name":"Near KIX 20min 8 adults can stay","listingId":8654005,"photoId":"2231-26","tags":[{"name":"chair","coordinates":[0.003663396835327154,0.5439016660054524,0.2683523178100586,0.44885056813557944]},{"name":"sofa","coordinates":[0.003663396835327154,0.5439016660054524,0.2683523178100586,0.44885056813557944]},{"name":"sofa","coordinates":[0.6062775254249573,0.6938970247904459,0.3668865919113159,0.2970226923624674]},{"name":"diningtable","coordinates":[0.5110234141349792,0.3720813274383545,0.2327449083328247,0.24447094599405925]},{"name":"chair","coordinates":[0.6111999809741975,0.3990825017293294,0.10856612920761108,0.21834227244059246]},{"name":"chair","coordinates":[0.5120935022830964,0.38525180021921795,0.10173662900924682,0.21560327212015787]},{"name":"tvmonitor","coordinates":[0.23856382369995116,0.43055486679077154,0.12782301902770996,0.14851436614990235]},{"name":"bowl","coordinates":[0.5717618405818938,0.36904339790344237,0.034149563312530516,0.025064881642659506]}]}
