{"src":"https://a0.muscache.com/im/pictures/4e67265b-0956-4e54-85b7-b4a57fc9e80c.jpg?aki_policy=xx_large","name":"Near KIX 20min 8 adults can stay","listingId":8654005,"photoId":"2231-26","tags":[{"name":"chair","coordinates":[0.13783955574035645,0.7683269500732421,0.2683523178100586,0.44885056813557944]},{"name":"sofa","coordinates":[0.13783955574035645,0.7683269500732421,0.2683523178100586,0.44885056813557944]},{"name":"sofa","coordinates":[0.7897208213806153,0.8424083709716796,0.3668865919113159,0.2970226923624674]},{"name":"diningtable","coordinates":[0.6273958683013916,0.4943168004353841,0.2327449083328247,0.24447094599405925]},{"name":"chair","coordinates":[0.665483045578003,0.5082536379496256,0.10856612920761108,0.21834227244059246]},{"name":"chair","coordinates":[0.5629618167877197,0.4930534362792969,0.10173662900924682,0.21560327212015787]},{"name":"tvmonitor","coordinates":[0.30247533321380615,0.5048120498657227,0.12782301902770996,0.14851436614990235]},{"name":"bowl","coordinates":[0.5888366222381591,0.38157583872477213,0.034149563312530516,0.025064881642659506]}]}
