{"src":"https://a0.muscache.com/im/pictures/a984c488-cb0b-4f66-b3e8-12a4a12673cc.jpg?aki_policy=xx_large","name":"Near KIX 20min 8 adults can stay","listingId":8654005,"photoId":"2231-28","tags":[{"name":"sink","coordinates":[0.10498619079589838,0.7113184134165446,0.8298782348632813,0.3025099118550619]},{"name":"microwave","coordinates":[-0.009067879782782659,0.7168917973836263,0.16077892515394424,0.2851600646972656]},{"name":"person","coordinates":[0.14915197160508897,0.19537018140157061,0.12936613294813368,0.32640231450398766]},{"name":"bottle","coordinates":[0.6081883483462864,0.6643851041793823,0.08687206904093424,0.12356298764546712]},{"name":"bottle","coordinates":[0.2451606459087796,0.4908603509267171,0.07145395808749729,0.1413795789082845]},{"name":"bottle","coordinates":[0.47875892056359187,0.4828403155008952,0.059714587529500325,0.1444307327270508]},{"name":"bottle","coordinates":[0.345455907450782,0.5342371026674907,0.029162308904859754,0.09258600076039632]},{"name":"cell-phone","coordinates":[0.18759824964735242,0.20036840438842773,0.05013304816351997,0.04966325759887695]}]}
