{"src":"https://a0.muscache.com/im/pictures/4e67265b-0956-4e54-85b7-b4a57fc9e80c.jpg?aki_policy=xx_large","name":"Near KIX 20min 8 adults can stay","listingId":8654005,"photoId":"2231-19","tags":[{"name":"chair","coordinates":[0.24504809909396702,0.7683269500732421,0.47707078721788193,0.44885056813557944]},{"name":"sofa","coordinates":[0.24504809909396702,0.7683269500732421,0.47707078721788193,0.44885056813557944]},{"name":"sofa","coordinates":[1.4039481268988716,0.8424083709716796,0.6522428300645616,0.2970226923624674]},{"name":"diningtable","coordinates":[1.1153704325358074,0.4943168004353841,0.4137687259250217,0.24447094599405925]},{"name":"chair","coordinates":[1.1830809699164497,0.5082536379496256,0.19300645192464191,0.21834227244059246]},{"name":"chair","coordinates":[1.000821007622613,0.4930534362792969,0.18086511823866103,0.21560327212015787]},{"name":"tvmonitor","coordinates":[0.5377339257134331,0.5048120498657227,0.22724092271592883,0.14851436614990235]},{"name":"bowl","coordinates":[1.0468206617567275,0.38157583872477213,0.06071033477783203,0.025064881642659506]}]}
