{"src":"https://a0.muscache.com/im/pictures/111266474/778f755d_original.jpg?aki_policy=xx_large","name":"Excellent location in Kyoto 1-E","listingId":8788574,"photoId":"2235-0","tags":[{"name":"diningtable","coordinates":[0.6279516220092773,0.3864758809407552,0.5578229904174805,0.5438145319620769]},{"name":"cup","coordinates":[0.8520561218261719,0.30474475224812825,0.07821008563041687,0.10360692342122396]},{"name":"cup","coordinates":[0.521762466430664,0.3315798123677572,0.061464667320251465,0.1070369005203247]},{"name":"vase","coordinates":[0.6831766128540039,0.20151591300964355,0.07490100860595703,0.08075599670410157]},{"name":"cake","coordinates":[0.44105868339538573,0.18082547187805176,0.0669890284538269,0.08813331921895345]}]}
