{"src":"https://a0.muscache.com/im/pictures/1c0d1801-9304-4a81-8b15-2c1c94b898ae.jpg?aki_policy=xx_large","name":"Excellent location in Kyoto 1-E","listingId":8788574,"photoId":"2235-11","tags":[{"name":"diningtable","coordinates":[-0.0013072252273559626,0.7830672025680543,0.4234227180480957,0.21980449358622234]},{"name":"diningtable","coordinates":[0.5752836346626282,0.6036238511403402,0.13551080226898193,0.1338224728902181]},{"name":"wine-glass","coordinates":[0.027900105714797972,0.7669428666432698,0.06507185697555543,0.20100323359171549]},{"name":"wine-glass","coordinates":[0.07694396376609802,0.7390005826950073,0.062470877170562746,0.19480042457580565]},{"name":"chair","coordinates":[0.48965910673141483,0.5853471557299297,0.09035160541534423,0.1271037181218465]},{"name":"cup","coordinates":[0.04446882903575898,0.22043935060501096,0.07862161993980407,0.07169950008392334]}]}
