{"src":"https://a0.muscache.com/im/pictures/111266474/778f755d_original.jpg?aki_policy=xx_large","name":"Excellent location in Kyoto 1-E","listingId":8788574,"photoId":"2235-0","tags":[{"name":"diningtable","coordinates":[0.3490401268005371,0.11456861495971676,0.5578229904174805,0.5438145319620769]},{"name":"cup","coordinates":[0.8129510790109634,0.25294129053751624,0.07821008563041687,0.10360692342122396]},{"name":"cup","coordinates":[0.4910301327705383,0.27806136210759486,0.061464667320251465,0.1070369005203247]},{"name":"vase","coordinates":[0.6457261085510254,0.16113791465759278,0.07490100860595703,0.08075599670410157]},{"name":"cake","coordinates":[0.40756416916847227,0.13675881226857503,0.0669890284538269,0.08813331921895345]}]}
