{"src":"https://a0.muscache.com/im/pictures/071b7806-1abe-4aa2-940b-ed0a24c3a773.jpg?aki_policy=xx_large","name":"【箱根、鎌倉、江ノ島、横浜、神奈川、東京、大山】旅行最適！出張、親戚訪問なども大歓迎！！","listingId":8871334,"photoId":"2240-1","tags":[{"name":"oven","coordinates":[0.2992246627807617,0.7379714965820312,0.3346410274505615,0.2168092091878255]},{"name":"sink","coordinates":[0.8002283096313476,0.764667828877767,0.18628944158554078,0.1336609681447347]},{"name":"bowl","coordinates":[0.5750254631042481,0.5707189559936523,0.08717883825302124,0.05288455486297607]},{"name":"bottle","coordinates":[0.7388770580291748,0.5744852701822917,0.039320796728134155,0.09374144077301025]},{"name":"bottle","coordinates":[0.8294719696044922,0.564955457051595,0.030585163831710817,0.11968576113382975]},{"name":"spoon","coordinates":[0.5314087390899658,0.4318313916524251,0.02595406174659729,0.1281070073445638]},{"name":"bottle","coordinates":[0.2982905387878418,0.5340955098470052,0.026476708054542542,0.09499061107635498]},{"name":"bottle","coordinates":[0.8015849113464355,0.5856857299804688,0.02246437668800354,0.08380403518676757]},{"name":"bowl","coordinates":[0.7365837574005127,0.38541428248087567,0.06103161573410034,0.029295764366785684]},{"name":"cup","coordinates":[0.7903285980224609,0.3801750183105469,0.04274374842643738,0.040779765446980795]},{"name":"cup","coordinates":[0.8291243553161621,0.3792656580607096,0.04165355563163757,0.040915791193644205]},{"name":"bottle","coordinates":[0.37765381336212156,0.5365467707316081,0.022119566798210144,0.07349325815836588]}]}
