{"src":"https://a0.muscache.com/im/pictures/071b7806-1abe-4aa2-940b-ed0a24c3a773.jpg?aki_policy=xx_large","name":"【箱根、鎌倉、江ノ島、横浜、神奈川、東京、大山】旅行最適！出張、親戚訪問なども大歓迎！！","listingId":8871334,"photoId":"2240-1","tags":[{"name":"oven","coordinates":[0.5657423461733752,0.7379714965820312,0.6327038628311946,0.2168092091878255]},{"name":"sink","coordinates":[1.5129870551375555,0.764667828877767,0.3522163740465173,0.1336609681447347]},{"name":"bowl","coordinates":[1.0871973305368352,0.5707189559936523,0.16482852727306824,0.05288455486297607]},{"name":"bottle","coordinates":[1.3969905971600352,0.5744852701822917,0.07434360385821524,0.09374144077301025]},{"name":"bottle","coordinates":[1.5682778745845642,0.564955457051595,0.05782719306438677,0.11968576113382975]},{"name":"spoon","coordinates":[1.004731441706287,0.4318313916524251,0.04907119503049414,0.1281070073445638]},{"name":"bottle","coordinates":[0.563976203321178,0.5340955098470052,0.05005935939411293,0.09499061107635498]},{"name":"bottle","coordinates":[1.5155519741852843,0.5856857299804688,0.042473267593271094,0.08380403518676757]},{"name":"bowl","coordinates":[1.3926546668724613,0.38541428248087567,0.11539212428308485,0.029295764366785684]},{"name":"cup","coordinates":[1.4942697274279912,0.3801750183105469,0.08081535891556846,0.040779765446980795]},{"name":"cup","coordinates":[1.5676206422521233,0.3792656580607096,0.07875413767872393,0.040915791193644205]},{"name":"bottle","coordinates":[0.7140278893700378,0.5365467707316081,0.04182133752098816,0.07349325815836588]}]}
