{"src":"https://a0.muscache.com/im/pictures/071b7806-1abe-4aa2-940b-ed0a24c3a773.jpg?aki_policy=xx_large","name":"【箱根、鎌倉、江ノ島、横浜、神奈川、東京、大山】旅行最適！出張、親戚訪問なども大歓迎！！","listingId":8871334,"photoId":"2240-1","tags":[{"name":"oven","coordinates":[0.13190414905548095,0.6295668919881184,0.3346410274505615,0.2168092091878255]},{"name":"sink","coordinates":[0.7070835888385772,0.6978373448053996,0.18628944158554078,0.1336609681447347]},{"name":"bowl","coordinates":[0.5314360439777375,0.5442766785621642,0.08717883825302124,0.05288455486297607]},{"name":"bottle","coordinates":[0.7192166596651077,0.5276145497957866,0.039320796728134155,0.09374144077301025]},{"name":"bottle","coordinates":[0.8141793876886368,0.5051125764846801,0.030585163831710817,0.11968576113382975]},{"name":"spoon","coordinates":[0.5184317082166672,0.3677778879801432,0.02595406174659729,0.1281070073445638]},{"name":"bottle","coordinates":[0.28505218476057054,0.48660020430882767,0.026476708054542542,0.09499061107635498]},{"name":"bottle","coordinates":[0.7903527230024338,0.543783712387085,0.02246437668800354,0.08380403518676757]},{"name":"bowl","coordinates":[0.7060679495334625,0.3707664002974828,0.06103161573410034,0.029295764366785684]},{"name":"cup","coordinates":[0.7689567238092422,0.3597851355870565,0.04274374842643738,0.040779765446980795]},{"name":"cup","coordinates":[0.8082975775003434,0.3588077624638875,0.04165355563163757,0.040915791193644205]},{"name":"bottle","coordinates":[0.3665940299630165,0.49980014165242515,0.022119566798210144,0.07349325815836588]}]}
