{"src":"https://a0.muscache.com/im/pictures/35e5273f-23d2-4108-b416-e2d0a63acd12.jpg?aki_policy=xx_large","name":"Apartamento en el centro de Caracas","listingId":9093436,"photoId":"2248-0","tags":[{"name":"oven","coordinates":[0.12132207022772895,0.5912829081217448,0.16817460589938693,0.29356072743733724]},{"name":"microwave","coordinates":[0.1050188488430447,0.33460572560628254,0.1708700074089898,0.19728312492370606]},{"name":"sink","coordinates":[0.6227588653564453,0.5836007436116536,0.3338146209716797,0.08428764343261719]},{"name":"microwave","coordinates":[0.8942569308810764,0.5443283081054687,0.1679277843899197,0.10345795154571533]},{"name":"bowl","coordinates":[0.30405559539794924,0.5558588027954101,0.160545719994439,0.04642460346221924]},{"name":"banana","coordinates":[0.9410373263888889,0.4764397939046224,0.0887202050950792,0.039615197976430254]},{"name":"bottle","coordinates":[0.6187262641059028,0.2741513888041178,0.03203935623168945,0.09054099718729655]}]}
