{"src":"https://a0.muscache.com/im/pictures/35e5273f-23d2-4108-b416-e2d0a63acd12.jpg?aki_policy=xx_large","name":"Apartamento en el centro de Caracas","listingId":9093436,"photoId":"2248-0","tags":[{"name":"oven","coordinates":[0.037234767278035485,0.4445025444030761,0.16817460589938693,0.29356072743733724]},{"name":"microwave","coordinates":[0.0195838451385498,0.23596416314442953,0.1708700074089898,0.19728312492370606]},{"name":"sink","coordinates":[0.45585155487060547,0.541456921895345,0.3338146209716797,0.08428764343261719]},{"name":"microwave","coordinates":[0.8102930386861166,0.49259933233261105,0.1679277843899197,0.10345795154571533]},{"name":"bowl","coordinates":[0.22378273540072974,0.5326465010643004,0.160545719994439,0.04642460346221924]},{"name":"banana","coordinates":[0.8966772238413493,0.4566321949164073,0.0887202050950792,0.039615197976430254]},{"name":"bottle","coordinates":[0.6027065859900581,0.22888089021046953,0.03203935623168945,0.09054099718729655]}]}
