{"src":"https://a0.muscache.com/im/pictures/a3edc791-06c5-410c-8f3d-8058768ac116.jpg?aki_policy=xx_large","name":"南站附近 北京唯一一个地铁跟小区无缝连接的公寓，风吹不着雨淋不到","listingId":14060780,"photoId":"225-3","tags":[{"name":"diningtable","coordinates":[-0.03842510647243927,0.6352484862009684,0.573145506117079,0.272089163462321]},{"name":"chair","coordinates":[0.038560316297743064,0.7448241154352824,0.43068169487847224,0.21278770764668783]},{"name":"diningtable","coordinates":[0.038560316297743064,0.7448241154352824,0.43068169487847224,0.21278770764668783]},{"name":"chair","coordinates":[0.05964853498670791,0.8165122747421265,0.31971973843044704,0.1917321999867757]},{"name":"chair","coordinates":[0.2650157928466797,0.48096251487731934,0.19565361870659723,0.18832165400187176]},{"name":"chair","coordinates":[0.42990732192993164,0.5068382978439331,0.1066671371459961,0.15932793617248536]},{"name":"chair","coordinates":[0.12095220353868272,0.6087487538655598,0.1731589847140842,0.0942254384358724]},{"name":"chair","coordinates":[0.3207118140326606,0.6121328870455424,0.14023513793945314,0.10740028222401937]},{"name":"tvmonitor","coordinates":[0.6394158363342286,0.48115663528442376,0.061667611863878036,0.14845167795817057]},{"name":"pottedplant","coordinates":[0.35439658959706627,0.4701316197713216,0.07026201354132758,0.09632638295491537]},{"name":"pottedplant","coordinates":[0.6219400220447117,0.5288428743680318,0.03500153753492567,0.09113881587982178]}]}
