{"src":"https://a0.muscache.com/im/pictures/38eb04e3-0ac9-467c-9bb2-cb869816f3c2.jpg?aki_policy=xx_large","name":"House in the Heart of Chandigarh","listingId":9157981,"photoId":"2252-7","tags":[{"name":"chair","coordinates":[0.3137617005242242,0.6110733509063722,0.2693140453762478,0.3824892997741699]},{"name":"chair","coordinates":[0.7685404035780166,0.5408191521962483,0.2011548360188802,0.19181547164916993]},{"name":"sofa","coordinates":[0.7902629534403484,0.8582480271657309,0.21083236270480685,0.13703063329060872]},{"name":"chair","coordinates":[0.46483252843221023,0.49794869422912597,0.08990247514512804,0.21142479578653972]},{"name":"chair","coordinates":[0.25623795986175535,0.4960277477900187,0.07659988933139378,0.21269405682881673]},{"name":"tvmonitor","coordinates":[0.33545173539055717,0.36072988112767534,0.09333908292982314,0.09764017264048258]},{"name":"person","coordinates":[0.03845786253611247,0.4037325223286946,0.03501766522725423,0.17731831868489584]},{"name":"clock","coordinates":[0.7753420909245808,0.08172498941421509,0.045125585132175024,0.08003844420115153]}]}
