{"src":"https://a0.muscache.com/im/pictures/bfb6a25c-d586-4b9e-b92b-2645fd86d9af.jpg?aki_policy=xx_large","name":"House in the Heart of Chandigarh","listingId":9157981,"photoId":"2252-13","tags":[{"name":"sofa","coordinates":[0.4202913178337945,0.6437976837158204,0.32302125295003253,0.17988065083821614]},{"name":"chair","coordinates":[0.6170378102196588,0.6986870924631755,0.16334691577487523,0.27539421717325846]},{"name":"diningtable","coordinates":[0.0008006519741482199,0.7655074834823609,0.17890086703830296,0.22228360176086426]},{"name":"chair","coordinates":[0.08546424971686468,0.6751118818918864,0.10893579059176975,0.3152645428975423]},{"name":"chair","coordinates":[0.2943778779771593,0.6585906585057577,0.1407342274983724,0.2055340607961019]},{"name":"tvmonitor","coordinates":[0.5766603575812446,0.3792978922526042,0.1647423850165473,0.14319705963134766]},{"name":"clock","coordinates":[0.21334686279296874,0.2662745197614034,0.04210662841796875,0.06694061756134033]}]}
