{"src":"https://a0.muscache.com/im/pictures/38eb04e3-0ac9-467c-9bb2-cb869816f3c2.jpg?aki_policy=xx_large","name":"House in the Heart of Chandigarh","listingId":9157981,"photoId":"2252-7","tags":[{"name":"chair","coordinates":[0.4484187232123481,0.802318000793457,0.2693140453762478,0.3824892997741699]},{"name":"chair","coordinates":[0.8691178215874567,0.6367268880208333,0.2011548360188802,0.19181547164916993]},{"name":"sofa","coordinates":[0.8956791347927517,0.9267633438110352,0.21083236270480685,0.13703063329060872]},{"name":"chair","coordinates":[0.5097837660047743,0.6036610921223958,0.08990247514512804,0.21142479578653972]},{"name":"chair","coordinates":[0.29453790452745227,0.602374776204427,0.07659988933139378,0.21269405682881673]},{"name":"tvmonitor","coordinates":[0.38212127685546876,0.40954996744791666,0.09333908292982314,0.09764017264048258]},{"name":"person","coordinates":[0.055966695149739586,0.49239168167114256,0.03501766522725423,0.17731831868489584]},{"name":"clock","coordinates":[0.7979048834906683,0.12174421151479085,0.045125585132175024,0.08003844420115153]}]}
