{"src":"https://a0.muscache.com/im/pictures/bfb6a25c-d586-4b9e-b92b-2645fd86d9af.jpg?aki_policy=xx_large","name":"House in the Heart of Chandigarh","listingId":9157981,"photoId":"2252-13","tags":[{"name":"sofa","coordinates":[0.5818019443088107,0.7337380091349284,0.32302125295003253,0.17988065083821614]},{"name":"chair","coordinates":[0.6987112681070964,0.8363842010498047,0.16334691577487523,0.27539421717325846]},{"name":"diningtable","coordinates":[0.0902510854932997,0.876649284362793,0.17890086703830296,0.22228360176086426]},{"name":"chair","coordinates":[0.13993214501274956,0.8327441533406575,0.10893579059176975,0.3152645428975423]},{"name":"chair","coordinates":[0.3647449917263455,0.7613576889038086,0.1407342274983724,0.2055340607961019]},{"name":"tvmonitor","coordinates":[0.6590315500895182,0.450896422068278,0.1647423850165473,0.14319705963134766]},{"name":"clock","coordinates":[0.23440017700195312,0.29974482854207357,0.04210662841796875,0.06694061756134033]}]}
