{"src":"https://a0.muscache.com/im/pictures/b0b35662-fc78-450a-8775-517a88966f43.jpg?aki_policy=xx_large","name":"Quiet Deluxe Aparment on the Park","listingId":9197378,"photoId":"2253-7","tags":[{"name":"chair","coordinates":[0.2126537111070421,0.8990433375040691,0.29597725338406033,0.16685113906860352]},{"name":"tvmonitor","coordinates":[0.8102960374620226,0.7752702077229817,0.14389712015787762,0.19532202084859213]},{"name":"chair","coordinates":[0.5550516764322917,0.6581406911214193,0.10433274375067816,0.2548400719960531]},{"name":"tvmonitor","coordinates":[0.6384372711181641,0.49633111953735354,0.06298641628689236,0.06695291996002198]},{"name":"clock","coordinates":[0.16529826058281794,0.4350388209025065,0.05334178606669108,0.07565110524495443]},{"name":"keyboard","coordinates":[0.619211917453342,0.5446505228678385,0.07523340649074978,0.030774865547815958]}]}
