{"src":"https://a0.muscache.com/im/pictures/4c2cff01-0630-4b3b-91cc-36e057a05ffb.jpg?aki_policy=xx_large","name":"Quiet Deluxe Aparment on the Park","listingId":9197378,"photoId":"2253-2","tags":[{"name":"refrigerator","coordinates":[0.2300758679707845,0.5413104057312011,0.19625631968180338,0.4330879847208659]},{"name":"microwave","coordinates":[0.1469478925069173,0.44496991634368893,0.22501968807644315,0.15638038317362468]},{"name":"microwave","coordinates":[0.2450062645806207,0.46103505690892543,0.14385342068142362,0.11820024649302165]},{"name":"chair","coordinates":[0.801381418440077,0.5870938340822857,0.12755027347140843,0.11876442432403564]},{"name":"clock","coordinates":[0.7510216659969754,0.015401550134023029,0.047648610009087454,0.06603504021962484]}]}
