{"src":"https://a0.muscache.com/im/pictures/b0b35662-fc78-450a-8775-517a88966f43.jpg?aki_policy=xx_large","name":"Quiet Deluxe Aparment on the Park","listingId":9197378,"photoId":"2253-7","tags":[{"name":"chair","coordinates":[0.23923542499542236,0.8990433375040691,0.33297441005706785,0.16685113906860352]},{"name":"tvmonitor","coordinates":[0.9115830421447754,0.7752702077229817,0.16188426017761232,0.19532202084859213]},{"name":"chair","coordinates":[0.6244331359863281,0.6581406911214193,0.11737433671951295,0.2548400719960531]},{"name":"tvmonitor","coordinates":[0.7182419300079346,0.49633111953735354,0.07085971832275391,0.06695291996002198]},{"name":"clock","coordinates":[0.18596054315567018,0.4350388209025065,0.060009509325027466,0.07565110524495443]},{"name":"keyboard","coordinates":[0.6966134071350097,0.5446505228678385,0.0846375823020935,0.030774865547815958]}]}
