{"src":"https://a0.muscache.com/im/pictures/4c2cff01-0630-4b3b-91cc-36e057a05ffb.jpg?aki_policy=xx_large","name":"Quiet Deluxe Aparment on the Park","listingId":9197378,"photoId":"2253-2","tags":[{"name":"refrigerator","coordinates":[0.32820402781168617,0.7578543980916341,0.19625631968180338,0.4330879847208659]},{"name":"microwave","coordinates":[0.2594577365451389,0.5231601079305013,0.22501968807644315,0.15638038317362468]},{"name":"microwave","coordinates":[0.3169329749213325,0.5201351801554362,0.14385342068142362,0.11820024649302165]},{"name":"chair","coordinates":[0.8651565551757813,0.6464760462443034,0.12755027347140843,0.11876442432403564]},{"name":"clock","coordinates":[0.7748459710015191,0.048419070243835446,0.047648610009087454,0.06603504021962484]}]}
