{"src":"https://a0.muscache.com/im/pictures/0c231489-5363-4d03-925a-9dd6643d5a4e.jpg?aki_policy=xx_large","name":"The Dog House","listingId":9238047,"photoId":"2254-11","tags":[{"name":"refrigerator","coordinates":[0.33531124591827394,0.08161862691243488,0.20250096321105956,0.6902566274007161]},{"name":"diningtable","coordinates":[0.713285219669342,0.34213083585103354,0.30346152782440183,0.24871950149536132]},{"name":"dog","coordinates":[0.6543821692466736,0.7165647665659587,0.2117830514907837,0.2986540158589681]},{"name":"microwave","coordinates":[0.13717533349990846,0.2918477376302083,0.2159860372543335,0.23601430257161457]},{"name":"dog","coordinates":[0.36967263817787166,0.6071420987447103,0.11372088193893433,0.3775692621866862]},{"name":"chair","coordinates":[0.7530286431312562,0.3576621135075887,0.12836673259735107,0.2030428409576416]},{"name":"chair","coordinates":[0.8785533905029297,0.3628164132436117,0.10295143127441406,0.2217045783996582]},{"name":"chair","coordinates":[0.6858773708343506,0.3341563940048218,0.06328144073486328,0.20124122301737468]}]}
