{"src":"https://a0.muscache.com/im/pictures/0c231489-5363-4d03-925a-9dd6643d5a4e.jpg?aki_policy=xx_large","name":"The Dog House","listingId":9238047,"photoId":"2254-11","tags":[{"name":"refrigerator","coordinates":[0.43656172752380373,0.42674694061279295,0.20250096321105956,0.6902566274007161]},{"name":"diningtable","coordinates":[0.865015983581543,0.4664905865987142,0.30346152782440183,0.24871950149536132]},{"name":"dog","coordinates":[0.7602736949920654,0.8658917744954427,0.2117830514907837,0.2986540158589681]},{"name":"microwave","coordinates":[0.2451683521270752,0.4098548889160156,0.2159860372543335,0.23601430257161457]},{"name":"dog","coordinates":[0.42653307914733884,0.7959267298380533,0.11372088193893433,0.3775692621866862]},{"name":"chair","coordinates":[0.8172120094299317,0.4591835339864095,0.12836673259735107,0.2030428409576416]},{"name":"chair","coordinates":[0.9300291061401367,0.4736687024434408,0.10295143127441406,0.2217045783996582]},{"name":"chair","coordinates":[0.7175180912017822,0.4347770055135091,0.06328144073486328,0.20124122301737468]}]}
