{"src":"https://a0.muscache.com/im/pictures/b2168b2b-bfaa-4382-84bf-f6e5c2eef350.jpg?aki_policy=xx_large","name":"The Dog House","listingId":9238047,"photoId":"2254-7","tags":[{"name":"sofa","coordinates":[0.5273920059204101,0.42057956059773766,0.4600255012512207,0.5309130986531575]},{"name":"clock","coordinates":[0.013802856206893928,0.14492770830790203,0.12119491100311279,0.18079589207967123]},{"name":"tvmonitor","coordinates":[0.3003673791885376,0.330665381749471,0.1318695068359375,0.16435619990030925]},{"name":"dog","coordinates":[0.44636166691780094,0.5023873805999757,0.06853393316268921,0.26197519302368166]},{"name":"book","coordinates":[0.6934725522994996,0.8514124910036723,0.1031994342803955,0.10270073413848876]},{"name":"book","coordinates":[0.6788439393043517,0.7510597507158915,0.1215214490890503,0.073881729443868]},{"name":"cup","coordinates":[0.7932688713073731,0.6978404959042867,0.060048484802246095,0.08725434144337972]},{"name":"bottle","coordinates":[0.4475550398230552,0.18211039702097573,0.01590133011341095,0.0560671329498291]},{"name":"bottle","coordinates":[0.4648192338645458,0.18698556025822957,0.01376134306192398,0.05208001931508382]},{"name":"bottle","coordinates":[0.4824354156851769,0.19140329559644062,0.01408853828907013,0.04736372232437134]}]}
