{"src":"https://a0.muscache.com/im/pictures/c212cf34-67ca-4c52-982d-67a6cd07351c.jpg?aki_policy=xx_large","name":"The Dog House","listingId":9238047,"photoId":"2254-9","tags":[{"name":"diningtable","coordinates":[0.647414255142212,0.5154573440551757,0.4732982158660889,0.39490509033203125]},{"name":"dog","coordinates":[0.39695420265197756,0.8346254348754882,0.24499425888061524,0.26064515113830566]},{"name":"chair","coordinates":[0.7026598453521729,0.5152141571044921,0.16510845422744752,0.3612093289693197]},{"name":"chair","coordinates":[0.4950428485870361,0.5226193110148112,0.1662406802177429,0.3450796445210775]},{"name":"chair","coordinates":[0.8141721725463867,0.4711133003234863,0.12382569313049316,0.30608723958333334]},{"name":"dog","coordinates":[0.7852685451507568,0.9205467859903972,0.24056582450866698,0.15644049644470215]},{"name":"chair","coordinates":[0.5470850467681885,0.31551777521769203,0.07446584701538086,0.08723469575246175]},{"name":"pottedplant","coordinates":[0.586568546295166,0.21273140907287597,0.04715876281261444,0.06360609134038289]},{"name":"chair","coordinates":[0.628469181060791,0.3155213991800944,0.04365186095237732,0.06087831656138102]}]}
