{"src":"https://a0.muscache.com/im/pictures/f51738a8-4f16-467e-a04c-77150c21d474.jpg?aki_policy=xx_large","name":"The Dog House","listingId":9238047,"photoId":"2254-9","tags":[{"name":"oven","coordinates":[0.253363561630249,0.2925172170003255,0.2149517059326172,0.3882472356160482]},{"name":"dog","coordinates":[0.3945519208908081,0.7568379640579224,0.15612683296203614,0.2382229010264079]},{"name":"dog","coordinates":[0.6552753984928131,0.466575543085734,0.08430136442184448,0.2791950543721517]},{"name":"bowl","coordinates":[0.05299274921417236,0.8716216504573822,0.05866067409515381,0.05993586778640747]},{"name":"bowl","coordinates":[0.10789054930210112,0.8793650170167288,0.056595176458358765,0.05580180088678996]},{"name":"sink","coordinates":[0.5207509756088257,0.34578740696112314,0.12445950508117676,0.021781204144159953]},{"name":"bottle","coordinates":[0.5564180113375187,0.2817508498827616,0.012644438445568085,0.06852757930755615]}]}
