{"src":"https://a0.muscache.com/im/pictures/f51738a8-4f16-467e-a04c-77150c21d474.jpg?aki_policy=xx_large","name":"The Dog House","listingId":9238047,"photoId":"2254-9","tags":[{"name":"oven","coordinates":[0.3608394145965576,0.48664083480834963,0.2149517059326172,0.3882472356160482]},{"name":"dog","coordinates":[0.47261533737182615,0.8759494145711263,0.15612683296203614,0.2382229010264079]},{"name":"dog","coordinates":[0.6974260807037354,0.6061730702718099,0.08430136442184448,0.2791950543721517]},{"name":"bowl","coordinates":[0.08232308626174926,0.9015895843505859,0.05866067409515381,0.05993586778640747]},{"name":"bowl","coordinates":[0.1361881375312805,0.9072659174601237,0.056595176458358765,0.05580180088678996]},{"name":"sink","coordinates":[0.582980728149414,0.3566780090332031,0.12445950508117676,0.021781204144159953]},{"name":"bottle","coordinates":[0.5627402305603028,0.3160146395365397,0.012644438445568085,0.06852757930755615]}]}
