{"src":"https://a0.muscache.com/im/pictures/b2168b2b-bfaa-4382-84bf-f6e5c2eef350.jpg?aki_policy=xx_large","name":"The Dog House","listingId":9238047,"photoId":"2254-7","tags":[{"name":"sofa","coordinates":[0.7574047565460205,0.6860361099243164,0.4600255012512207,0.5309130986531575]},{"name":"clock","coordinates":[0.07440031170845032,0.23532565434773764,0.12119491100311279,0.18079589207967123]},{"name":"tvmonitor","coordinates":[0.36630213260650635,0.41284348169962565,0.1318695068359375,0.16435619990030925]},{"name":"dog","coordinates":[0.48062863349914553,0.6333749771118165,0.06853393316268921,0.26197519302368166]},{"name":"book","coordinates":[0.7450722694396973,0.9027628580729167,0.1031994342803955,0.10270073413848876]},{"name":"book","coordinates":[0.7396046638488769,0.7880006154378255,0.1215214490890503,0.073881729443868]},{"name":"cup","coordinates":[0.8232931137084961,0.7414676666259765,0.060048484802246095,0.08725434144337972]},{"name":"bottle","coordinates":[0.4555057048797607,0.2101439634958903,0.01590133011341095,0.0560671329498291]},{"name":"bottle","coordinates":[0.4716999053955078,0.21302556991577148,0.01376134306192398,0.05208001931508382]},{"name":"bottle","coordinates":[0.48947968482971194,0.2150851567586263,0.01408853828907013,0.04736372232437134]}]}
