{"src":"https://a0.muscache.com/im/pictures/0e7ecdbb-e183-418b-907f-d4f2ad8fa4c3.jpg?aki_policy=xx_large","name":"Central Studio Near Metro Station","listingId":9272518,"photoId":"2256-5","tags":[{"name":"sofa","coordinates":[0.7562138557434082,0.6856847127278646,0.46219234466552733,0.4280474344889323]},{"name":"chair","coordinates":[0.2131495714187622,0.7173085530598958,0.21756374835968018,0.3660191218058268]},{"name":"tvmonitor","coordinates":[0.05055813789367676,0.5650771458943685,0.10069360733032226,0.358393923441569]},{"name":"microwave","coordinates":[0.1960867762565613,0.11229801177978516,0.1571113109588623,0.1286673863728841]},{"name":"sink","coordinates":[0.10633199214935303,0.3803524971008301,0.08403539657592773,0.03448164463043213]}]}
