{"src":"https://a0.muscache.com/im/pictures/0e7ecdbb-e183-418b-907f-d4f2ad8fa4c3.jpg?aki_policy=xx_large","name":"Central Studio Near Metro Station","listingId":9272518,"photoId":"2256-5","tags":[{"name":"sofa","coordinates":[0.5251176834106445,0.47166099548339846,0.46219234466552733,0.4280474344889323]},{"name":"chair","coordinates":[0.10436769723892211,0.5342989921569824,0.21756374835968018,0.3660191218058268]},{"name":"tvmonitor","coordinates":[0.00021133422851563055,0.38588018417358405,0.10069360733032226,0.358393923441569]},{"name":"microwave","coordinates":[0.11753112077713014,0.0479643185933431,0.1571113109588623,0.1286673863728841]},{"name":"sink","coordinates":[0.06431429386138916,0.363111674785614,0.08403539657592773,0.03448164463043213]}]}
