{"src":"https://a0.muscache.com/im/pictures/f66d55f8-0b62-45f6-8142-e08908139d65.jpg?aki_policy=xx_large","name":"Central Studio Near Metro Station","listingId":9272518,"photoId":"2256-14","tags":[{"name":"bed","coordinates":[0.004955482482910167,0.46315822601318357,0.47447834014892576,0.5105332692464193]},{"name":"diningtable","coordinates":[0.5138379096984863,0.7660791556040446,0.3842270851135254,0.2284764289855957]},{"name":"sofa","coordinates":[0.4166267871856689,0.4158332904179891,0.3435368537902832,0.25262195269266763]},{"name":"chair","coordinates":[0.4166267871856689,0.4158332904179891,0.3435368537902832,0.25262195269266763]},{"name":"tvmonitor","coordinates":[0.831626296043396,0.39403956731160483,0.17067723274230956,0.3421285629272461]},{"name":"chair","coordinates":[0.3482866406440735,0.7620848099390666,0.2558711767196655,0.22627224922180175]},{"name":"chair","coordinates":[0.8376067698001862,0.6873222827911376,0.1583393931388855,0.2986403465270996]}]}
