{"src":"https://a0.muscache.com/im/pictures/68f6e85a-9b47-4d56-8220-d3098ce2f7b5.jpg?aki_policy=xx_large","name":"20min SHINJYUKU/loft flat/ Easy access to the city","listingId":9282724,"photoId":"2257-3","tags":[{"name":"diningtable","coordinates":[0.783089542388916,0.8168895721435547,0.34244327545166015,0.3272815386454264]},{"name":"pottedplant","coordinates":[0.2379103422164917,0.5188501358032227,0.20878105163574218,0.29868135452270506]},{"name":"sofa","coordinates":[0.4719250679016113,0.833552360534668,0.10886846780776978,0.3316253662109375]},{"name":"cup","coordinates":[0.7440472602844238,0.773802121480306,0.05351214408874512,0.09203991095225016]},{"name":"clock","coordinates":[0.3760520458221436,0.1174401839574178,0.059796273708343506,0.08170228799184164]},{"name":"cup","coordinates":[0.808998966217041,0.7146024703979492,0.047704219818115234,0.0700771967569987]},{"name":"cup","coordinates":[0.6841496467590332,0.7019915262858073,0.03751790821552277,0.0689630111058553]},{"name":"cup","coordinates":[0.7404246807098389,0.6501684824625651,0.03489790856838226,0.05267412662506103]}]}
