{"src":"https://a0.muscache.com/im/pictures/68f6e85a-9b47-4d56-8220-d3098ce2f7b5.jpg?aki_policy=xx_large","name":"20min SHINJYUKU/loft flat/ Easy access to the city","listingId":9282724,"photoId":"2257-3","tags":[{"name":"diningtable","coordinates":[0.6118679046630859,0.6532488028208415,0.34244327545166015,0.3272815386454264]},{"name":"pottedplant","coordinates":[0.13351981639862062,0.3695094585418702,0.20878105163574218,0.29868135452270506]},{"name":"sofa","coordinates":[0.4174908339977264,0.6677396774291993,0.10886846780776978,0.3316253662109375]},{"name":"cup","coordinates":[0.7172911882400512,0.727782166004181,0.05351214408874512,0.09203991095225016]},{"name":"clock","coordinates":[0.3461539089679718,0.07658903996149699,0.059796273708343506,0.08170228799184164]},{"name":"cup","coordinates":[0.7851468563079834,0.6795638720194499,0.047704219818115234,0.0700771967569987]},{"name":"cup","coordinates":[0.6653906926512718,0.6675100207328797,0.03751790821552277,0.0689630111058553]},{"name":"cup","coordinates":[0.7229757264256478,0.6238314191500346,0.03489790856838226,0.05267412662506103]}]}
