{"src":"https://a0.muscache.com/im/pictures/1e9615ec-36e3-445a-8bf5-1d2b15cbffa4.jpg?aki_policy=xx_large","name":"*墨墨家* 海边房 158平大三房5床住9人民宿  靠近万绿园   假日海滩  新港码头","listingId":9334214,"photoId":"2259-12","tags":[{"name":"diningtable","coordinates":[1.0110018412272135,0.7569703420003255,0.5916400061713325,0.27218745549519857]},{"name":"chair","coordinates":[1.1856995476616754,0.8131243387858073,0.2536426756117079,0.34715092976888023]},{"name":"chair","coordinates":[0.8616092258029514,0.869305165608724,0.3637079026963976,0.2132053057352702]},{"name":"chair","coordinates":[1.3567042032877603,0.799337641398112,0.23298089769151475,0.3225664774576823]},{"name":"pottedplant","coordinates":[1.4078782823350695,0.4765881856282552,0.21910173628065321,0.138813320795695]},{"name":"refrigerator","coordinates":[0.8251453823513455,0.5132699012756348,0.15893387264675565,0.18957459131876628]},{"name":"chair","coordinates":[1.1265904744466146,0.57969175974528,0.15237525304158528,0.09984908898671468]},{"name":"chair","coordinates":[0.7453355577256945,0.6831331253051758,0.13534600999620225,0.09945441087086995]},{"name":"chair","coordinates":[0.852643076578776,0.6384225209554036,0.07237546179029676,0.06676097710927327]}]}
