{"src":"https://a0.muscache.com/im/pictures/0cd63315-cb4a-4bbc-ba0a-66e77cbac4f2.jpg?aki_policy=xx_large","name":"*墨墨家* 海边房 158平大三房5床住9人民宿  靠近万绿园   假日海滩  新港码头","listingId":9334214,"photoId":"2259-4","tags":[{"name":"pottedplant","coordinates":[0.35256402757432725,0.054398536682128906,0.4339308844672309,0.6706709543863932]},{"name":"sofa","coordinates":[0.011872153811984587,0.4170037587483724,0.3218363232082791,0.5519538879394531]},{"name":"teddy-bear","coordinates":[0.44746557871500653,0.5007233301798503,0.14744216071234809,0.3832887013753255]},{"name":"book","coordinates":[0.23265520731608075,0.7077170054117838,0.21115264892578126,0.10674222310384114]},{"name":"book","coordinates":[0.22450771331787112,0.7835855484008789,0.2208215077718099,0.08581759134928385]},{"name":"book","coordinates":[0.89137970606486,0.3767829974492391,0.04443293677435981,0.154909880956014]},{"name":"book","coordinates":[0.97924155526691,0.35526971817016606,0.01895626121097141,0.1897976557413737]},{"name":"book","coordinates":[0.9628844168451097,0.3570756753285726,0.01742252508799235,0.1840447425842285]}]}
