{"src":"https://a0.muscache.com/im/pictures/0cd63315-cb4a-4bbc-ba0a-66e77cbac4f2.jpg?aki_policy=xx_large","name":"*墨墨家* 海边房 158平大三房5床住9人民宿  靠近万绿园   假日海滩  新港码头","listingId":9334214,"photoId":"2259-4","tags":[{"name":"pottedplant","coordinates":[0.5695294698079427,0.3897340138753255,0.4339308844672309,0.6706709543863932]},{"name":"sofa","coordinates":[0.17279031541612414,0.692980702718099,0.3218363232082791,0.5519538879394531]},{"name":"teddy-bear","coordinates":[0.5211866590711806,0.692367680867513,0.14744216071234809,0.3832887013753255]},{"name":"book","coordinates":[0.33823153177897136,0.7610881169637044,0.21115264892578126,0.10674222310384114]},{"name":"book","coordinates":[0.33491846720377605,0.8264943440755208,0.2208215077718099,0.08581759134928385]},{"name":"book","coordinates":[0.9135961744520399,0.4542379379272461,0.04443293677435981,0.154909880956014]},{"name":"book","coordinates":[0.9887196858723958,0.4501685460408529,0.01895626121097141,0.1897976557413737]},{"name":"book","coordinates":[0.9715956793891058,0.44909804662068686,0.01742252508799235,0.1840447425842285]}]}
