{"src":"https://a0.muscache.com/im/pictures/f79ad993-8db4-4295-ac3c-271509ed6043.jpg?aki_policy=xx_large","name":"欢迎阳光,开朗,沟通好的朋友常住,(因家中有狗故18岁以下,65岁以上老人不接待)不能接待外国人","listingId":14063682,"photoId":"226-15","tags":[{"name":"person","coordinates":[0.05173771381378173,0.20933157602945962,0.40858993530273435,0.6307190577189128]},{"name":"chair","coordinates":[0.010035347938537581,0.4204189936319987,0.4010321140289307,0.5888229370117187]},{"name":"person","coordinates":[0.6848028659820558,0.13802849451700844,0.21654834747314453,0.7351354598999024]},{"name":"diningtable","coordinates":[0.31026861667633054,0.3953023433685303,0.5030550479888916,0.2841556231180827]},{"name":"laptop","coordinates":[0.5799785673618316,0.39571998119354246,0.19100092649459838,0.17979505856831868]},{"name":"chair","coordinates":[0.5307890415191651,0.3004727999369303,0.11818199157714844,0.14209798177083333]},{"name":"bottle","coordinates":[0.6021007508039475,0.8616559823354085,0.07041006684303283,0.1426325798034668]},{"name":"cup","coordinates":[0.32675897181034086,0.4099345922470093,0.04552938342094422,0.07444462776184083]},{"name":"cup","coordinates":[0.4726233869791031,0.3719094038009644,0.04765025973320007,0.065951140721639]},{"name":"bottle","coordinates":[0.8651155099272727,0.09978425900141397,0.021076849102973937,0.06240092118581136]},{"name":"bottle","coordinates":[0.9391010276973247,0.1192474643389384,0.022982217371463776,0.056650551160176595]},{"name":"bottle","coordinates":[0.813539558649063,0.06745853225390117,0.01813629865646362,0.06235666672388713]},{"name":"bottle","coordinates":[0.8999393559992314,0.1007448712984721,0.017352275550365448,0.06429782708485922]}]}
