{"src":"https://a0.muscache.com/im/pictures/f79ad993-8db4-4295-ac3c-271509ed6043.jpg?aki_policy=xx_large","name":"欢迎阳光,开朗,沟通好的朋友常住,(因家中有狗故18岁以下,65岁以上老人不接待)不能接待外国人","listingId":14063682,"photoId":"226-13","tags":[{"name":"person","coordinates":[0.2560326814651489,0.524691104888916,0.40858993530273435,0.6307190577189128]},{"name":"chair","coordinates":[0.21055140495300292,0.7148304621378581,0.4010321140289307,0.5888229370117187]},{"name":"person","coordinates":[0.793077039718628,0.5055962244669596,0.21654834747314453,0.7351354598999024]},{"name":"diningtable","coordinates":[0.5617961406707763,0.5373801549275716,0.5030550479888916,0.2841556231180827]},{"name":"laptop","coordinates":[0.6754790306091308,0.4856175104777018,0.19100092649459838,0.17979505856831868]},{"name":"chair","coordinates":[0.5898800373077393,0.371521790822347,0.11818199157714844,0.14209798177083333]},{"name":"bottle","coordinates":[0.6373057842254639,0.932972272237142,0.07041006684303283,0.1426325798034668]},{"name":"cup","coordinates":[0.349523663520813,0.4471569061279297,0.04552938342094422,0.07444462776184083]},{"name":"cup","coordinates":[0.4964485168457031,0.4048849741617839,0.04765025973320007,0.065951140721639]},{"name":"bottle","coordinates":[0.8756539344787597,0.13098471959431965,0.021076849102973937,0.06240092118581136]},{"name":"bottle","coordinates":[0.9505921363830566,0.1475727399190267,0.022982217371463776,0.056650551160176595]},{"name":"bottle","coordinates":[0.8226077079772949,0.09863686561584473,0.01813629865646362,0.06235666672388713]},{"name":"bottle","coordinates":[0.9086154937744141,0.1328937848409017,0.017352275550365448,0.06429782708485922]}]}
