{"src":"https://a0.muscache.com/im/pictures/14547636/02940812_original.jpg?aki_policy=xx_large","name":"Rainbow House- GLBT Princess Suite","listingId":945415,"photoId":"2262-6","tags":[{"name":"oven","coordinates":[0.30696713129679365,0.49678936004638674,0.24482504526774088,0.49012845357259116]},{"name":"toilet","coordinates":[0.019156964619954434,0.6916360855102539,0.1996530532836914,0.2962720235188802]},{"name":"microwave","coordinates":[0.3681972715589735,0.20654806296030678,0.1595222896999783,0.20315264066060384]},{"name":"sink","coordinates":[0.49643628862169054,0.5653894305229187,0.21894823710123698,0.08562891483306885]},{"name":"bottle","coordinates":[0.6854497247272068,0.5061541597048441,0.027178366978963215,0.09552783171335856]}]}
