{"src":"https://a0.muscache.com/im/pictures/d594caa7-9e65-451a-8c0f-69765498c026.jpg?aki_policy=xx_large","name":"2BR cozy flat with privacy","listingId":9582110,"photoId":"2269-1","tags":[{"name":"chair","coordinates":[0.8616124471028646,0.8367590586344401,0.15713271035088433,0.3343599955240885]},{"name":"chair","coordinates":[0.7031392415364583,0.8302576700846355,0.1411638895670573,0.34380407333374025]},{"name":"sofa","coordinates":[0.532574717203776,0.6619714736938477,0.15756259494357638,0.11790681680043538]},{"name":"chair","coordinates":[0.6412829928927951,0.6865168253580729,0.09546051025390626,0.11262815793355306]},{"name":"chair","coordinates":[0.8365078396267361,0.6667092641194662,0.13749415079752605,0.07547229925791422]},{"name":"tvmonitor","coordinates":[0.2735314899020725,0.6323692321777343,0.0544157346089681,0.1354993502298991]},{"name":"chair","coordinates":[0.7277471754286025,0.664186668395996,0.08679465187920464,0.07929462591807047]},{"name":"pottedplant","coordinates":[0.4064962175157335,0.6217101414998373,0.048346392313639325,0.09594211578369141]}]}
