{"src":"https://a0.muscache.com/im/pictures/831388d1-e103-4ff1-a042-de0bdede3e30.jpg?aki_policy=xx_large","name":"2BR cozy flat with privacy","listingId":9582110,"photoId":"2269-3","tags":[{"name":"sofa","coordinates":[0.18738140530056424,0.8362669626871745,0.37014588250054253,0.32021830876668295]},{"name":"tvmonitor","coordinates":[0.9590327792697483,0.8222405115763346,0.081102540757921,0.3354804992675781]},{"name":"refrigerator","coordinates":[0.7567192077636719,0.543220329284668,0.09940178129408095,0.26747538248697916]},{"name":"chair","coordinates":[0.4097110748291016,0.6618271509806315,0.08037244478861491,0.20601669947306314]},{"name":"chair","coordinates":[0.33241259256998695,0.6574115753173828,0.0678471565246582,0.1830856164296468]},{"name":"chair","coordinates":[0.3903065151638455,0.5677449544270833,0.03586039808061388,0.031770753860473636]}]}
