{"src":"https://a0.muscache.com/im/pictures/d594caa7-9e65-451a-8c0f-69765498c026.jpg?aki_policy=xx_large","name":"2BR cozy flat with privacy","listingId":9582110,"photoId":"2269-1","tags":[{"name":"chair","coordinates":[0.7830460919274224,0.6695790608723958,0.15713271035088433,0.3343599955240885]},{"name":"chair","coordinates":[0.6325572967529297,0.6583556334177654,0.1411638895670573,0.34380407333374025]},{"name":"sofa","coordinates":[0.45379341973198783,0.60301806529363,0.15756259494357638,0.11790681680043538]},{"name":"chair","coordinates":[0.5935527377658419,0.6302027463912964,0.09546051025390626,0.11262815793355306]},{"name":"chair","coordinates":[0.7677607642279731,0.6289731144905091,0.13749415079752605,0.07547229925791422]},{"name":"tvmonitor","coordinates":[0.24632362259758844,0.5646195570627848,0.0544157346089681,0.1354993502298991]},{"name":"chair","coordinates":[0.6843498494890001,0.6245393554369608,0.08679465187920464,0.07929462591807047]},{"name":"pottedplant","coordinates":[0.38232302135891383,0.5737390836079915,0.048346392313639325,0.09594211578369141]}]}
