{"src":"https://a0.muscache.com/im/pictures/831388d1-e103-4ff1-a042-de0bdede3e30.jpg?aki_policy=xx_large","name":"2BR cozy flat with privacy","listingId":9582110,"photoId":"2269-3","tags":[{"name":"sofa","coordinates":[0.0023084640502929743,0.676157808303833,0.37014588250054253,0.32021830876668295]},{"name":"tvmonitor","coordinates":[0.9184815088907878,0.6545002619425455,0.081102540757921,0.3354804992675781]},{"name":"refrigerator","coordinates":[0.7070183171166313,0.40948263804117846,0.09940178129408095,0.26747538248697916]},{"name":"chair","coordinates":[0.3695248524347941,0.5588188012440999,0.08037244478861491,0.20601669947306314]},{"name":"chair","coordinates":[0.29848901430765784,0.5658687671025594,0.0678471565246582,0.1830856164296468]},{"name":"chair","coordinates":[0.37237631612353855,0.5518595774968464,0.03586039808061388,0.031770753860473636]}]}
