{"src":"https://a0.muscache.com/im/pictures/1ae9f2e9-0867-464f-b968-7c2668057ae8.jpg?aki_policy=xx_large","name":"Modern apartment studio in the city-center","listingId":14080062,"photoId":"227-13","tags":[{"name":"sofa","coordinates":[0.0017799483405219196,0.4867959499359131,0.23477906121148004,0.4915972073872884]},{"name":"diningtable","coordinates":[0.5873953342437743,0.45877366065979,0.1621194945441352,0.25329529444376625]},{"name":"chair","coordinates":[0.5301833815044827,0.4486278533935547,0.08482654889424641,0.26984405517578125]},{"name":"chair","coordinates":[0.683693446053399,0.4219883998235067,0.0732882923550076,0.24386576016743977]},{"name":"clock","coordinates":[0.6135401434368557,0.20854148864746092,0.037862136628892686,0.06002508799235026]}]}
