{"src":"https://a0.muscache.com/im/pictures/d88e24ff-a88a-4956-88bc-f93e6465ce96.jpg?aki_policy=xx_large","name":"Новый Хостел \"Воздух\" г. Красноярск","listingId":9598234,"photoId":"2270-2","tags":[{"name":"pottedplant","coordinates":[0.8522280429271941,0.5869989395141602,0.20739873636819672,0.41953996022542317]},{"name":"chair","coordinates":[0.5326559420414608,0.8013682047526042,0.2214631425573471,0.387969175974528]},{"name":"chair","coordinates":[0.3452370826234209,0.8108040491739908,0.18423480465781725,0.3837808926900228]},{"name":"chair","coordinates":[0.15687788293716756,0.8443436940511068,0.2199897650165036,0.31527983347574867]},{"name":"refrigerator","coordinates":[0.6405031152046923,0.5802402496337891,0.12539185868932845,0.3272711435953776]},{"name":"microwave","coordinates":[0.5607745973534859,0.5218928337097168,0.0958678816589541,0.08531981309254964]},{"name":"pottedplant","coordinates":[0.6409769261136968,0.3784878412882487,0.02725340892478688,0.04166731039683024]},{"name":"vase","coordinates":[0.6413666977346124,0.39204638799031577,0.018965942881389954,0.031672507524490356]}]}
