{"src":"https://z0.muscache.cn/im/pictures/e0b621f7-6bc8-4cc0-9d11-ef9d682c9575.jpg?aki_policy=xx_large","name":"Просторная квартира на 5 человек","listingId":9817631,"photoId":"2279-6","tags":[{"name":"boat","coordinates":[1.1951268513997395,0.7498843510945638,1.3665936787923176,0.4860914866129557]},{"name":"person","coordinates":[1.2168597751193577,0.5115001042683919,0.22582719590928818,0.3658902168273926]},{"name":"dog","coordinates":[1.2168597751193577,0.5115001042683919,0.22582719590928818,0.3658902168273926]},{"name":"person","coordinates":[0.8142379760742188,0.5110066413879395,0.28123270670572914,0.28699264526367185]},{"name":"person","coordinates":[1.0460979885525175,0.5176486968994141,0.2185007095336914,0.32675396601359047]},{"name":"chair","coordinates":[0.10118801328870985,0.4653791427612305,0.17632162306043836,0.17668418884277343]},{"name":"chair","coordinates":[0.503138181898329,0.45053930282592775,0.15950457255045572,0.15857144991556804]},{"name":"sports-ball","coordinates":[1.0454827202690973,0.5392710367838541,0.15884019003974068,0.11353076299031575]}]}
