{"src":"https://z0.muscache.cn/im/pictures/e0b621f7-6bc8-4cc0-9d11-ef9d682c9575.jpg?aki_policy=xx_large","name":"Просторная квартира на 5 человек","listingId":9817631,"photoId":"2279-6","tags":[{"name":"boat","coordinates":[0.5975634256998698,0.7498843510945638,0.6832968393961588,0.4860914866129557]},{"name":"person","coordinates":[0.6084298875596789,0.5115001042683919,0.11291359795464409,0.3658902168273926]},{"name":"dog","coordinates":[0.6084298875596789,0.5115001042683919,0.11291359795464409,0.3658902168273926]},{"name":"person","coordinates":[0.4071189880371094,0.5110066413879395,0.14061635335286457,0.28699264526367185]},{"name":"person","coordinates":[0.5230489942762587,0.5176486968994141,0.1092503547668457,0.32675396601359047]},{"name":"chair","coordinates":[0.05059400664435493,0.4653791427612305,0.08816081153021918,0.17668418884277343]},{"name":"chair","coordinates":[0.2515690909491645,0.45053930282592775,0.07975228627522786,0.15857144991556804]},{"name":"sports-ball","coordinates":[0.5227413601345486,0.5392710367838541,0.07942009501987034,0.11353076299031575]}]}
