{"src":"https://a0.muscache.com/im/pictures/aeb1b9c7-e55f-48f0-a609-92812a4bcc6b.jpg?aki_policy=xx_large","name":"Уютная квартира возле ЖД вокзала.","listingId":9964988,"photoId":"2287-5","tags":[{"name":"chair","coordinates":[0.20777937571207683,0.8157936731974283,0.4467299143473307,0.3535666783650716]},{"name":"sofa","coordinates":[0.20777937571207683,0.8157936731974283,0.4467299143473307,0.3535666783650716]},{"name":"diningtable","coordinates":[0.6721379174126519,0.7525411605834961,0.30643352932400175,0.3995179812113444]},{"name":"chair","coordinates":[0.7048469967312283,0.8165484110514323,0.1427771250406901,0.3520868937174479]},{"name":"chair","coordinates":[0.5644659254286024,0.7467789967854818,0.10246344672309028,0.3535329818725586]},{"name":"tvmonitor","coordinates":[0.9095475938585069,0.3566365877787272,0.13654707802666557,0.15315505663553874]},{"name":"oven","coordinates":[0.4295884450276693,0.6286935806274414,0.11503938039143881,0.1618419647216797]},{"name":"microwave","coordinates":[0.4274874793158637,0.447824223836263,0.0796129650539822,0.07866796652475992]},{"name":"cup","coordinates":[0.816125233968099,0.37533365885416664,0.02169618739022149,0.03042255441347758]},{"name":"cup","coordinates":[0.8010130140516493,0.37308165232340496,0.018948421213361953,0.030729337533315023]}]}
