{"src":"https://a0.muscache.com/im/pictures/0f2a21ca-355a-47ef-9cf7-9d2fa33f8549.jpg?aki_policy=xx_large","name":"Уютная квартира возле ЖД вокзала.","listingId":9964988,"photoId":"2287-5","tags":[{"name":"sofa","coordinates":[0.15797066158718534,0.8029946009318034,0.31603067186143663,0.38686726888020834]},{"name":"chair","coordinates":[0.5908167521158855,0.8144395828247071,0.14641696082221137,0.3684926668802897]},{"name":"diningtable","coordinates":[0.599043952094184,0.6004421869913737,0.4277613745795356,0.07314380804697672]},{"name":"oven","coordinates":[0.4031089358859592,0.6277600606282552,0.11660873625013564,0.1864047368367513]},{"name":"bottle","coordinates":[0.6050064510769314,0.5346763610839844,0.015678936905331082,0.053397146860758464]}]}
