{"src":"https://a0.muscache.com/im/pictures/d6fc64d8-d914-4146-b05a-7c3e2e3db9c8.jpg?aki_policy=xx_large","name":"Уютная квартира возле ЖД вокзала.","listingId":9964988,"photoId":"2287-1","tags":[{"name":"sofa","coordinates":[0.19226663377549913,0.8176727930704752,0.39503343370225696,0.3390881856282552]},{"name":"chair","coordinates":[0.19226663377549913,0.8176727930704752,0.39503343370225696,0.3390881856282552]},{"name":"chair","coordinates":[0.7769046359592013,0.8159321467081706,0.16607560051812065,0.37646986643473307]},{"name":"tvmonitor","coordinates":[0.9032979329427083,0.31945921579996744,0.13021053738064237,0.15899783770243328]},{"name":"oven","coordinates":[0.43683399624294705,0.624605369567871,0.08834802839491103,0.15718162854512532]},{"name":"microwave","coordinates":[0.430959235297309,0.3940806706746419,0.09908621046278211,0.06305795907974243]},{"name":"sink","coordinates":[0.35798280504014757,0.5421161651611328,0.07435356246100532,0.015531996885935465]}]}
