{"src":"https://a0.muscache.com/im/pictures/d6fc64d8-d914-4146-b05a-7c3e2e3db9c8.jpg?aki_policy=xx_large","name":"Уютная квартира возле ЖД вокзала.","listingId":9964988,"photoId":"2287-1","tags":[{"name":"sofa","coordinates":[-0.005250083075629353,0.6481287002563476,0.39503343370225696,0.3390881856282552]},{"name":"chair","coordinates":[-0.005250083075629353,0.6481287002563476,0.39503343370225696,0.3390881856282552]},{"name":"chair","coordinates":[0.693866835700141,0.6276972134908041,0.16607560051812065,0.37646986643473307]},{"name":"tvmonitor","coordinates":[0.8381926642523871,0.23996029694875082,0.13021053738064237,0.15899783770243328]},{"name":"oven","coordinates":[0.3926599820454915,0.5460145552953084,0.08834802839491103,0.15718162854512532]},{"name":"microwave","coordinates":[0.38141613006591796,0.3625516911347707,0.09908621046278211,0.06305795907974243]},{"name":"sink","coordinates":[0.3208060238096449,0.534350166718165,0.07435356246100532,0.015531996885935465]}]}
