{"src":"https://a0.muscache.com/im/pictures/99240365-ffbf-4d08-a568-7ef68b393ec4.jpg?aki_policy=xx_large","name":"quaint spacious apt near centre of the Hague","listingId":13875158,"photoId":"229-4","tags":[{"name":"diningtable","coordinates":[0.4088375939263238,0.7481685638427734,0.4976441701253255,0.42639824549357097]},{"name":"chair","coordinates":[0.3215262518988715,0.8180068333943685,0.26691532135009766,0.3432984670003255]},{"name":"chair","coordinates":[0.6728274875217014,0.7159384409586589,0.20367719862196182,0.3734152793884277]},{"name":"sofa","coordinates":[0.08400839699639215,0.6816760381062825,0.1610294024149577,0.28730182647705077]},{"name":"chair","coordinates":[0.4784747229682075,0.5285246849060059,0.1445852173699273,0.09319339593251547]},{"name":"tvmonitor","coordinates":[0.33273438347710504,0.38851811091105143,0.11526429918077256,0.06593285401662191]}]}
