{"src":"https://a0.muscache.com/im/pictures/cf3dde48-50a0-4ae5-918b-18ea4f9aaf8f.jpg?aki_policy=xx_large","name":"Sea view appartement on the beach","listingId":10597250,"photoId":"23-0","tags":[{"name":"sofa","coordinates":[0.18608545295386386,0.7036936442057292,0.32457980393368613,0.27845710118611655]},{"name":"chair","coordinates":[0.1259633304346586,0.8317241668701172,0.24319430418903207,0.3298368771870931]},{"name":"sofa","coordinates":[0.1259633304346586,0.8317241668701172,0.24319430418903207,0.3298368771870931]},{"name":"sofa","coordinates":[0.8385931659640126,0.8804201126098633,0.3177362476502738,0.21915918986002605]},{"name":"chair","coordinates":[0.8385931659640126,0.8804201126098633,0.3177362476502738,0.21915918986002605]},{"name":"chair","coordinates":[0.6296306923135431,0.628764279683431,0.0597880897999473,0.19367165565490724]},{"name":"tvmonitor","coordinates":[0.3234178227410031,0.44620275497436523,0.10956978831072345,0.09793218771616617]},{"name":"chair","coordinates":[0.5729525039524296,0.620334243774414,0.06281993584772144,0.15341763496398925]},{"name":"pottedplant","coordinates":[0.6698787089680763,0.4752568562825521,0.07459714780762398,0.09498040676116944]},{"name":"book","coordinates":[0.4104519606631389,0.7629255294799805,0.0684348731113906,0.03919541041056315]},{"name":"vase","coordinates":[0.2361997941273144,0.5372336069742839,0.02283641194435088,0.038918975989023843]}]}
