{"src":"https://a0.muscache.com/im/pictures/0f58fd3b-c658-4fb4-a58a-1f53f35ab4da.jpg?aki_policy=xx_large","name":"Sea view appartement on the beach","listingId":10597250,"photoId":"23-2","tags":[{"name":"chair","coordinates":[0.3674605453130433,0.7126819610595703,0.13594081703578648,0.2974029223124186]},{"name":"chair","coordinates":[0.21347436387615176,0.6870246251424154,0.11678590098077299,0.2941227912902832]},{"name":"chair","coordinates":[0.6650849025339013,0.5804314931233724,0.1707930584776219,0.15992608070373535]},{"name":"sofa","coordinates":[0.6650849025339013,0.5804314931233724,0.1707930584776219,0.15992608070373535]},{"name":"chair","coordinates":[0.4328963023730876,0.7039995193481445,0.05816154851369632,0.28046493530273436]},{"name":"sofa","coordinates":[0.9322941850388995,0.6926830291748047,0.058048380930002606,0.254327122370402]},{"name":"pottedplant","coordinates":[0.3333068126100161,0.49207305908203125,0.08301030611295528,0.10779925982157389]},{"name":"book","coordinates":[0.7678944212339186,0.7122233708699545,0.0765247742887664,0.05291019280751546]},{"name":"clock","coordinates":[0.6830006308946888,0.2531596660614014,0.03952748719110608,0.0659566601117452]}]}
