{"src":"https://a0.muscache.com/im/pictures/4ab5ddb9-4bee-4100-b736-08e055ee6e61.jpg?aki_policy=xx_large","name":"Toundalia-Residence Appartement de luxe INAH (T2)","listingId":14121327,"photoId":"230-0","tags":[{"name":"sofa","coordinates":[-0.0024390220642089844,0.5509878635406494,0.33302542368570964,0.43033361434936523]},{"name":"sofa","coordinates":[0.7405007044474284,0.7525212367375692,0.2679926978217231,0.23588109016418457]},{"name":"chair","coordinates":[0.7405007044474284,0.7525212367375692,0.2679926978217231,0.23588109016418457]},{"name":"tvmonitor","coordinates":[0.004651482899983725,0.37388542493184407,0.17653350830078124,0.2089470863342285]},{"name":"chair","coordinates":[0.3512897491455078,0.30202271938323977,0.09350009494357639,0.22566412289937338]},{"name":"chair","coordinates":[0.7226164817810058,0.9042621572812398,0.2109673606024848,0.08588105042775472]},{"name":"cup","coordinates":[0.8028562731213039,0.5881047328313191,0.043662182490030926,0.08806169827779134]}]}
