{"src":"https://a0.muscache.com/im/pictures/4ab5ddb9-4bee-4100-b736-08e055ee6e61.jpg?aki_policy=xx_large","name":"Toundalia-Residence Appartement de luxe INAH (T2)","listingId":14121327,"photoId":"230-0","tags":[{"name":"sofa","coordinates":[0.16407368977864584,0.766154670715332,0.33302542368570964,0.43033361434936523]},{"name":"sofa","coordinates":[0.87449705335829,0.8704617818196615,0.2679926978217231,0.23588109016418457]},{"name":"chair","coordinates":[0.87449705335829,0.8704617818196615,0.2679926978217231,0.23588109016418457]},{"name":"tvmonitor","coordinates":[0.09291823705037434,0.47835896809895834,0.17653350830078124,0.2089470863342285]},{"name":"chair","coordinates":[0.398039796617296,0.41485478083292643,0.09350009494357639,0.22566412289937338]},{"name":"chair","coordinates":[0.8281001620822482,0.9472026824951172,0.2109673606024848,0.08588105042775472]},{"name":"cup","coordinates":[0.8246873643663194,0.6321355819702148,0.043662182490030926,0.08806169827779134]}]}
