{"src":"https://a0.muscache.com/im/pictures/67defb20-2334-4560-a390-62a133e24ea3.jpg?aki_policy=xx_large","name":"Spacious apartment! 2 km to the beach!","listingId":13890292,"photoId":"230-0","tags":[{"name":"diningtable","coordinates":[0.40650969611273874,0.8031621932983398,0.777441660563151,0.37880706787109375]},{"name":"pottedplant","coordinates":[0.9148974948459201,0.469480037689209,0.16434397167629666,0.5717477162679037]},{"name":"chair","coordinates":[0.49652125040690104,0.5985790888468424,0.3066211912367079,0.20492566426595052]},{"name":"chair","coordinates":[0.12421386506822374,0.569403330485026,0.2052512698703342,0.17827676137288412]},{"name":"chair","coordinates":[0.334338124593099,0.49256836573282875,0.11408584382798936,0.3057890256245931]},{"name":"chair","coordinates":[0.2063593970404731,0.4772764523824056,0.08962441550360786,0.2548890749613444]},{"name":"cup","coordinates":[0.5475719028049045,0.8868179321289062,0.10185847812228732,0.21104467709859212]},{"name":"cup","coordinates":[0.5872405582004123,0.7949825286865234,0.09629826015896267,0.18080218633015951]},{"name":"person","coordinates":[0.5880822499593099,0.3447345415751139,0.05356007681952583,0.13542149861653646]}]}
