{"src":"https://a0.muscache.com/im/pictures/d85b66c9-f415-4699-b4d5-38fa694e57d7.jpg?aki_policy=xx_large","name":"Toundalia-Residence Appartement de luxe INAH (T2)","listingId":14121327,"photoId":"230-1","tags":[{"name":"diningtable","coordinates":[0.4344693077935113,0.6105875651041667,0.4410218980577257,0.5592023213704427]},{"name":"chair","coordinates":[0.182437006632487,0.7011051813761393,0.35860705905490453,0.5719253540039062]},{"name":"chair","coordinates":[0.7338355170355902,0.5998053232828776,0.2888461642795139,0.5831097920735677]},{"name":"pottedplant","coordinates":[0.4397434234619141,0.3569182395935059,0.15180935329861112,0.19382497469584148]},{"name":"vase","coordinates":[0.4539407094319661,0.42553129196166994,0.05642321374681261,0.06203911701838175]}]}
