{"src":"https://a0.muscache.com/im/pictures/0d3d6822-7429-4167-b57c-25f6376d0aaa.jpg?aki_policy=xx_large","name":"TB HOME@Ningbo  Super Cityview Apartment","listingId":14128390,"photoId":"231-7","tags":[{"name":"diningtable","coordinates":[0.015067518710095984,0.7401140292485555,0.5584894939791087,0.24717710812886556]},{"name":"tvmonitor","coordinates":[0.6150230317583011,0.3705785989761352,0.1837876500811653,0.19818498293558756]},{"name":"chair","coordinates":[0.2827299222753974,0.5531883875528971,0.13571406636824618,0.22545890808105468]},{"name":"pottedplant","coordinates":[0.43041025125955523,0.5603553215662638,0.11862010836518416,0.17047130266825358]},{"name":"pottedplant","coordinates":[0.025025567219769312,0.6466519395510356,0.08708652711063727,0.10214264392852783]},{"name":"pottedplant","coordinates":[0.14214857789358387,0.6311327695846557,0.08602977378903535,0.09829214413960775]},{"name":"book","coordinates":[0.7756926382143022,0.702599420150121,0.08196945667598213,0.035311973094940184]},{"name":"remote","coordinates":[0.8257100832304911,0.5760698412855466,0.0332237784443339,0.016472479701042174]}]}
