{"src":"https://a0.muscache.com/im/pictures/9ae7ae04-af78-45a8-90ce-189ed50047b6.jpg?aki_policy=xx_large","name":"TB HOME@Ningbo  Super Cityview Apartment","listingId":14128390,"photoId":"231-9","tags":[{"name":"pottedplant","coordinates":[0.3357774046579113,0.4556732177734375,0.05741338882287233,0.19066702524820964]},{"name":"sink","coordinates":[0.6840689250211736,0.6203264872233073,0.216961699612361,0.04691233237584432]},{"name":"bowl","coordinates":[0.40114675684883166,0.5217800776163737,0.07905487951261456,0.036231398582458496]},{"name":"vase","coordinates":[0.3329587383681159,0.49194361368815104,0.022195839898465325,0.11255273818969727]},{"name":"bottle","coordinates":[0.6830701794866226,0.5682747522989909,0.02326208489731503,0.06826597849527995]},{"name":"bottle","coordinates":[0.35269548894631686,0.5059288024902344,0.017806326870789042,0.07788360913594564]},{"name":"bottle","coordinates":[0.26336230926831783,0.5139145215352376,0.017870463622453064,0.07486935456593831]},{"name":"bottle","coordinates":[0.3017494355414459,0.5168480237325033,0.01809450617426381,0.06635899941126505]},{"name":"bottle","coordinates":[0.2812155590362231,0.5144195556640625,0.016410941626977555,0.07106870810190836]}]}
