{"src":"https://a0.muscache.com/im/pictures/ab7ac8dc-9616-4ecc-b06f-0e34a700b7cd.jpg?aki_policy=xx_large","name":"TB HOME@Ningbo  Super Cityview Apartment","listingId":14128390,"photoId":"231-20","tags":[{"name":"bed","coordinates":[0.27857717869343096,0.3123886426289876,0.46876146490464243,0.40808467864990233]},{"name":"sofa","coordinates":[-0.0032965406624488602,0.5031881809234618,0.33194585786791214,0.452570120493571]},{"name":"chair","coordinates":[0.7964959802426869,0.40542143185933427,0.12582216686507453,0.15142424901326498]},{"name":"chair","coordinates":[0.5660618568711789,0.3084268013636271,0.07971461378589609,0.14409648577372233]},{"name":"book","coordinates":[0.26463145421801926,0.8349815130233765,0.09272734002033807,0.08011479377746582]},{"name":"pottedplant","coordinates":[0.24614655218919737,0.45657644073168435,0.0642618906284252,0.06638463735580444]},{"name":"pottedplant","coordinates":[0.7089742123848372,0.3706457058588664,0.05386541638630773,0.05946536064147949]}]}
