{"src":"https://a0.muscache.com/im/pictures/01d065c5-dc8e-4b49-b3c2-8813eb5b87bb.jpg?aki_policy=xx_large","name":"TB HOME@Ningbo  Super Cityview Apartment","listingId":14128390,"photoId":"231-24","tags":[{"name":"sofa","coordinates":[0.0633175761459957,0.5570653120676676,0.7017683354747175,0.44343849817911785]},{"name":"bed","coordinates":[0.6096779636730928,0.33690331776936855,0.3818393151275088,0.33897425333658854]},{"name":"vase","coordinates":[0.6804439815244727,0.6582533200581868,0.11204667957332667,0.16692269643147786]},{"name":"chair","coordinates":[0.8863128340996901,0.3100908001263937,0.10707465727070951,0.1244242270787557]},{"name":"chair","coordinates":[0.7728626462322422,0.34104986985524494,0.09147526896380857,0.09865066210428873]}]}
