{"src":"https://a0.muscache.com/im/pictures/fe784154-e213-4502-99bc-f4fd0b51669e.jpg?aki_policy=xx_large","name":"TB HOME@Ningbo  Super Cityview Apartment","listingId":14128390,"photoId":"231-20","tags":[{"name":"sofa","coordinates":[0.36877353397645896,0.6502861022949219,0.7311518394844846,0.6670550664265951]},{"name":"bed","coordinates":[0.8093660373940471,0.4813426335652669,0.6018133483077991,0.47570870717366537]},{"name":"book","coordinates":[0.6324303999415433,0.829843266805013,0.1972389726646227,0.11251187324523926]},{"name":"vase","coordinates":[0.5868802862249123,0.5261341412862142,0.13466657964122175,0.1566865603129069]},{"name":"vase","coordinates":[0.5922281171600984,0.5152263641357422,0.03612101756309218,0.17977697054545086]}]}
