{"src":"https://a0.muscache.com/im/pictures/eef915f3-446f-4a4c-b56f-30716e5f89be.jpg?aki_policy=xx_large","name":"TB HOME@Ningbo  Super Cityview Apartment","listingId":14128390,"photoId":"231-1","tags":[{"name":"refrigerator","coordinates":[0.31242420443070273,0.6419137318929037,0.073728443434704,0.5984060923258464]},{"name":"sink","coordinates":[0.9306494717468728,0.6878936767578125,0.1373652921442028,0.126078995068868]},{"name":"chair","coordinates":[0.5068823819031228,0.5468428293863933,0.038051772233593205,0.089746888478597]},{"name":"bowl","coordinates":[0.8047216016439368,0.49033184051513673,0.07767795141245276,0.03804501295089722]},{"name":"chair","coordinates":[0.3818467109049253,0.5208823204040527,0.03224483010170773,0.0406527837117513]},{"name":"pottedplant","coordinates":[0.47223218502975156,0.5473631540934245,0.02537097095863284,0.038373835881551105]}]}
