{"src":"https://a0.muscache.com/im/pictures/eef915f3-446f-4a4c-b56f-30716e5f89be.jpg?aki_policy=xx_large","name":"TB HOME@Ningbo  Super Cityview Apartment","listingId":14128390,"photoId":"231-1","tags":[{"name":"refrigerator","coordinates":[0.27555998271335075,0.3427106857299805,0.073728443434704,0.5984060923258464]},{"name":"sink","coordinates":[0.8619668256747715,0.6248541792233786,0.1373652921442028,0.126078995068868]},{"name":"chair","coordinates":[0.4878564957863262,0.5019693851470948,0.038051772233593205,0.089746888478597]},{"name":"bowl","coordinates":[0.7658826259377104,0.4713093340396881,0.07767795141245276,0.03804501295089722]},{"name":"chair","coordinates":[0.3657242958540714,0.500555928548177,0.03224483010170773,0.0406527837117513]},{"name":"pottedplant","coordinates":[0.45954669955043514,0.528176236152649,0.02537097095863284,0.038373835881551105]}]}
