{"src":"https://a0.muscache.com/im/pictures/cd5e3cb3-f817-41f6-a31c-e78b2546a6ee.jpg?aki_policy=xx_large","name":"TB HOME@Ningbo  Super Cityview Apartment","listingId":14128390,"photoId":"231-17","tags":[{"name":"sofa","coordinates":[0.14945749706692166,0.6916914621988932,0.32526134914822047,0.536806297302246]},{"name":"bed","coordinates":[0.48734749688042533,0.5325899759928385,0.387642330593533,0.27434587478637695]},{"name":"chair","coordinates":[0.7928237915039062,0.514164924621582,0.1376663949754503,0.15270530382792155]},{"name":"pottedplant","coordinates":[0.2780473073323568,0.5242086728413899,0.0688409752315945,0.15195814768473306]},{"name":"vase","coordinates":[0.2794997321234809,0.5445322672526042,0.03248642815483941,0.11415536403656006]}]}
