{"src":"https://a0.muscache.com/im/pictures/67b8eaca-5bb6-465d-9203-0881884a9c60.jpg?aki_policy=xx_large","name":"The Hague city, Beach &amp; Comfortable (large) house","listingId":13905371,"photoId":"233-0","tags":[{"name":"diningtable","coordinates":[0.8420791625976562,0.7364785512288411,0.9531359354654948,0.4795432726542155]},{"name":"chair","coordinates":[0.5090975443522135,0.7901768366495768,0.21481655968560112,0.4057591120402018]},{"name":"chair","coordinates":[1.3118262396918403,0.7394802729288737,0.1588666280110677,0.38247817357381186]},{"name":"chair","coordinates":[0.7219769795735677,0.9303078969319661,0.48972396850585936,0.10465049743652344]},{"name":"sofa","coordinates":[1.1872320387098525,0.4222286542256673,0.22155912187364366,0.13402295112609863]},{"name":"chair","coordinates":[1.2734867519802517,0.6244086583455404,0.1159470452202691,0.21240544319152832]},{"name":"chair","coordinates":[0.642476314968533,0.5729693730672201,0.11705390082465278,0.10869193077087402]},{"name":"cup","coordinates":[0.8812221103244358,0.5850919087727865,0.07130486170450846,0.0724051316579183]}]}
