{"src":"https://a0.muscache.com/im/pictures/a0795767-a826-4644-b809-2a39bab765ed.jpg?aki_policy=xx_large","name":"Your own charming and romantic guesthouse, + WiFi!","listingId":13935821,"photoId":"236-6","tags":[{"name":"diningtable","coordinates":[0.30081765916612413,0.7590389251708984,0.24922508663601345,0.29575316111246747]},{"name":"chair","coordinates":[0.8992828369140625,0.7391170501708985,0.15477799309624565,0.3841016133626302]},{"name":"chair","coordinates":[0.3791588677300347,0.8138408660888672,0.1616466098361545,0.36284716924031574]},{"name":"pottedplant","coordinates":[0.10376540289984809,0.5703453063964844,0.1564356486002604,0.28966236114501953]},{"name":"chair","coordinates":[0.7277224222819011,0.6818700154622396,0.15949429406060112,0.27839345932006837]},{"name":"pottedplant","coordinates":[0.4091522216796875,0.5505107879638672,0.10469997194078233,0.1593369166056315]},{"name":"vase","coordinates":[0.43367771572536895,0.4233607292175293,0.020980560779571535,0.03642272154490153]}]}
