{"src":"https://a0.muscache.com/im/pictures/d5be1bdd-ef8f-4ac0-b1d1-42bc32da9d58.jpg?aki_policy=xx_large","name":"NICE FULL-EQUIPPED APARTMENT","listingId":14175878,"photoId":"237-2","tags":[{"name":"microwave","coordinates":[0.5912981669108073,0.4706939379374186,0.2067807091606988,0.19451419512430826]},{"name":"bottle","coordinates":[0.8935839335123698,0.8174088160196941,0.08115746180216471,0.3116497039794922]},{"name":"sink","coordinates":[0.4409788343641493,0.9136163711547851,0.19599876403808594,0.0875261386235555]},{"name":"sink","coordinates":[0.03248641226026747,0.9289920806884766,0.06505613856845432,0.1521270751953125]},{"name":"bottle","coordinates":[0.3824850718180339,0.8255571365356446,0.03342103958129883,0.11332385540008545]},{"name":"cup","coordinates":[0.5640615675184462,0.8393840154012044,0.04532030953301324,0.07387868563334148]}]}
