{"src":"https://a0.muscache.com/im/pictures/d5be1bdd-ef8f-4ac0-b1d1-42bc32da9d58.jpg?aki_policy=xx_large","name":"NICE FULL-EQUIPPED APARTMENT","listingId":14175878,"photoId":"237-2","tags":[{"name":"microwave","coordinates":[0.4879078123304579,0.3734368403752645,0.2067807091606988,0.19451419512430826]},{"name":"bottle","coordinates":[0.8530052026112874,0.6615839640299479,0.08115746180216471,0.3116497039794922]},{"name":"sink","coordinates":[0.34297945234510635,0.8698533018430074,0.19599876403808594,0.0875261386235555]},{"name":"sink","coordinates":[-0.00004165702395969584,0.8529285430908203,0.06505613856845432,0.1521270751953125]},{"name":"bottle","coordinates":[0.36577455202738446,0.7688952088356018,0.03342103958129883,0.11332385540008545]},{"name":"cup","coordinates":[0.5414014127519395,0.8024446725845337,0.04532030953301324,0.07387868563334148]}]}
