{"src":"https://a0.muscache.com/im/pictures/c337dd88-5fdb-4200-84fd-b1379e65b20d.jpg?aki_policy=xx_large","name":"Scheveningen beach house; sea view &amp; roof terrace","listingId":13969207,"photoId":"240-0","tags":[{"name":"sofa","coordinates":[0.8292227745056152,0.6822664260864257,0.3463816404342651,0.2911484718322754]},{"name":"sofa","coordinates":[0.8559688568115235,0.8409814198811849,0.2884278059005737,0.29659557342529297]},{"name":"pottedplant","coordinates":[0.173768150806427,0.5201738357543946,0.11644706726074219,0.2891744613647461]},{"name":"tvmonitor","coordinates":[0.3716465950012207,0.38998772303263346,0.1832539916038513,0.16273144086201985]},{"name":"car","coordinates":[0.7590814590454101,0.3772084871927897,0.0486081063747406,0.06490318377812704]}]}
