{"src":"https://a0.muscache.com/im/pictures/6f5c9a27-a467-4362-8191-de056a725429.jpg?aki_policy=xx_large","name":"Moozee House, Modern Home @ The Centre of Bandung","listingId":14227013,"photoId":"240-4","tags":[{"name":"sofa","coordinates":[0.0005114555358886608,0.345248015721639,0.282187991672092,0.29264039993286134]},{"name":"chair","coordinates":[0.3264469994439019,0.7000466664632161,0.18184009128146703,0.3067108154296875]},{"name":"chair","coordinates":[0.15498044755723742,0.7151750723520915,0.18607894049750434,0.29854567845662433]},{"name":"bench","coordinates":[0.48618166711595323,0.41296780904134117,0.1310122489929199,0.13975480397542317]},{"name":"book","coordinates":[0.6020636664496527,0.5422622183958689,0.11484646267361111,0.05692212184270223]},{"name":"book","coordinates":[0.8794595612419975,0.7279813408851623,0.10186273786756728,0.04711959362030029]},{"name":"book","coordinates":[0.877836545308431,0.7817017038663229,0.11719898647732205,0.03989528814951579]},{"name":"book","coordinates":[0.6093750264909532,0.5273886978626251,0.09569018681844076,0.04870516856511434]},{"name":"book","coordinates":[0.8797364234924316,0.7520787258942921,0.10612706078423394,0.04359251260757446]}]}
