{"src":"https://a0.muscache.com/im/pictures/6f5c9a27-a467-4362-8191-de056a725429.jpg?aki_policy=xx_large","name":"Moozee House, Modern Home @ The Centre of Bandung","listingId":14227013,"photoId":"240-4","tags":[{"name":"sofa","coordinates":[0.14160545137193467,0.4915682156880697,0.282187991672092,0.29264039993286134]},{"name":"chair","coordinates":[0.4173670450846354,0.8534020741780599,0.18184009128146703,0.3067108154296875]},{"name":"chair","coordinates":[0.2480199178059896,0.8644479115804037,0.18607894049750434,0.29854567845662433]},{"name":"bench","coordinates":[0.5516877916124132,0.48284521102905276,0.1310122489929199,0.13975480397542317]},{"name":"book","coordinates":[0.6594868977864583,0.57072327931722,0.11484646267361111,0.05692212184270223]},{"name":"book","coordinates":[0.9303909301757812,0.7515411376953125,0.10186273786756728,0.04711959362030029]},{"name":"book","coordinates":[0.936436038547092,0.8016493479410808,0.11719898647732205,0.03989528814951579]},{"name":"book","coordinates":[0.6572201199001736,0.5517412821451823,0.09569018681844076,0.04870516856511434]},{"name":"book","coordinates":[0.9327999538845486,0.7738749821980794,0.10612706078423394,0.04359251260757446]}]}
