{"src":"https://a0.muscache.com/im/pictures/41b42f07-9bd8-45db-89ed-b5122192794f.jpg?aki_policy=xx_large","name":"Osaka Best Location ☆ KAIYUKAN &amp; USJ ☆","listingId":14274213,"photoId":"243-0","tags":[{"name":"bed","coordinates":[0.4101574897766113,0.789358393351237,0.2930272340774536,0.42409340540568036]},{"name":"teddy-bear","coordinates":[0.32392470836639403,0.5292425791422526,0.1485160231590271,0.2705094337463379]},{"name":"teddy-bear","coordinates":[0.4177663803100586,0.49419418970743817,0.12594003677368165,0.2277670701344808]},{"name":"tvmonitor","coordinates":[0.12102875709533692,0.22601731618245444,0.15505205392837523,0.17313944498697917]},{"name":"clock","coordinates":[0.13807263374328613,0.41894009908040364,0.03289341628551483,0.0435090700785319]}]}
