{"src":"https://a0.muscache.com/im/pictures/df586644-c373-43a4-bc4a-d26e336969f3.jpg?aki_policy=xx_large","name":"Clean Double bedroom in Morden in shared house","listingId":14296336,"photoId":"244-1","tags":[{"name":"oven","coordinates":[0.2148662527402242,0.5476643006006876,0.1178220828374227,0.25872197151184084]},{"name":"pottedplant","coordinates":[0.4116045832633972,0.28759763240814207,0.07866531213124593,0.14067514737447104]},{"name":"sink","coordinates":[0.4929255088170369,0.4547380447387695,0.18716673851013182,0.032100486755371097]},{"name":"vase","coordinates":[0.7567117651303609,0.3613351543744405,0.05224470297495524,0.0766624371210734]},{"name":"bottle","coordinates":[0.7567117651303609,0.3613351543744405,0.05224470297495524,0.0766624371210734]},{"name":"pottedplant","coordinates":[0.6692558825016022,0.3670906027158102,0.052920552094777425,0.06431402365366617]},{"name":"vase","coordinates":[0.4337148070335388,0.3678411682446798,0.04969271818796794,0.0585467259089152]},{"name":"bottle","coordinates":[0.20722384750843048,0.36523796717325846,0.02709747354189555,0.09889488220214844]},{"name":"bottle","coordinates":[0.1894954929749171,0.36532124678293865,0.024632245302200317,0.09742903709411621]},{"name":"bottle","coordinates":[0.33416576186815894,0.32819034655888873,0.034116494655609134,0.06428968906402588]},{"name":"bottle","coordinates":[0.528027301033338,0.3835487484931946,0.027851317326227823,0.07266169389088949]},{"name":"bottle","coordinates":[0.509234760204951,0.3756065090497335,0.016892596085866293,0.08631044228871664]}]}
