{"src":"https://a0.muscache.com/im/pictures/df586644-c373-43a4-bc4a-d26e336969f3.jpg?aki_policy=xx_large","name":"Clean Double bedroom in Morden in shared house","listingId":14296336,"photoId":"244-1","tags":[{"name":"oven","coordinates":[0.3650363922119141,0.6770252863566081,0.1570961104498969,0.25872197151184084]},{"name":"pottedplant","coordinates":[0.6012496524386935,0.3579352060953776,0.10488708284166125,0.14067514737447104]},{"name":"sink","coordinates":[0.7820118374294704,0.47078828811645507,0.24955565134684246,0.032100486755371097]},{"name":"vase","coordinates":[1.043778822157118,0.3996663729349772,0.06965960396660699,0.0766624371210734]},{"name":"bottle","coordinates":[1.043778822157118,0.3996663729349772,0.06965960396660699,0.0766624371210734]},{"name":"pottedplant","coordinates":[0.9276215447319879,0.39924761454264324,0.0705607361263699,0.06431402365366617]},{"name":"vase","coordinates":[0.6114148881700304,0.39711453119913737,0.06625695758395725,0.0585467259089152]},{"name":"bottle","coordinates":[0.29436344570583767,0.4146854082743327,0.0361299647225274,0.09889488220214844]},{"name":"bottle","coordinates":[0.269082154168023,0.41403576532999675,0.03284299373626709,0.09742903709411621]},{"name":"bottle","coordinates":[0.4682986789279514,0.3603351910909017,0.045488659540812174,0.06428968906402588]},{"name":"bottle","coordinates":[0.7226039462619358,0.41987959543863934,0.037135089768303764,0.07266169389088949]},{"name":"bottle","coordinates":[0.6902414109971788,0.4187617301940918,0.022523461447821722,0.08631044228871664]}]}
