{"src":"https://a0.muscache.com/im/pictures/df586644-c373-43a4-bc4a-d26e336969f3.jpg?aki_policy=xx_large","name":"Clean Double bedroom in Morden in shared house","listingId":14296336,"photoId":"244-1","tags":[{"name":"oven","coordinates":[0.27377729415893554,0.6770252863566081,0.1178220828374227,0.25872197151184084]},{"name":"pottedplant","coordinates":[0.4509372393290202,0.3579352060953776,0.07866531213124593,0.14067514737447104]},{"name":"sink","coordinates":[0.5865088780721028,0.47078828811645507,0.18716673851013182,0.032100486755371097]},{"name":"vase","coordinates":[0.7828341166178385,0.3996663729349772,0.05224470297495524,0.0766624371210734]},{"name":"bottle","coordinates":[0.7828341166178385,0.3996663729349772,0.05224470297495524,0.0766624371210734]},{"name":"pottedplant","coordinates":[0.6957161585489909,0.39924761454264324,0.052920552094777425,0.06431402365366617]},{"name":"vase","coordinates":[0.4585611661275228,0.39711453119913737,0.04969271818796794,0.0585467259089152]},{"name":"bottle","coordinates":[0.22077258427937826,0.4146854082743327,0.02709747354189555,0.09889488220214844]},{"name":"bottle","coordinates":[0.20181161562601727,0.41403576532999675,0.024632245302200317,0.09742903709411621]},{"name":"bottle","coordinates":[0.3512240091959635,0.3603351910909017,0.034116494655609134,0.06428968906402588]},{"name":"bottle","coordinates":[0.5419529596964519,0.41987959543863934,0.027851317326227823,0.07266169389088949]},{"name":"bottle","coordinates":[0.5176810582478841,0.4187617301940918,0.016892596085866293,0.08631044228871664]}]}
