{"src":"https://a0.muscache.com/im/pictures/5fc8cd9f-eaa2-4bcb-a660-bcf32e195111.jpg?aki_policy=xx_large","name":"明潔大房","listingId":14327883,"photoId":"246-2","tags":[{"name":"sofa","coordinates":[0.0014685006182608706,0.43906888961791996,0.2744634719122024,0.3322893142700195]},{"name":"tvmonitor","coordinates":[0.4007438641800534,0.31725934346516926,0.22420268836754734,0.17511272430419922]},{"name":"chair","coordinates":[0.9132406635269534,0.5173573732376098,0.09137135609158495,0.23163352012634278]},{"name":"vase","coordinates":[0.649347918746436,0.1990029017130534,0.02271967879689177,0.06651341120402018]},{"name":"book","coordinates":[0.6785191823317611,0.4379409670829773,0.009519820470162242,0.08104822635650635]},{"name":"book","coordinates":[0.6551952801301645,0.6214229424794515,0.010838277073784977,0.07079916000366211]},{"name":"book","coordinates":[0.6198836366800848,0.5356955369313557,0.012197572676861872,0.05837170282999674]},{"name":"book","coordinates":[0.6389015143407126,0.6273536125818888,0.011675520486705103,0.06088140805562337]},{"name":"book","coordinates":[0.6329604952154823,0.5386837244033814,0.01302901810728694,0.053407875696818034]},{"name":"book","coordinates":[0.6637879195946628,0.44235705534617104,0.009467059425038346,0.07055589358011881]},{"name":"book","coordinates":[0.6575734125832671,0.5791706601778666,0.040557203210954275,0.014474129676818848]},{"name":"book","coordinates":[0.6629519659871705,0.5592976594964664,0.03466127739577997,0.015387911597887676]}]}
