{"src":"https://a0.muscache.com/im/pictures/5fc8cd9f-eaa2-4bcb-a660-bcf32e195111.jpg?aki_policy=xx_large","name":"明潔大房","listingId":14327883,"photoId":"246-2","tags":[{"name":"sofa","coordinates":[0.13880859613418578,0.6052135467529297,0.2746778964996338,0.3322893142700195]},{"name":"tvmonitor","coordinates":[0.5132458686828614,0.4048157056172689,0.22437784671783448,0.17511272430419922]},{"name":"chair","coordinates":[0.9596755027770996,0.6331741333007812,0.0914427399635315,0.23163352012634278]},{"name":"vase","coordinates":[0.6612239360809327,0.23225960731506348,0.022737428545951843,0.06651341120402018]},{"name":"book","coordinates":[0.6838129043579102,0.47846508026123047,0.009527257829904556,0.08104822635650635]},{"name":"book","coordinates":[0.6611305236816406,0.6568225224812826,0.01084674447774887,0.07079916000366211]},{"name":"book","coordinates":[0.626471471786499,0.5648813883463542,0.01220710203051567,0.05837170282999674]},{"name":"book","coordinates":[0.645242977142334,0.6577943166097006,0.011684641987085343,0.06088140805562337]},{"name":"book","coordinates":[0.6399745941162109,0.5653876622517904,0.013039197027683257,0.053407875696818034]},{"name":"book","coordinates":[0.6690437316894531,0.47763500213623045,0.009474455565214156,0.07055589358011881]},{"name":"book","coordinates":[0.6783815860748291,0.586407725016276,0.04058888852596283,0.014474129676818848]},{"name":"book","coordinates":[0.6808140754699707,0.5669916152954102,0.034688356518745425,0.015387911597887676]}]}
