{"src":"https://a0.muscache.com/im/pictures/5fc8cd9f-eaa2-4bcb-a660-bcf32e195111.jpg?aki_policy=xx_large","name":"明潔大房","listingId":14327883,"photoId":"246-2","tags":[{"name":"sofa","coordinates":[0.13870023657436206,0.6052135467529297,0.2744634719122024,0.3322893142700195]},{"name":"tvmonitor","coordinates":[0.5128452083638271,0.4048157056172689,0.22420268836754734,0.17511272430419922]},{"name":"chair","coordinates":[0.9589263415727459,0.6331741333007812,0.09137135609158495,0.23163352012634278]},{"name":"vase","coordinates":[0.6607077581448819,0.23225960731506348,0.02271967879689177,0.06651341120402018]},{"name":"book","coordinates":[0.6832790925668423,0.47846508026123047,0.009519820470162242,0.08104822635650635]},{"name":"book","coordinates":[0.660614418667057,0.6568225224812826,0.010838277073784977,0.07079916000366211]},{"name":"book","coordinates":[0.6259824230185158,0.5648813883463542,0.012197572676861872,0.05837170282999674]},{"name":"book","coordinates":[0.6447392745840652,0.6577943166097006,0.011675520486705103,0.06088140805562337]},{"name":"book","coordinates":[0.6394750042691257,0.5653876622517904,0.01302901810728694,0.053407875696818034]},{"name":"book","coordinates":[0.6685214493071819,0.47763500213623045,0.009467059425038346,0.07055589358011881]},{"name":"book","coordinates":[0.6778520141887442,0.586407725016276,0.040557203210954275,0.014474129676818848]},{"name":"book","coordinates":[0.6802826046850605,0.5669916152954102,0.03466127739577997,0.015387911597887676]}]}
