{"src":"https://a0.muscache.com/im/pictures/06f09a40-9c60-49ac-baec-ddb721aae9d5.jpg?aki_policy=xx_large","name":"Spacious &amp; bright family home close to city center","listingId":14041041,"photoId":"246-0","tags":[{"name":"diningtable","coordinates":[0.5273362159729004,0.7420350392659505,0.6447739601135254,0.340951665242513]},{"name":"chair","coordinates":[0.7490883827209472,0.8287059148152669,0.3282951354980469,0.28358647028605144]},{"name":"chair","coordinates":[0.2683470010757446,0.8203101476033529,0.3720742702484131,0.23433577219645182]},{"name":"sofa","coordinates":[0.4029745101928711,0.552323849995931,0.42298145294189454,0.1795348326365153]},{"name":"chair","coordinates":[0.40136022567749025,0.9425128300984701,0.4681741714477539,0.10902991294860839]},{"name":"pottedplant","coordinates":[0.2425990581512451,0.41680145263671875,0.12773143053054808,0.15316486358642578]},{"name":"chair","coordinates":[0.8095255851745605,0.6231915791829427,0.09084174633026124,0.0651142438252767]},{"name":"chair","coordinates":[0.31566848754882815,0.6255394617716471,0.10453734397888184,0.0491729736328125]},{"name":"pottedplant","coordinates":[0.713512659072876,0.47690985997517904,0.05993550419807434,0.027408566077550253]}]}
