{"src":"https://a0.muscache.com/im/pictures/e625619a-6e3f-4048-858e-025e2504efe9.jpg?aki_policy=xx_large","name":"","listingId":14047272,"photoId":"247-1","tags":[{"name":"sofa","coordinates":[0.18559739854600693,0.7503657658894857,0.408961910671658,0.47671209971110023]},{"name":"diningtable","coordinates":[0.8309023539225261,0.8503544489542644,0.2894246843126085,0.23647886912027996]},{"name":"pottedplant","coordinates":[0.6572239345974392,0.5120773951212565,0.20274745093451607,0.3189281781514486]},{"name":"chair","coordinates":[0.8320855034722222,0.7638375600179036,0.2102150387234158,0.2068132241566976]},{"name":"tvmonitor","coordinates":[0.8332023620605469,0.307102902730306,0.1742272694905599,0.24473498662312826]},{"name":"truck","coordinates":[0.15936657587687175,0.3102604866027832,0.17116956710815429,0.1834477424621582]},{"name":"car","coordinates":[0.2655132081773546,0.3148105303446452,0.06494669384426541,0.11114407380421956]},{"name":"pottedplant","coordinates":[0.7339085049099392,0.32070099512736,0.03973912133110894,0.08534472783406576]},{"name":"bottle","coordinates":[0.48927735222710506,0.40680290857950846,0.02504862944285075,0.10127041339874268]},{"name":"vase","coordinates":[0.19871410793728297,0.46577113469441733,0.028831293847825793,0.07646125157674154]},{"name":"vase","coordinates":[0.8220770941840277,0.6588869094848633,0.02915044625600179,0.048591641585032146]}]}
