{"src":"https://a0.muscache.com/im/pictures/21d8f254-746a-4c0e-bbf8-39328abb6971.jpg?aki_policy=xx_large","name":"АльфаАпартаменты: Лофт у Арены-Омск","listingId":14341007,"photoId":"247-1","tags":[{"name":"diningtable","coordinates":[0.5484388987223308,0.8599077860514323,0.6672214931911893,0.2503824234008789]},{"name":"chair","coordinates":[0.5996848636203342,0.6186290740966797,0.21887760162353515,0.27724860509236654]},{"name":"chair","coordinates":[0.8295730590820313,0.8321633656819661,0.1139913452996148,0.2951093355814616]},{"name":"chair","coordinates":[0.2369608137342665,0.8398141225179037,0.08601811726888021,0.22603513399759928]},{"name":"chair","coordinates":[0.7473726908365885,0.7615434646606445,0.07118363910251194,0.20438319842020672]},{"name":"bowl","coordinates":[0.6755126953125,0.8416085561116536,0.13179873360527886,0.09491807619730631]},{"name":"bowl","coordinates":[0.37577565511067706,0.8496682484944661,0.12348281012641059,0.09644766648610432]},{"name":"clock","coordinates":[0.3130920622083876,0.04579320748647054,0.0879409154256185,0.09624485969543457]},{"name":"chair","coordinates":[0.292685784233941,0.7429297765096029,0.038889874352349176,0.15515721638997396]},{"name":"fork","coordinates":[0.33436029222276475,0.9688690185546875,0.1872539308336046,0.03132261037826538]},{"name":"spoon","coordinates":[0.33436029222276475,0.9688690185546875,0.1872539308336046,0.03132261037826538]},{"name":"fork","coordinates":[0.721893310546875,0.9396851857503256,0.1450611538357205,0.04041442076365153]},{"name":"bowl","coordinates":[0.3995647854275174,0.7427786509195964,0.0873720751868354,0.06293528477350871]},{"name":"bowl","coordinates":[0.591559812757704,0.738759167989095,0.07992879019843208,0.05487440427144368]},{"name":"cup","coordinates":[0.591559812757704,0.738759167989095,0.07992879019843208,0.05487440427144368]}]}
