{"src":"https://a0.muscache.com/im/pictures/9c6b5510-35f6-4b52-a642-b12e2bc3cbb5.jpg?aki_policy=xx_large","name":"Studio op de mooiste plek van THE Hague","listingId":14055688,"photoId":"248-10","tags":[{"name":"motorbike","coordinates":[0.902546501159668,0.6620520909627279,0.1910161256790161,0.18857216835021973]},{"name":"chair","coordinates":[0.022499211132526398,0.8738381703694661,0.04681543111801147,0.25862741470336914]},{"name":"bicycle","coordinates":[0.5691277980804443,0.6210199991861979,0.08907080292701722,0.09439040819803873]},{"name":"person","coordinates":[0.20944852828979493,0.616967519124349,0.05198655128479004,0.15392969449361166]},{"name":"bicycle","coordinates":[0.5099843978881836,0.617867914835612,0.07144201397895814,0.07731111844380696]},{"name":"car","coordinates":[0.4769857883453369,0.5662589391072591,0.07842835783958435,0.05084803899129232]},{"name":"bicycle","coordinates":[0.21641130447387696,0.6656840642293295,0.029722025990486144,0.0921529213587443]},{"name":"person","coordinates":[0.8545161247253418,0.5463836034138997,0.022689831256866456,0.04852763811747233]},{"name":"car","coordinates":[0.27925636768341067,0.5459704081217448,0.03230712115764618,0.026017610232035318]}]}
