{"src":"https://a0.muscache.com/im/pictures/c7c4a943-2d84-4477-bd8d-4e3c346cd083.jpg?aki_policy=xx_large","name":"Unique converted barn apartment","listingId":14365406,"photoId":"249-0","tags":[{"name":"diningtable","coordinates":[0.5308886528015136,0.5928973515828451,0.882811450958252,0.6189415613810222]},{"name":"pottedplant","coordinates":[0.5441933155059815,0.29080864588419597,0.33574624061584474,0.5635717391967774]},{"name":"chair","coordinates":[0.10279695987701416,0.39103673299153646,0.2141184091567993,0.5631904602050781]},{"name":"chair","coordinates":[0.8688986778259278,0.3303148905436198,0.24906518459320068,0.33891607920328776]},{"name":"vase","coordinates":[0.5298966884613037,0.48561379114786785,0.13814983367919922,0.21672765413920084]}]}
