{"src":"https://a0.muscache.com/im/pictures/c7c4a943-2d84-4477-bd8d-4e3c346cd083.jpg?aki_policy=xx_large","name":"Unique converted barn apartment","listingId":14365406,"photoId":"249-0","tags":[{"name":"diningtable","coordinates":[0.08948292732238766,0.283426570892334,0.882811450958252,0.6189415613810222]},{"name":"pottedplant","coordinates":[0.37632019519805915,0.009022776285807277,0.33574624061584474,0.5635717391967774]},{"name":"chair","coordinates":[-0.00426224470138549,0.1094415028889974,0.2141184091567993,0.5631904602050781]},{"name":"chair","coordinates":[0.7443660855293275,0.1608568509419759,0.24906518459320068,0.33891607920328776]},{"name":"vase","coordinates":[0.46082177162170407,0.37724996407826744,0.13814983367919922,0.21672765413920084]}]}
