{"src":"https://a0.muscache.com/im/pictures/aa16dbdc-c7af-46b3-94e2-a4dba1368d63.jpg?aki_policy=xx_large","name":"Lovely family house in the center","listingId":14071707,"photoId":"249-0","tags":[{"name":"book","coordinates":[0.25478315353393555,0.4016964594523112,0.5143862724304199,0.6515700658162434]},{"name":"chair","coordinates":[0.8622316360473633,0.7148227055867513,0.2619755506515503,0.42175989151000975]},{"name":"chair","coordinates":[0.654402208328247,0.6211107254028321,0.24968817234039306,0.32416890462239584]},{"name":"pottedplant","coordinates":[0.7545175552368164,0.37240899403889977,0.18999578952789306,0.42455387115478516]},{"name":"chair","coordinates":[0.8385258674621582,0.5173357009887696,0.11248545646667481,0.21679126421610515]},{"name":"vase","coordinates":[0.9716795921325684,0.4295794169108073,0.04325556755065918,0.06696390310923259]},{"name":"book","coordinates":[0.41371636390686034,0.4669897397359212,0.021903479099273683,0.10089801947275798]},{"name":"book","coordinates":[0.06172829866409302,0.3610496203104655,0.0854525625705719,0.024588712056477866]}]}
