{"src":"https://a0.muscache.com/im/pictures/81435b49-f55f-4d2d-af26-b3799904957f.jpg?aki_policy=xx_large","name":"Cosy family house by the beach","listingId":1062978,"photoId":"25-2","tags":[{"name":"chair","coordinates":[0.41761673821343315,0.7885957717895508,0.18527810838487413,0.2632829507191976]},{"name":"chair","coordinates":[0.5876565721299913,0.7545485814412435,0.17104272842407225,0.2544128894805908]},{"name":"pottedplant","coordinates":[0.16420436435275607,0.5125338872273763,0.12200776206122504,0.11368924776713053]},{"name":"tvmonitor","coordinates":[0.4825219048394097,0.4829135258992513,0.16989961200290257,0.053607006867726646]},{"name":"chair","coordinates":[0.3109731886121962,0.6404807408650716,0.06057108243306478,0.078164275487264]},{"name":"chair","coordinates":[0.644194836086697,0.627528699239095,0.06342348522610135,0.06538705428441366]},{"name":"book","coordinates":[0.9227261861165365,0.4924761454264323,0.014985936217837864,0.04215815862019857]},{"name":"book","coordinates":[0.9000840928819445,0.4900524139404297,0.014853599336412218,0.03973948955535889]}]}
