{"src":"https://a0.muscache.com/im/pictures/daffc027-0556-4935-8c88-8c19af2edb26.jpg?aki_policy=xx_large","name":"Private apartment, near Scheveningen and Center","listingId":14149054,"photoId":"254-2","tags":[{"name":"chair","coordinates":[0.12958698272705077,0.5092206637064616,0.16022593180338543,0.15814768473307292]},{"name":"pottedplant","coordinates":[0.4875978257921007,0.6065375645955403,0.1586003197564019,0.11890676021575927]},{"name":"chair","coordinates":[0.32673371632893883,0.4336660385131836,0.06655801667107476,0.07330376307169596]},{"name":"chair","coordinates":[0.38111152648925783,0.4308062235514323,0.05979207356770833,0.06938138802846273]},{"name":"vase","coordinates":[0.4834692637125651,0.6480981190999349,0.050867960188123916,0.07107903162638346]},{"name":"vase","coordinates":[0.6600802527533637,0.49165147145589194,0.032386287053426104,0.08718902269999186]},{"name":"book","coordinates":[0.7872957865397135,0.39757585525512695,0.016440465715196396,0.03698910077412923]},{"name":"book","coordinates":[0.7683775160047743,0.39616543451944985,0.015518698427412245,0.03687259356180827]},{"name":"book","coordinates":[0.7481026543511284,0.3946629206339518,0.013158297538757325,0.04142576058705648]}]}
