{"src":"https://a0.muscache.com/im/pictures/21263237/a911bf9d_original.jpg?aki_policy=xx_large","name":"Modern, elegant large family house","listingId":1415349,"photoId":"256-7","tags":[{"name":"diningtable","coordinates":[0.9024955749511718,0.6746581395467123,0.7983113606770833,0.5159268379211426]},{"name":"chair","coordinates":[1.2492521497938367,0.577690315246582,0.44286634657118057,0.37435007095336914]},{"name":"chair","coordinates":[0.47053099738226994,0.5953400293986003,0.2899503919813368,0.3231349945068359]},{"name":"pottedplant","coordinates":[0.12999840842352972,0.6260897954305013,0.2567797342936198,0.35805234909057615]},{"name":"pottedplant","coordinates":[0.9875885009765625,0.42999903361002606,0.14551060994466145,0.09639474550882975]},{"name":"bottle","coordinates":[0.7880716959635417,0.46772743860880533,0.039583468437194826,0.09542334079742432]},{"name":"bottle","coordinates":[0.8963641696506076,0.4534181276957194,0.037415454122755265,0.08990230560302734]}]}
