{"src":"https://a0.muscache.com/im/pictures/e46aa701-8114-4564-8b5c-1e8475c55727.jpg?aki_policy=xx_large","name":"Seaside 2 bedroom Apartment in Scheveningen...","listingId":14193792,"photoId":"259-1","tags":[{"name":"diningtable","coordinates":[0.5175361633300781,0.8490034739176432,0.787715572781033,0.2904770533243815]},{"name":"bed","coordinates":[0.4545785692003038,0.4015366872151693,0.3718769073486328,0.3014821688334147]},{"name":"chair","coordinates":[0.1240989367167155,0.8440087000528972,0.276959588792589,0.28347113927205403]},{"name":"bowl","coordinates":[0.40734193589952256,0.9138956705729167,0.16659120983547634,0.16901041666666666]},{"name":"bowl","coordinates":[0.3406492445203993,0.7942522684733073,0.10899356206258139,0.10320087273915608]},{"name":"bottle","coordinates":[0.7200954013400608,0.9249126434326171,0.06727630827162001,0.1633443832397461]},{"name":"bowl","coordinates":[0.725909678141276,0.798521359761556,0.07801864412095812,0.11314009030659994]},{"name":"cup","coordinates":[0.6689532385932074,0.8326205571492513,0.05673494338989258,0.13224337895711263]},{"name":"cup","coordinates":[0.42541075812445744,0.7843188603719076,0.06138757069905599,0.08806760311126709]}]}
