{"src":"https://a0.muscache.com/im/pictures/0f0862fd-74da-49a7-b640-29feee53de08.jpg?aki_policy=xx_large","name":"Friendly location on the outskirts of Scheveningen","listingId":14207468,"photoId":"260-3","tags":[{"name":"diningtable","coordinates":[0.3591297573513455,0.7817921956380208,0.2783131917317708,0.33927768071492515]},{"name":"pottedplant","coordinates":[0.7778221978081598,0.5760599772135416,0.15043571260240343,0.4543448448181152]},{"name":"chair","coordinates":[0.18636131286621094,0.7748561223347982,0.11684577729966905,0.3087679227193197]},{"name":"chair","coordinates":[0.6053987291124132,0.6164796193440755,0.08018645180596246,0.1981859525044759]},{"name":"chair","coordinates":[0.5283949957953559,0.6217809041341146,0.06502784093221028,0.21089970270792643]},{"name":"vase","coordinates":[0.44108047485351565,0.633969497680664,0.035942697525024415,0.0761280377705892]}]}
