{"src":"https://a0.muscache.com/im/pictures/ed9750d9-a35b-4c35-ad83-a445aa4ab79d.jpg?aki_policy=xx_large","name":"位于城区，干净宽敞，天然乳胶床垫，设计师自住","listingId":14524846,"photoId":"260-2","tags":[{"name":"diningtable","coordinates":[0.47711834907531736,0.676699447631836,0.844758415222168,0.508047358194987]},{"name":"chair","coordinates":[0.04754116833209991,0.5753534317016602,0.09516448378562928,0.45179951985677086]},{"name":"bowl","coordinates":[0.24642608165740967,0.6752068837483723,0.08760985732078552,0.07618749936421712]},{"name":"cup","coordinates":[0.24642608165740967,0.6752068837483723,0.08760985732078552,0.07618749936421712]},{"name":"cup","coordinates":[0.3610085964202881,0.6764729817708334,0.08898239731788635,0.07484567165374756]},{"name":"cup","coordinates":[0.48711404800415037,0.6824583689371745,0.08441281318664551,0.07511310577392578]},{"name":"cup","coordinates":[0.3810295581817627,0.620176124572754,0.07482033371925353,0.06004156271616618]},{"name":"cup","coordinates":[0.49068169593811034,0.6207125345865886,0.07158558964729309,0.059100039800008136]},{"name":"cup","coordinates":[0.264237117767334,0.6197051366170248,0.07408574223518372,0.05494292179743449]},{"name":"spoon","coordinates":[0.3162266969680786,0.6700826009114583,0.04382095038890839,0.08817529678344727]},{"name":"cup","coordinates":[0.2860196828842163,0.5709204355875651,0.06801546216011048,0.050400249163309735]},{"name":"cup","coordinates":[0.37304019927978516,0.5694274266560873,0.06075981259346008,0.051181666056315106]}]}
