{"src":"https://a0.muscache.com/im/pictures/ed9750d9-a35b-4c35-ad83-a445aa4ab79d.jpg?aki_policy=xx_large","name":"位于城区，干净宽敞，天然乳胶床垫，设计师自住","listingId":14524846,"photoId":"260-2","tags":[{"name":"diningtable","coordinates":[0.9663156436968453,0.676699447631836,1.7109031194373021,0.508047358194987]},{"name":"chair","coordinates":[0.09628591054602514,0.5753534317016602,0.1927381950088694,0.45179951985677086]},{"name":"bowl","coordinates":[0.49909079829348796,0.6752068837483723,0.17743768571298332,0.07618749936421712]},{"name":"cup","coordinates":[0.49909079829348796,0.6752068837483723,0.17743768571298332,0.07618749936421712]},{"name":"cup","coordinates":[0.7311566509777987,0.6764729817708334,0.18021751355521287,0.07484567165374756]},{"name":"cup","coordinates":[0.9865600972235957,0.6824583689371745,0.17096265961852256,0.07511310577392578]},{"name":"cup","coordinates":[0.7717054342921776,0.620176124572754,0.15153485310228565,0.06004156271616618]},{"name":"cup","coordinates":[0.9937857132923754,0.6207125345865886,0.1449834727033784,0.059100039800008136]},{"name":"cup","coordinates":[0.5351637828199169,0.6197051366170248,0.15004707288138475,0.05494292179743449]},{"name":"spoon","coordinates":[0.6404591330999061,0.6700826009114583,0.08875129192690306,0.08817529678344727]},{"name":"cup","coordinates":[0.5792803703984127,0.5709204355875651,0.13775283475465414,0.050400249163309735]},{"name":"cup","coordinates":[0.7555244542375396,0.5694274266560873,0.12305784829055207,0.051181666056315106]}]}
