{"src":"https://a0.muscache.com/im/pictures/ed9750d9-a35b-4c35-ad83-a445aa4ab79d.jpg?aki_policy=xx_large","name":"位于城区，干净宽敞，天然乳胶床垫，设计师自住","listingId":14524846,"photoId":"260-2","tags":[{"name":"diningtable","coordinates":[0.054739141464233365,0.42267576853434247,0.844758415222168,0.508047358194987]},{"name":"chair","coordinates":[-0.00004107356071472723,0.3494536717732748,0.09516448378562928,0.45179951985677086]},{"name":"bowl","coordinates":[0.2026211529970169,0.6371131340662638,0.08760985732078552,0.07618749936421712]},{"name":"cup","coordinates":[0.2026211529970169,0.6371131340662638,0.08760985732078552,0.07618749936421712]},{"name":"cup","coordinates":[0.3165173977613449,0.6390501459439596,0.08898239731788635,0.07484567165374756]},{"name":"cup","coordinates":[0.4449076414108276,0.6449018160502116,0.08441281318664551,0.07511310577392578]},{"name":"cup","coordinates":[0.3436193913221359,0.5901553432146709,0.07482033371925353,0.06004156271616618]},{"name":"cup","coordinates":[0.4548889011144638,0.5911625146865845,0.07158558964729309,0.059100039800008136]},{"name":"cup","coordinates":[0.22719424664974214,0.5922336757183075,0.07408574223518372,0.05494292179743449]},{"name":"spoon","coordinates":[0.2943162217736244,0.6259949525197347,0.04382095038890839,0.08817529678344727]},{"name":"cup","coordinates":[0.2520119518041611,0.5457203110059102,0.06801546216011048,0.050400249163309735]},{"name":"cup","coordinates":[0.3426602929830551,0.5438365936279297,0.06075981259346008,0.051181666056315106]}]}
