{"src":"https://a0.muscache.com/im/pictures/21217240/7286f3de_original.jpg?aki_policy=xx_large","name":"Trendy house near beach &amp; center","listingId":1421301,"photoId":"261-4","tags":[{"name":"chair","coordinates":[0.3935772458213476,0.6931853612263997,0.6020329048444037,0.5339303970336914]},{"name":"sofa","coordinates":[0.6540586080511245,0.32914419174194337,0.9114399461732915,0.29019575119018554]},{"name":"chair","coordinates":[1.4042726141638338,0.6088930130004883,0.4410031370538049,0.4061567306518555]},{"name":"pottedplant","coordinates":[1.6404819887552302,0.7432483037312826,0.2932748621644003,0.5041852633158366]},{"name":"diningtable","coordinates":[0.9490677369355823,0.5400390625,0.42526909097966786,0.2198324203491211]},{"name":"pottedplant","coordinates":[1.0396555710370903,0.38429994583129884,0.11633279499814766,0.15567866961161295]},{"name":"vase","coordinates":[1.0292014490444126,0.45900964736938477,0.05044625892798771,0.050338029861450195]}]}
