{"src":"https://a0.muscache.com/im/pictures/02d96c14-feda-4836-8757-efe8e0d8a42e.jpg?aki_policy=xx_large","name":"Appartement centrum Den Haag","listingId":14271100,"photoId":"264-1","tags":[{"name":"diningtable","coordinates":[0.2694402270846897,0.5041593233744304,0.33183375464545356,0.3043237050374349]},{"name":"tvmonitor","coordinates":[0.700947994656033,0.5804066975911458,0.20533665551079644,0.2557544708251953]},{"name":"chair","coordinates":[0.23420749240451388,0.5371270497639974,0.11022488276163737,0.28709850311279295]},{"name":"chair","coordinates":[0.3394336700439453,0.5243083318074544,0.11540309058295356,0.2576397577921549]},{"name":"chair","coordinates":[0.08658044073316785,0.5287734985351562,0.09738323423597547,0.2669034957885742]},{"name":"chair","coordinates":[0.42964956495496964,0.4909619967142741,0.08202560212877062,0.2226812998453776]},{"name":"vase","coordinates":[0.5683986663818359,0.640585454305013,0.03965528806050619,0.14342269897460938]}]}
