{"src":"https://a0.muscache.com/im/pictures/6fc933b7-501b-489c-b6d6-3a03fa2bb49b.jpg?aki_policy=xx_large","name":"*설명필독* 창원시 창동 모던빌 50평 규모 스튜디오 요리가능 집전체 단독 사용.","listingId":14579521,"photoId":"265-0","tags":[{"name":"diningtable","coordinates":[0.07078442255655924,0.920232645670573,0.11596293131510417,0.13313086032867433]},{"name":"person","coordinates":[0.10701684315999349,0.7177021026611328,0.06260625839233398,0.21467398007710775]},{"name":"chair","coordinates":[0.40552106221516926,0.7694315592447917,0.08266197840372722,0.1610162576039632]},{"name":"diningtable","coordinates":[0.18525094350179036,0.9194436391194661,0.0821978251139323,0.14171276092529297]},{"name":"tvmonitor","coordinates":[0.2670982869466146,0.17008387247721354,0.0875602912902832,0.08964955806732178]},{"name":"toilet","coordinates":[0.6698919169108073,0.8161453247070313,0.0793394915262858,0.09402000109354655]},{"name":"tvmonitor","coordinates":[0.6653878275553385,0.23837210337320963,0.049635216395060223,0.037379562854766846]}]}
