{"src":"https://a0.muscache.com/im/pictures/6fc933b7-501b-489c-b6d6-3a03fa2bb49b.jpg?aki_policy=xx_large","name":"*설명필독* 창원시 창동 모던빌 50평 규모 스튜디오 요리가능 집전체 단독 사용.","listingId":14579521,"photoId":"265-0","tags":[{"name":"diningtable","coordinates":[0.012802956899007158,0.8536672155062358,0.11596293131510417,0.13313086032867433]},{"name":"person","coordinates":[0.0757137139638265,0.6103651126225789,0.06260625839233398,0.21467398007710775]},{"name":"chair","coordinates":[0.36419007301330564,0.68892343044281,0.08266197840372722,0.1610162576039632]},{"name":"diningtable","coordinates":[0.1441520309448242,0.8485872586568196,0.0821978251139323,0.14171276092529297]},{"name":"tvmonitor","coordinates":[0.22331814130147298,0.12525909344355265,0.0875602912902832,0.08964955806732178]},{"name":"toilet","coordinates":[0.6302221711476644,0.769135324160258,0.0793394915262858,0.09402000109354655]},{"name":"tvmonitor","coordinates":[0.6405702193578084,0.2196823219458262,0.049635216395060223,0.037379562854766846]}]}
