{"src":"https://a0.muscache.com/im/pictures/8ac310c0-a698-46d9-bbdb-5e6ed11363ad.jpg?aki_policy=xx_large","name":"Very spacious 160 m2 house  (800 mtr from beach)","listingId":14275905,"photoId":"266-6","tags":[{"name":"diningtable","coordinates":[0.24887839903121725,0.8140567779541016,0.427201351696257,0.33351160685221354]},{"name":"chair","coordinates":[0.4055183885149153,0.8532304763793945,0.13475329854286774,0.28795210520426434]},{"name":"sofa","coordinates":[0.5937418534487465,0.5672954559326172,0.20357568342314158,0.15961573918660482]},{"name":"chair","coordinates":[0.2860810541756748,0.9094622294108073,0.15145552000076432,0.1663049856821696]},{"name":"vase","coordinates":[0.02265740373932674,0.8287034352620443,0.04724922953245108,0.15398667653401693]},{"name":"bowl","coordinates":[0.9536663404633997,0.7192641576131185,0.09549904536067981,0.07018718719482422]}]}
