{"src":"https://a0.muscache.com/im/pictures/7eed1c83-246d-4796-b259-d9c062a2b336.jpg?aki_policy=xx_large","name":"1 pers. Bedroom with cosy workspace near The Hague","listingId":14296512,"photoId":"267-8","tags":[{"name":"diningtable","coordinates":[0.6643450842963324,0.7364529927571615,0.3307268990410699,0.528963851928711]},{"name":"chair","coordinates":[0.6233300526936849,0.8254367192586263,0.1746087498135037,0.3281762440999349]},{"name":"chair","coordinates":[0.521621576944987,0.7479852676391602,0.10689410103691949,0.4197188059488932]},{"name":"oven","coordinates":[0.2388560824924045,0.6425822575887045,0.1424014303419325,0.3083653450012207]},{"name":"refrigerator","coordinates":[0.4784414503309462,0.4742714881896973,0.1101019541422526,0.33205318450927734]},{"name":"chair","coordinates":[0.5649187723795573,0.5540776570638021,0.06574495633443196,0.062396820386250815]},{"name":"chair","coordinates":[0.6064764234754775,0.5339200337727864,0.05953159332275391,0.05722428560256958]}]}
