{"src":"https://a0.muscache.com/im/pictures/e83e62e8-4fba-4fe0-b78a-9d4bfbf1af0f.jpg?aki_policy=xx_large","name":"Beautiful Apartment with pool in Cancun","listingId":14587936,"photoId":"267-8","tags":[{"name":"diningtable","coordinates":[0.4029070854187012,0.6116086959838867,0.5553505897521973,0.5284282048543294]},{"name":"chair","coordinates":[0.2920160055160522,0.6784259796142578,0.2899409532546997,0.6029932022094726]},{"name":"chair","coordinates":[0.620457935333252,0.705375607808431,0.29456803798675535,0.582914161682129]},{"name":"sofa","coordinates":[0.7539448261260986,0.37974478403727213,0.5193738460540771,0.2502303123474121]},{"name":"chair","coordinates":[0.5998736381530761,0.4810691197713216,0.14710578918457032,0.37852951685587566]},{"name":"chair","coordinates":[0.13444039821624756,0.5798819224039714,0.10857765674591065,0.4731848080952962]},{"name":"pottedplant","coordinates":[0.35502052307128906,0.26430705388387044,0.10660427808761597,0.38227090835571287]},{"name":"chair","coordinates":[0.20149738788604737,0.3623117129007975,0.1298011064529419,0.13408541679382324]},{"name":"chair","coordinates":[0.5151213645935059,0.37458594640096027,0.08430051803588867,0.1673588752746582]},{"name":"vase","coordinates":[0.352742075920105,0.4040001551310221,0.03223658204078674,0.10345126787821451]}]}
