{"src":"https://a0.muscache.com/im/pictures/e83e62e8-4fba-4fe0-b78a-9d4bfbf1af0f.jpg?aki_policy=xx_large","name":"Beautiful Apartment with pool in Cancun","listingId":14587936,"photoId":"267-5","tags":[{"name":"diningtable","coordinates":[0.3581396314832899,0.6116086959838867,0.4936449686686198,0.5284282048543294]},{"name":"chair","coordinates":[0.25956978268093533,0.6784259796142578,0.2577252917819553,0.6029932022094726]},{"name":"chair","coordinates":[0.5515181647406684,0.705375607808431,0.261838255988227,0.582914161682129]},{"name":"sofa","coordinates":[0.6701731787787544,0.37974478403727213,0.46166564093695744,0.2502303123474121]},{"name":"chair","coordinates":[0.5332210116916233,0.4810691197713216,0.13076070149739583,0.37852951685587566]},{"name":"chair","coordinates":[0.11950257619222006,0.5798819224039714,0.09651347266303169,0.4731848080952962]},{"name":"pottedplant","coordinates":[0.3155737982855903,0.26430705388387044,0.09475935830010308,0.38227090835571287]},{"name":"chair","coordinates":[0.1791087892320421,0.3623117129007975,0.1153787612915039,0.13408541679382324]},{"name":"chair","coordinates":[0.45788565741644965,0.37458594640096027,0.07493379380967882,0.1673588752746582]},{"name":"vase","coordinates":[0.3135485119289822,0.4040001551310221,0.02865473959181044,0.10345126787821451]}]}
