{"src":"https://a0.muscache.com/im/pictures/e83e62e8-4fba-4fe0-b78a-9d4bfbf1af0f.jpg?aki_policy=xx_large","name":"Beautiful Apartment with pool in Cancun","listingId":14587936,"photoId":"267-8","tags":[{"name":"diningtable","coordinates":[0.12523179054260253,0.347394593556722,0.5553505897521973,0.5284282048543294]},{"name":"chair","coordinates":[0.14704552888870237,0.37692937850952146,0.2899409532546997,0.6029932022094726]},{"name":"chair","coordinates":[0.4731739163398743,0.41391852696736653,0.29456803798675535,0.582914161682129]},{"name":"sofa","coordinates":[0.49425790309906004,0.2546296278635661,0.5193738460540771,0.2502303123474121]},{"name":"chair","coordinates":[0.526320743560791,0.2918043613433838,0.14710578918457032,0.37852951685587566]},{"name":"chair","coordinates":[0.08015156984329225,0.34328951835632326,0.10857765674591065,0.4731848080952962]},{"name":"pottedplant","coordinates":[0.3017183840274811,0.073171599706014,0.10660427808761597,0.38227090835571287]},{"name":"chair","coordinates":[0.13659683465957642,0.2952690045038859,0.1298011064529419,0.13408541679382324]},{"name":"chair","coordinates":[0.47297110557556155,0.29090650876363117,0.08430051803588867,0.1673588752746582]},{"name":"vase","coordinates":[0.3366237848997116,0.3522745211919148,0.03223658204078674,0.10345126787821451]}]}
