{"src":"https://a0.muscache.com/im/pictures/3afc7acd-0e2d-403c-af09-40b72c3d2e20.jpg?aki_policy=xx_large","name":"Beautiful Apartment with pool in Cancun","listingId":14587936,"photoId":"267-8","tags":[{"name":"chair","coordinates":[0.5048581441243489,0.7735806147257487,0.2429709752400716,0.4108316421508789]},{"name":"chair","coordinates":[0.23557603624131945,0.7438254038492839,0.2177253935072157,0.419534174601237]},{"name":"diningtable","coordinates":[0.46359507242838544,0.5982218424479167,0.45937669542100695,0.18178831736246745]},{"name":"chair","coordinates":[0.6262748718261719,0.7283394495646159,0.15049960878160265,0.480900510152181]},{"name":"sofa","coordinates":[0.18047442966037328,0.5296257019042969,0.2951428943210178,0.20471059481302897]},{"name":"sofa","coordinates":[0.11932738622029622,0.5754267374674479,0.19978213840060763,0.24403306643168132]},{"name":"tvmonitor","coordinates":[0.585513178507487,0.3228606859842936,0.07966393364800348,0.14963388442993164]},{"name":"cup","coordinates":[0.46353853013780383,0.5452924092610677,0.03516360918680827,0.07283337116241455]}]}
