{"src":"https://a0.muscache.com/im/pictures/24d9c3fc-e148-4498-9d92-6fdbadc91c13.jpg?aki_policy=xx_large","name":"Sunny apartment 120m2 private parking place gated.","listingId":14309292,"photoId":"268-3","tags":[{"name":"diningtable","coordinates":[0.7204254765407835,0.8636638641357421,0.5775277546663264,0.24603816668192546]},{"name":"sofa","coordinates":[0.8160291808276147,0.6976809819539388,0.33149168903915477,0.2750949223836263]},{"name":"chair","coordinates":[0.5583080851095595,0.64255797068278,0.14767920498718728,0.284207026163737]},{"name":"chair","coordinates":[0.900374422477632,0.8210252126057943,0.19002125244988924,0.14035143852233886]},{"name":"chair","coordinates":[0.4795248894495961,0.8923546473185221,0.13792462908948272,0.1779272715250651]},{"name":"chair","coordinates":[0.7529574268969337,0.9566991806030274,0.17079025809345683,0.08171043395996094]},{"name":"clock","coordinates":[0.22017081700073837,0.34453859329223635,0.02778664722137769,0.04813731114069621]}]}
