{"src":"https://a0.muscache.com/im/pictures/23ef126f-217a-42c6-b22a-3f34f0220a9f.jpg?aki_policy=xx_large","name":"Sunny apartment 120m2 private parking place gated.","listingId":14309292,"photoId":"268-2","tags":[{"name":"diningtable","coordinates":[0.5149380045686023,0.7177981694539388,1.0930207168335215,0.22656769752502443]},{"name":"chair","coordinates":[0.8368923460302293,0.8554840723673502,0.2652561593337387,0.2845645268758138]},{"name":"chair","coordinates":[0.29675013029881864,0.8704241434733073,0.22087212748789306,0.2426770846048991]},{"name":"chair","coordinates":[0.548836099016244,0.8582664489746094,0.17013699317492073,0.2757192293802897]},{"name":"chair","coordinates":[0.3240779322663308,0.6072249094645182,0.1084358581161234,0.0976802666982015]},{"name":"chair","coordinates":[0.75710043731541,0.6053353627522786,0.12219675155544214,0.08047730127970378]},{"name":"book","coordinates":[0.16111645092145696,0.6823088328043619,0.12352751094985125,0.07189339796702067]},{"name":"book","coordinates":[0.23652978702250912,0.6950319925944011,0.08420757853048721,0.0531758705774943]},{"name":"book","coordinates":[0.35792754639180857,0.6691393534342448,0.09494669624630821,0.04286811351776123]},{"name":"bottle","coordinates":[0.6797599023708956,0.5435080846150716,0.02247230736558184,0.1019413153330485]}]}
