{"src":"https://a0.muscache.com/im/pictures/83da3d84-8edd-42f8-96a5-9dfc79cdf15b.jpg?aki_policy=xx_large","name":"Spacious canal apt in the heart of historic Delft","listingId":14326652,"photoId":"269-3","tags":[{"name":"car","coordinates":[0.44025857713487415,0.9112524032592774,0.2694228066338433,0.16031123797098795]},{"name":"car","coordinates":[0.8890793694390191,0.7622079213460287,0.19055981106228298,0.13322654565175374]},{"name":"car","coordinates":[0.25095651414659287,0.7542744318644206,0.14133546617296006,0.1569800059000651]},{"name":"car","coordinates":[0.6494787851969401,0.6935181935628255,0.12903899086846246,0.08554819424947104]},{"name":"car","coordinates":[0.508155017428928,0.637820307413737,0.10408153533935546,0.08011152744293212]},{"name":"bicycle","coordinates":[0.330702018737793,0.8350332895914714,0.0624331792195638,0.0950547218322754]},{"name":"motorbike","coordinates":[0.030143796073065863,0.6542829513549805,0.0363850540584988,0.0796729326248169]},{"name":"person","coordinates":[0.4058116912841797,0.5725054423014323,0.01134025388293796,0.047852742671966556]}]}
