{"src":"https://a0.muscache.com/im/pictures/60522f30-9f6b-4371-812c-2ed0dc99937e.jpg?aki_policy=xx_large","name":"Alquiler de cuarto para turistas","listingId":14627420,"photoId":"269-1","tags":[{"name":"oven","coordinates":[0.609515889485677,0.5567338943481446,0.329281489054362,0.3241304397583008]},{"name":"diningtable","coordinates":[0.8988674587673611,0.6741533279418945,0.20392030080159504,0.27458130518595375]},{"name":"sink","coordinates":[0.10318513446384006,0.42794567743937173,0.20077357821994357,0.05028433005015055]},{"name":"knife","coordinates":[0.8711793687608507,0.314591121673584,0.024600246217515734,0.039759973684946694]},{"name":"knife","coordinates":[0.9002130296495225,0.31627750396728516,0.026114447911580404,0.03566973606745402]}]}
