{"src":"https://a0.muscache.com/im/pictures/0350a929-1944-4a5e-aad0-e9d006a0aef8.jpg?aki_policy=xx_large","name":"Spacious canal apt in the heart of historic Delft","listingId":14326652,"photoId":"269-1","tags":[{"name":"oven","coordinates":[0.7159849378797744,0.7106651941935221,0.24187350802951388,0.44586734771728515]},{"name":"microwave","coordinates":[0.17780939737955728,0.17152128219604493,0.056231419245402016,0.2968035380045573]},{"name":"clock","coordinates":[0.34104362063937715,0.22091272672017415,0.06239348517523872,0.09514617919921875]},{"name":"pottedplant","coordinates":[0.5821180555555555,0.4588139533996582,0.042457993825276694,0.06170758406321208]},{"name":"knife","coordinates":[0.29940670861138236,0.34216314951578775,0.00667578313085768,0.07065088748931884]}]}
