{"src":"https://a0.muscache.com/im/pictures/c7facbe1-55d8-4793-8b31-df5e0f31055a.jpg?aki_policy=xx_large","name":"Spacious &amp; Very Clean Private Room","listingId":10558836,"photoId":"27-1","tags":[{"name":"sofa","coordinates":[0.2804879512614554,0.7569790522257487,0.40735138978620133,0.4600293477376302]},{"name":"refrigerator","coordinates":[0.8753284616052814,0.487819766998291,0.10309354293006753,0.3792880376180013]},{"name":"laptop","coordinates":[0.5880231293975852,0.780714480082194,0.1559094077104326,0.18442028363545734]},{"name":"oven","coordinates":[0.5495005720932505,0.513578224182129,0.09404496437480998,0.19472378094991047]},{"name":"microwave","coordinates":[0.87202959411918,0.2884382247924805,0.09093826855943797,0.07936832110087076]}]}
