{"src":"https://a0.muscache.com/im/pictures/f9b25056-d030-4f3a-987d-e5a633644da6.jpg?aki_policy=xx_large","name":"Sunny spacious close to the beach","listingId":10715871,"photoId":"27-1","tags":[{"name":"diningtable","coordinates":[0.4835470411512587,0.6354545593261719,0.6705896165635851,0.5132038752237956]},{"name":"chair","coordinates":[0.3776158226860894,0.8157244364420573,0.28235948350694445,0.3439274787902832]},{"name":"chair","coordinates":[0.7221044752332899,0.6970266977945964,0.15988958146837023,0.544489860534668]},{"name":"chair","coordinates":[0.20402577718098958,0.650987180074056,0.14541292190551758,0.38560895919799804]},{"name":"chair","coordinates":[0.6203858269585504,0.4547491709391276,0.07556406656901042,0.08447522322336833]},{"name":"chair","coordinates":[0.5606792449951172,0.43426987330118816,0.07609677314758301,0.0678382953008016]},{"name":"pottedplant","coordinates":[0.29494622548421223,0.2892842610677083,0.042046893967522515,0.10465845266977945]},{"name":"book","coordinates":[0.33725083669026695,0.39855511983235675,0.06800422668457032,0.014369060595830282]},{"name":"book","coordinates":[0.33753543429904515,0.37511618932088214,0.057985681957668726,0.016828163464864095]},{"name":"book","coordinates":[0.3362155066596137,0.4215532302856445,0.07615915934244792,0.012186033527056377]}]}
