{"src":"https://a0.muscache.com/im/pictures/c7facbe1-55d8-4793-8b31-df5e0f31055a.jpg?aki_policy=xx_large","name":"Spacious &amp; Very Clean Private Room","listingId":10558836,"photoId":"27-1","tags":[{"name":"sofa","coordinates":[0.07681225636835476,0.5269643783569335,0.40735138978620133,0.4600293477376302]},{"name":"refrigerator","coordinates":[0.8237816901402477,0.2981757481892904,0.10309354293006753,0.3792880376180013]},{"name":"laptop","coordinates":[0.5100684255423689,0.6885043382644653,0.1559094077104326,0.18442028363545734]},{"name":"oven","coordinates":[0.5024780899058455,0.4162163337071737,0.09404496437480998,0.19472378094991047]},{"name":"microwave","coordinates":[0.826560459839461,0.2487540642420451,0.09093826855943797,0.07936832110087076]}]}
