{"src":"https://a0.muscache.com/im/pictures/301ea276-7efa-4669-adcf-09611b51408c.jpg?aki_policy=xx_large","name":"BEST BEACH HOUSE (beach 3 min walk)","listingId":14402677,"photoId":"273-3","tags":[{"name":"sofa","coordinates":[0.6515526294708252,0.6989641189575195,0.29834020137786865,0.22775208155314128]},{"name":"diningtable","coordinates":[0.10941202640533447,0.8349315643310546,0.24914088249206542,0.24334422747294107]},{"name":"sofa","coordinates":[0.7386635780334473,0.7756295522054036,0.21306567192077636,0.2499712626139323]},{"name":"chair","coordinates":[0.3185057401657104,0.7734789530436198,0.16901105642318726,0.18384049733479818]},{"name":"chair","coordinates":[0.162594211101532,0.8686264038085938,0.11355831623077392,0.2625384966532389]},{"name":"chair","coordinates":[0.04948047399520874,0.8960470835367839,0.10073881149291992,0.21173888842264812]},{"name":"tvmonitor","coordinates":[0.32046918869018554,0.5660711924235026,0.08004324436187744,0.10934996604919434]}]}
