{"src":"https://a0.muscache.com/im/pictures/e5d6f03c-eb04-4ef9-b2b2-3c88cbb94552.jpg?aki_policy=xx_large","name":"Backyard Barn Retreat","listingId":14711149,"photoId":"275-4","tags":[{"name":"oven","coordinates":[0.5550068006900213,0.6477859497070313,0.24311337265155034,0.615203857421875]},{"name":"sink","coordinates":[0.18660937482721823,0.5208988189697266,0.23996423072032025,0.09869576295216878]},{"name":"bowl","coordinates":[0.0964710643252665,0.43295504252115885,0.11875382063663859,0.0812243143717448]},{"name":"bowl","coordinates":[0.6565714604620047,0.06299519538879395,0.060658043863413946,0.06276301940282186]},{"name":"bottle","coordinates":[0.6875426770943913,0.364431889851888,0.030877539222323128,0.11796623865763346]},{"name":"bottle","coordinates":[0.2192089731441857,0.423971684773763,0.03320701528928504,0.09571149349212646]},{"name":"bowl","coordinates":[0.6012703260460899,0.07527577877044678,0.04973091508847808,0.04282587766647339]},{"name":"cup","coordinates":[0.36730032648841116,0.23992988268534343,0.02901988154341798,0.07034614086151122]},{"name":"cup","coordinates":[0.6659829692476115,0.4289207458496094,0.021804449158362774,0.039783509572347005]},{"name":"cup","coordinates":[0.3346610315623894,0.2606079896291097,0.027472669489402256,0.016085246205329896]},{"name":"cup","coordinates":[0.3318414276403817,0.21434570948282877,0.029148182798090002,0.014898329973220825]},{"name":"cup","coordinates":[0.3328086815231334,0.2386145273844401,0.031483649532590786,0.012213005622227987]}]}
