{"src":"https://a0.muscache.com/im/pictures/d5f59b45-c77f-451a-a3c5-8ecb34af0026.jpg?aki_policy=xx_large","name":"Backyard Barn Retreat","listingId":14711149,"photoId":"275-6","tags":[{"name":"pottedplant","coordinates":[0.15970664279654442,0.22997248967488607,0.14223268077369386,0.13966358502705892]},{"name":"bottle","coordinates":[0.4806297710728357,0.8294122695922852,0.07168472369100146,0.21126365661621094]},{"name":"cup","coordinates":[0.7803575057851629,0.4595355987548828,0.09014103943819826,0.15827101071675617]},{"name":"sink","coordinates":[0.5203345106055699,0.9809806823730469,0.2188804903178635,0.04281077782313029]},{"name":"bowl","coordinates":[0.40430638868368146,0.4949241002400716,0.12401250071682049,0.06234057744344076]},{"name":"bowl","coordinates":[0.3135260283844047,0.4889630953470866,0.10228449898886145,0.0544634739557902]},{"name":"bowl","coordinates":[0.40399496707685667,0.3921114285786947,0.12449476014764815,0.036789441108703615]},{"name":"bowl","coordinates":[0.4046803212536431,0.41377223332722984,0.12893149683924332,0.032605842749277754]},{"name":"bowl","coordinates":[0.4041208323213515,0.4418684323628744,0.12963723559865473,0.0283992071946462]},{"name":"bottle","coordinates":[0.25892027754445973,0.24458659489949544,0.045442933657420526,0.07803298632303873]}]}
