{"src":"https://a0.muscache.com/im/pictures/e5d6f03c-eb04-4ef9-b2b2-3c88cbb94552.jpg?aki_policy=xx_large","name":"Backyard Barn Retreat","listingId":14711149,"photoId":"275-4","tags":[{"name":"oven","coordinates":[0.7511729974856322,0.6477859497070313,0.32904137505425346,0.615203857421875]},{"name":"sink","coordinates":[0.2525661366195971,0.5208988189697266,0.32477917433698517,0.09869576295216878]},{"name":"bowl","coordinates":[0.1305685956816107,0.43295504252115885,0.16072715379269187,0.0812243143717448]},{"name":"bowl","coordinates":[0.8886355111425407,0.06299519538879395,0.08209752488410337,0.06276301940282186]},{"name":"bottle","coordinates":[0.9305534508949952,0.364431889851888,0.04179115222331665,0.11796623865763346]},{"name":"bottle","coordinates":[0.2966880067554927,0.423971684773763,0.044943977589808205,0.09571149349212646]},{"name":"bowl","coordinates":[0.8137882861141044,0.07527577877044678,0.0673082212835436,0.04282587766647339]},{"name":"cup","coordinates":[0.49712199360931514,0.23992988268534343,0.039276908640660545,0.07034614086151122]},{"name":"cup","coordinates":[0.901373501481681,0.4289207458496094,0.029511194119508238,0.039783509572347005]},{"name":"cup","coordinates":[0.4529463961663374,0.2606079896291097,0.03718283715375995,0.016085246205329896]},{"name":"cup","coordinates":[0.4491302080994822,0.21434570948282877,0.03945055775258733,0.014898329973220825]},{"name":"cup","coordinates":[0.4504393361994133,0.2386145273844401,0.04261149117773063,0.012213005622227987]}]}
