{"src":"https://a0.muscache.com/im/pictures/e5d6f03c-eb04-4ef9-b2b2-3c88cbb94552.jpg?aki_policy=xx_large","name":"Backyard Barn Retreat","listingId":14711149,"photoId":"275-6","tags":[{"name":"oven","coordinates":[0.5866523099585055,0.3401840209960938,0.32904137505425346,0.615203857421875]},{"name":"sink","coordinates":[0.09017654945110451,0.4715509374936422,0.32477917433698517,0.09869576295216878]},{"name":"bowl","coordinates":[0.05020501878526476,0.39234288533528644,0.16072715379269187,0.0812243143717448]},{"name":"bowl","coordinates":[0.847586748700489,0.031613685687383014,0.08209752488410337,0.06276301940282186]},{"name":"bottle","coordinates":[0.9096578747833368,0.3054487705230713,0.04179115222331665,0.11796623865763346]},{"name":"bottle","coordinates":[0.2742160179605886,0.37611593802769977,0.044943977589808205,0.09571149349212646]},{"name":"bowl","coordinates":[0.7801341754723325,0.05386283993721008,0.0673082212835436,0.04282587766647339]},{"name":"cup","coordinates":[0.47748353928898485,0.2047568122545878,0.039276908640660545,0.07034614086151122]},{"name":"cup","coordinates":[0.8866179044219269,0.4090289910634359,0.029511194119508238,0.039783509572347005]},{"name":"cup","coordinates":[0.43435497758945746,0.25256536652644473,0.03718283715375995,0.016085246205329896]},{"name":"cup","coordinates":[0.4294049292231885,0.20689654449621836,0.03945055775258733,0.014898329973220825]},{"name":"cup","coordinates":[0.42913359061054795,0.23250802457332612,0.04261149117773063,0.012213005622227987]}]}
