{"src":"https://a0.muscache.com/im/pictures/81496b59-4696-42c6-bc50-e851e707ea9b.jpg?aki_policy=xx_large","name":"Industrial-chic ground floor app. in The Hague","listingId":14413975,"photoId":"275-4","tags":[{"name":"chair","coordinates":[0.06948592397901747,0.7776192347208659,0.12386474609375,0.3387290000915527]},{"name":"pottedplant","coordinates":[0.05286365614997016,0.47619864145914714,0.10897340774536132,0.3368228276570638]},{"name":"chair","coordinates":[0.7739224751790365,0.7983387629191081,0.10682011710272896,0.3257760047912598]},{"name":"chair","coordinates":[0.05062632560729981,0.6247021993001302,0.04234845903184679,0.08871179421742757]},{"name":"bottle","coordinates":[0.7400123596191406,0.2842135747273763,0.014168198903401692,0.03969994386037191]},{"name":"bottle","coordinates":[0.7603089226616754,0.28129622141520183,0.013073107931349012,0.03958159287770589]},{"name":"cup","coordinates":[0.7947065565321181,0.45432685216267904,0.015929145283169216,0.03209076126416524]},{"name":"bottle","coordinates":[0.5276535881890191,0.45458145141601564,0.0105381707350413,0.04263521035512288]}]}
