{"src":"https://a0.muscache.com/im/pictures/38e0cb1b-5427-483c-9be4-e4a320cb257d.jpg?aki_policy=xx_large","name":"Room with balcony 50 meters from the beach!","listingId":14510611,"photoId":"277-8","tags":[{"name":"bed","coordinates":[0.6185656229654948,0.8085828145345052,0.7681282891167535,0.3872330665588379]},{"name":"chair","coordinates":[0.9008973015679254,0.6259676615397135,0.1523917939927843,0.1341989517211914]},{"name":"pottedplant","coordinates":[0.5948880513509115,0.4638667106628418,0.10800890392727322,0.11015957991282145]},{"name":"chair","coordinates":[0.980599127875434,0.5429957071940105,0.046687449349297416,0.027492388089497884]},{"name":"vase","coordinates":[0.8967132568359375,0.531671937306722,0.02830032507578532,0.0432392676671346]}]}
