{"src":"https://a0.muscache.com/im/pictures/30d8461d-ec39-42fa-9758-c08199ec5c52.jpg?aki_policy=xx_large","name":"Room with balcony 50 meters from the beach!","listingId":14510611,"photoId":"277-2","tags":[{"name":"diningtable","coordinates":[0.34282450675964354,0.796863047281901,0.3201437473297119,0.36468273798624673]},{"name":"chair","coordinates":[0.2218233585357666,0.8353516260782877,0.19701366424560546,0.3403863271077474]},{"name":"chair","coordinates":[0.45213685035705564,0.7713973999023438,0.16607766151428222,0.3916936874389648]},{"name":"chair","coordinates":[0.33024773597717283,0.7399899164835612,0.13021366596221923,0.36160510381062827]},{"name":"pottedplant","coordinates":[0.5866940498352051,0.5231022834777832,0.11382101774215699,0.29773387908935545]},{"name":"pottedplant","coordinates":[0.7075551986694336,0.5818772633870443,0.13357149362564086,0.20351661046346028]},{"name":"vase","coordinates":[0.20139698982238768,0.6083754857381185,0.032814276218414304,0.10039961338043213]},{"name":"vase","coordinates":[0.5818940162658691,0.6206755956013997,0.029120659828186034,0.09229102134704589]},{"name":"vase","coordinates":[0.23268606662750244,0.6109912872314454,0.026608535647392274,0.08698636690775553]}]}
