{"src":"https://a0.muscache.com/im/pictures/c2b20349-b2cf-4b82-9254-d68e5e138182.jpg?aki_policy=xx_large","name":"Beautiful room close to the center of The Hague","listingId":14531883,"photoId":"279-2","tags":[{"name":"sofa","coordinates":[0.8143826802571614,0.6588943481445313,0.3642743852403429,0.4477686882019043]},{"name":"sofa","coordinates":[0.6029720306396484,0.913226572672526,0.7875300937228733,0.15657416979471842]},{"name":"tvmonitor","coordinates":[0.11950849956936306,0.434939702351888,0.13392616907755533,0.32417685190836587]},{"name":"bowl","coordinates":[0.4482908460828993,0.6088054656982422,0.067669587665134,0.07771349747975667]},{"name":"vase","coordinates":[0.6977449629041884,0.3428951263427734,0.03898637824588352,0.09383865197499593]},{"name":"pottedplant","coordinates":[0.6474669138590495,0.33359575271606445,0.04427098168267144,0.06566399335861206]},{"name":"cup","coordinates":[0.4507476382785373,0.5484427769978841,0.023758660422431098,0.061942772070566816]},{"name":"bottle","coordinates":[0.6079475826687283,0.344248898824056,0.014276398552788628,0.05578864018122355]}]}
