{"src":"https://a0.muscache.com/im/pictures/dd6b0646-94df-4a7d-b46f-b4695b6e342d.jpg?aki_policy=xx_large","name":"Spacious and quiet appartment in the center","listingId":10723619,"photoId":"28-0","tags":[{"name":"sofa","coordinates":[0.2817687511444092,0.6675937652587891,0.42348012924194334,0.32442394892374676]},{"name":"sofa","coordinates":[0.7094993114471435,0.6367492039998373,0.35293457508087156,0.23923754692077637]},{"name":"chair","coordinates":[0.11021932363510131,0.8181199391682943,0.21725015640258788,0.35520143508911134]},{"name":"pottedplant","coordinates":[0.5081792354583741,0.4241857846577962,0.19863213300704957,0.3240940729777018]},{"name":"bowl","coordinates":[0.5358072280883789,0.7734884897867839,0.21389729976654054,0.17605112393697103]}]}
