{"src":"https://a0.muscache.com/im/pictures/bdf3645c-e7d6-4160-90e9-cbec379a2e5e.jpg?aki_policy=xx_large","name":"Spacious and quiet appartment in the center","listingId":10723619,"photoId":"28-6","tags":[{"name":"bowl","coordinates":[0.676536136203342,0.7169504801432292,0.48545379638671876,0.17867767016092936]},{"name":"chair","coordinates":[0.7455449422200521,0.5500929514567058,0.24768738216824002,0.1932764212290446]},{"name":"sofa","coordinates":[0.9136127048068576,0.6258424758911133,0.16701668633355035,0.1956302801767985]},{"name":"pottedplant","coordinates":[0.618796878390842,0.469188658396403,0.12683049307929145,0.17347939809163412]},{"name":"diningtable","coordinates":[0.46757757398817273,0.5139766375223795,0.19225548638237847,0.1064601182937622]},{"name":"chair","coordinates":[0.5211646609836155,0.5181555112202962,0.07956358591715494,0.11031873226165771]},{"name":"chair","coordinates":[0.38183246188693576,0.5138329188028972,0.06563152207268609,0.11136001745859782]},{"name":"book","coordinates":[0.9214393615722656,0.39609896341959633,0.040458594428168404,0.058761441707611085]},{"name":"book","coordinates":[0.9223950703938802,0.3986964225769043,0.016766881942749022,0.04990571737289429]},{"name":"book","coordinates":[0.9231458028157552,0.4595092455546061,0.014093542098999023,0.049414463837941486]},{"name":"book","coordinates":[0.9246449788411458,0.3247758229573568,0.01415269374847412,0.04342015186945598]},{"name":"book","coordinates":[0.9234263102213541,0.2800344149271647,0.012742424011230468,0.04809218645095825]},{"name":"book","coordinates":[0.9046466403537327,0.2826903025309245,0.012062297927008735,0.04769733746846517]}]}
