{"src":"https://a0.muscache.com/im/pictures/d6daf85d-492e-4b79-9728-420a26a50d0d.jpg?aki_policy=xx_large","name":"湖边栖居:水云里(西太湖)","listingId":14775523,"photoId":"280-6","tags":[{"name":"refrigerator","coordinates":[0.11402944106258166,0.6856065114339193,0.20736681575974522,0.6556898752848307]},{"name":"bowl","coordinates":[0.3241996100555314,0.7371449788411458,0.08416898508105128,0.12844766775767008]},{"name":"sink","coordinates":[0.5085603188969948,0.8107964833577473,0.17619068531209167,0.05313279628753662]},{"name":"bottle","coordinates":[0.45852773845818817,0.720073954264323,0.023754813696033862,0.11915527184804281]},{"name":"bottle","coordinates":[0.31388107459304226,0.6183646519978842,0.022381812437901515,0.11523753801981608]}]}
