{"src":"https://a0.muscache.com/im/pictures/173d6058-dfaa-455b-b04c-b16c03254e49.jpg?aki_policy=xx_large","name":"Bizstay Queenshouse 72D","listingId":14563681,"photoId":"280-7","tags":[{"name":"diningtable","coordinates":[0.5178066253662109,0.8331272761027019,0.9572165489196778,0.3018751780192057]},{"name":"vase","coordinates":[0.20769014358520507,0.7236199696858724,0.17005417346954346,0.38227666219075523]},{"name":"vase","coordinates":[0.34037046432495116,0.7777583440144856,0.10415010452270508,0.23217121760050455]},{"name":"book","coordinates":[0.8316474914550781,0.7970022837320964,0.20767505168914796,0.10325520038604737]},{"name":"chair","coordinates":[0.4593008041381836,0.7093767801920573,0.1263416051864624,0.0680138905843099]},{"name":"chair","coordinates":[0.6383152961730957,0.6846735000610351,0.09224452972412109,0.06114867130915324]},{"name":"apple","coordinates":[0.7833524703979492,0.6738286336263021,0.03933505713939667,0.05851298173268636]},{"name":"orange","coordinates":[0.7549183368682861,0.6897706985473633,0.04502395987510681,0.04753811359405517]}]}
