{"src":"https://a0.muscache.com/im/pictures/d6daf85d-492e-4b79-9728-420a26a50d0d.jpg?aki_policy=xx_large","name":"湖边栖居:水云里(西太湖)","listingId":14775523,"photoId":"280-6","tags":[{"name":"refrigerator","coordinates":[0.010346033182709047,0.3577615737915039,0.20736681575974522,0.6556898752848307]},{"name":"bowl","coordinates":[0.28211511751500573,0.6729211449623108,0.08416898508105128,0.12844766775767008]},{"name":"sink","coordinates":[0.420464976240949,0.7842300852139791,0.17619068531209167,0.05313279628753662]},{"name":"bottle","coordinates":[0.44665033161017126,0.6604963183403015,0.023754813696033862,0.11915527184804281]},{"name":"bottle","coordinates":[0.3026901683740915,0.5607458829879761,0.022381812437901515,0.11523753801981608]}]}
