{"src":"https://a0.muscache.com/im/pictures/d6daf85d-492e-4b79-9728-420a26a50d0d.jpg?aki_policy=xx_large","name":"湖边栖居:水云里(西太湖)","listingId":14775523,"photoId":"280-6","tags":[{"name":"refrigerator","coordinates":[0.17045025825500487,0.6856065114339193,0.30997018814086913,0.6556898752848307]},{"name":"bowl","coordinates":[0.4846108754475911,0.7371449788411458,0.12581509749094646,0.12844766775767008]},{"name":"sink","coordinates":[0.7601917266845704,0.8107964833577473,0.2633683681488037,0.05313279628753662]},{"name":"bottle","coordinates":[0.6854034423828125,0.720073954264323,0.035508497556050615,0.11915527184804281]},{"name":"bottle","coordinates":[0.46918681462605794,0.6183646519978842,0.03345614671707153,0.11523753801981608]}]}
