{"src":"https://a0.muscache.com/im/pictures/67429140-e47d-4cc0-a8d8-3ba42d737c28.jpg?aki_policy=xx_large","name":"Super apartment in the heart of The Hague.","listingId":14583725,"photoId":"281-0","tags":[{"name":"diningtable","coordinates":[0.6531786441802978,0.7874364852905273,0.5450467109680176,0.3525773366292318]},{"name":"chair","coordinates":[0.5059658050537109,0.8461383183797201,0.21313557624816895,0.27942482630411786]},{"name":"sofa","coordinates":[0.4705075740814209,0.5585672378540039,0.22126665115356445,0.22313707669576008]},{"name":"chair","coordinates":[0.4705075740814209,0.5585672378540039,0.22126665115356445,0.22313707669576008]},{"name":"chair","coordinates":[0.7450015068054199,0.9020574569702149,0.23468008041381835,0.18098831176757812]},{"name":"sofa","coordinates":[0.1335921049118042,0.5561604817708333,0.11790821552276612,0.18489937782287597]},{"name":"chair","coordinates":[0.7500807762145996,0.4784437497456869,0.11723655462265015,0.15104961395263672]},{"name":"chair","coordinates":[0.7813297271728515,0.5897453308105469,0.11352558135986328,0.1545705795288086]},{"name":"pottedplant","coordinates":[0.5735653877258301,0.35986534754435223,0.07295929193496704,0.19352200826009114]},{"name":"chair","coordinates":[0.6497691154479981,0.5561951955159505,0.09732666611671448,0.14416762987772624]},{"name":"pottedplant","coordinates":[0.4101834774017334,0.40619532267252606,0.05225640535354614,0.12279220422108968]},{"name":"tvmonitor","coordinates":[0.31588470935821533,0.38686227798461914,0.07962577939033508,0.07641868591308594]}]}
