{"src":"https://a0.muscache.com/im/pictures/2f46b92e-383f-463d-a562-a01656c13d5b.jpg?aki_policy=xx_large","name":"Large room with balcony near WorldForum,ICTY&amp;beach","listingId":14590090,"photoId":"282-2","tags":[{"name":"sofa","coordinates":[0.4976580725775825,0.8347777684529623,0.9426589965820312,0.2617737134297689]},{"name":"umbrella","coordinates":[0.7942294650607639,0.27065016428629557,0.3814593844943576,0.3551839828491211]},{"name":"umbrella","coordinates":[0.529322009616428,0.3041803995768229,0.2320954852634006,0.14255367914835612]},{"name":"chair","coordinates":[0.7107353634304471,0.5816722869873047,0.13061245812310113,0.15953838030497233]},{"name":"wine-glass","coordinates":[0.5701459672715928,0.569258181254069,0.037980829344855416,0.12550674279530843]},{"name":"wine-glass","coordinates":[0.4215255313449436,0.5671750386555989,0.042134351200527616,0.11255327860514323]},{"name":"wine-glass","coordinates":[0.5039675394694011,0.5803525924682618,0.03408577971988254,0.127545166015625]},{"name":"wine-glass","coordinates":[0.4737055460611979,0.5705375671386719,0.03152171505822076,0.12303551832834879]},{"name":"cup","coordinates":[0.3947434319390191,0.6335189183553059,0.03776934676700168,0.075861128171285]},{"name":"cup","coordinates":[0.5420249515109592,0.6384630839029948,0.03384848435719808,0.07937828699747722]}]}
