{"src":"https://a0.muscache.com/im/pictures/cc7675f0-2f30-4448-bf08-1a40cc24cd28.jpg?aki_policy=xx_large","name":"Wildwood Place Cottage","listingId":14786053,"photoId":"282-2","tags":[{"name":"refrigerator","coordinates":[0.19311324225531684,0.6693776448567709,0.11730102962917752,0.2591951847076416]},{"name":"microwave","coordinates":[0.11581770579020183,0.3018836339314779,0.126772763994005,0.10758344332377116]},{"name":"sink","coordinates":[0.2878193749321832,0.5056698799133301,0.08580510881212022,0.03217574159304301]},{"name":"bottle","coordinates":[0.190361573961046,0.4575093905131022,0.015306027730305989,0.06573299964269003]},{"name":"bowl","coordinates":[0.14626644982231987,0.47451794942220055,0.023691892623901367,0.02632356286048889]},{"name":"bottle","coordinates":[0.20884327358669705,0.46627925237019857,0.014037189218733046,0.04171683788299561]}]}
