{"src":"https://a0.muscache.com/im/pictures/cc7675f0-2f30-4448-bf08-1a40cc24cd28.jpg?aki_policy=xx_large","name":"Wildwood Place Cottage","listingId":14786053,"photoId":"282-2","tags":[{"name":"refrigerator","coordinates":[0.3585672731752749,0.5397800525029501,0.3128027456778067,0.2591951847076416]},{"name":"microwave","coordinates":[0.1398168634485315,0.2480919122695923,0.33806070398401333,0.10758344332377116]},{"name":"sink","coordinates":[0.6531115214029948,0.4895820091168086,0.22881362349898726,0.03217574159304301]},{"name":"bottle","coordinates":[0.48722282692238134,0.4246428906917572,0.04081607394748264,0.06573299964269003]},{"name":"bowl","coordinates":[0.3584546760276512,0.4613561679919561,0.06317838033040364,0.02632356286048889]},{"name":"bottle","coordinates":[0.538199143939548,0.44542083342870076,0.037432504583288125,0.04171683788299561]}]}
