{"src":"https://a0.muscache.com/im/pictures/cc7675f0-2f30-4448-bf08-1a40cc24cd28.jpg?aki_policy=xx_large","name":"Wildwood Place Cottage","listingId":14786053,"photoId":"282-2","tags":[{"name":"refrigerator","coordinates":[0.5149686460141782,0.6693776448567709,0.3128027456778067,0.2591951847076416]},{"name":"microwave","coordinates":[0.30884721544053817,0.3018836339314779,0.33806070398401333,0.10758344332377116]},{"name":"sink","coordinates":[0.7675183331524884,0.5056698799133301,0.22881362349898726,0.03217574159304301]},{"name":"bottle","coordinates":[0.5076308638961227,0.4575093905131022,0.04081607394748264,0.06573299964269003]},{"name":"bowl","coordinates":[0.39004386619285303,0.47451794942220055,0.06317838033040364,0.02632356286048889]},{"name":"bottle","coordinates":[0.5569153962311921,0.46627925237019857,0.037432504583288125,0.04171683788299561]}]}
