{"src":"https://a0.muscache.com/im/pictures/544bc3bc-30b0-4e91-b2cf-4ee83b8c5d76.jpg?aki_policy=xx_large","name":"Vacaciones con SOL en la Costa.","listingId":14799834,"photoId":"283-7","tags":[{"name":"chair","coordinates":[0.59627439710829,0.5578447818756104,0.2915291680230035,0.4294753074645996]},{"name":"tvmonitor","coordinates":[0.5786767429775662,0.009876728057861328,0.2582075966729058,0.2538686116536458]},{"name":"bottle","coordinates":[0.06922267542945014,0.39522258440653485,0.03384626706441243,0.12894538243611653]},{"name":"sink","coordinates":[-0.0036127037472195103,0.5209218839804332,0.06829235818650987,0.0572943647702535]},{"name":"bottle","coordinates":[0.049601860841115314,0.3918501138687134,0.024577832221984862,0.1329910437266032]}]}
