{"src":"https://a0.muscache.com/im/pictures/c6999070-b946-47e0-b9e5-720696fa6cb7.jpg?aki_policy=xx_large","name":"Classy B&amp;B near to beach, World Forum and ICTY","listingId":14591168,"photoId":"283-0","tags":[{"name":"sofa","coordinates":[0.49629431830512155,0.8362798055013021,0.9513478597005208,0.26034722328186033]},{"name":"umbrella","coordinates":[0.7938445197211371,0.2720894495646159,0.3788003709581163,0.36231654485066733]},{"name":"umbrella","coordinates":[0.5294839223225911,0.3043786684672038,0.23245658874511718,0.14322837193806967]},{"name":"chair","coordinates":[0.7111315409342448,0.5814078013102214,0.13140990999009874,0.15737833976745605]},{"name":"wine-glass","coordinates":[0.4253283182779948,0.569563357035319,0.042009433110555015,0.11520574887593588]},{"name":"wine-glass","coordinates":[0.5702322642008464,0.5675761540730794,0.03906208939022488,0.12322447299957276]},{"name":"wine-glass","coordinates":[0.5043318430582683,0.5804011027018229,0.03381342093149821,0.11935409704844156]},{"name":"cup","coordinates":[0.3939943525526259,0.6343258539835612,0.035106280114915636,0.07738146781921387]},{"name":"cup","coordinates":[0.54208861456977,0.6386372884114583,0.03431402842203776,0.0790249506632487]}]}
