{"src":"https://a0.muscache.com/im/pictures/544bc3bc-30b0-4e91-b2cf-4ee83b8c5d76.jpg?aki_policy=xx_large","name":"Vacaciones con SOL en la Costa.","listingId":14799834,"photoId":"283-6","tags":[{"name":"chair","coordinates":[0.7420389811197917,0.7725824356079102,0.2915291680230035,0.4294753074645996]},{"name":"tvmonitor","coordinates":[0.7077805413140191,0.13681103388468424,0.2582075966729058,0.2538686116536458]},{"name":"bottle","coordinates":[0.08614580896165636,0.4596952756245931,0.03384626706441243,0.12894538243611653]},{"name":"sink","coordinates":[0.030533475346035427,0.5495690663655599,0.06829235818650987,0.0572943647702535]},{"name":"bottle","coordinates":[0.06189077695210775,0.458345635732015,0.024577832221984862,0.1329910437266032]}]}
