{"src":"https://a0.muscache.com/im/pictures/2ed5caf3-7862-48f3-a9f0-102e91ad3a3f.jpg?aki_policy=xx_large","name":"Modern day Native American home","listingId":14825926,"photoId":"286-8","tags":[{"name":"diningtable","coordinates":[0.5362533004195602,0.4073583920796712,0.843872465910735,0.16038440068562826]},{"name":"chair","coordinates":[0.6908496997974537,0.6826342264811198,0.32615915934244794,0.3944448153177897]},{"name":"chair","coordinates":[0.2849167152687355,0.6822566350301107,0.3173251681857639,0.388838005065918]},{"name":"refrigerator","coordinates":[0.5501582392939814,0.2643963654836019,0.22565153616446035,0.17312774658203126]},{"name":"oven","coordinates":[0.22038295887134693,0.3361236890157064,0.2475526597764757,0.15151631037394206]}]}
