{"src":"https://a0.muscache.com/im/pictures/0607d9a7-3efb-4ce0-859a-48c540e43d27.jpg?aki_policy=xx_large","name":"Charming &amp; clean 35m2 studio, beach 500m","listingId":14689393,"photoId":"286-0","tags":[{"name":"bed","coordinates":[0.5918200174967448,0.7550321578979492,0.8198895772298177,0.4833942731221517]},{"name":"pottedplant","coordinates":[0.1359881189134386,0.5908844629923503,0.17353670332166884,0.3770761489868164]},{"name":"tvmonitor","coordinates":[0.2932112587822808,0.5848679224650065,0.10228662490844727,0.14891263643900554]},{"name":"clock","coordinates":[0.1763296021355523,0.36031532287597656,0.03611511124504937,0.07522842884063721]},{"name":"vase","coordinates":[0.43712090386284724,0.6388415018717448,0.02541511058807373,0.0475129763285319]}]}
