{"src":"https://a0.muscache.com/im/pictures/2ed5caf3-7862-48f3-a9f0-102e91ad3a3f.jpg?aki_policy=xx_large","name":"Modern day Native American home","listingId":14825926,"photoId":"286-8","tags":[{"name":"diningtable","coordinates":[0.11431706746419273,0.3271661917368571,0.843872465910735,0.16038440068562826]},{"name":"chair","coordinates":[0.5277701201262297,0.48541181882222495,0.32615915934244794,0.3944448153177897]},{"name":"chair","coordinates":[0.12625413117585357,0.48783763249715173,0.3173251681857639,0.388838005065918]},{"name":"refrigerator","coordinates":[0.4373324712117513,0.1778324921925863,0.22565153616446035,0.17312774658203126]},{"name":"oven","coordinates":[0.09660662898310908,0.26036553382873534,0.2475526597764757,0.15151631037394206]}]}
