{"src":"https://a0.muscache.com/im/pictures/469b69b6-0a2f-48f8-92cb-1c9def26b5b7.jpg?aki_policy=xx_large","name":"Charming &amp; clean 35m2 studio, beach 500m","listingId":14689393,"photoId":"286-1","tags":[{"name":"sofa","coordinates":[0.20164267222086588,0.7784882227579752,0.36798299153645836,0.4293559710184733]},{"name":"sofa","coordinates":[0.8615171644422743,0.8140726089477539,0.28349327511257594,0.3611141840616862]},{"name":"pottedplant","coordinates":[0.5558546278211806,0.5481094360351563,0.14795530107286242,0.31790777842203777]},{"name":"diningtable","coordinates":[0.33420806460910374,0.604968007405599,0.12446549733479818,0.13686877886454266]},{"name":"tvmonitor","coordinates":[0.6869789547390408,0.5498668034871419,0.09857394960191515,0.14238107999165853]},{"name":"chair","coordinates":[0.2640821033053928,0.5982957204182943,0.07188026110331218,0.14277022679646809]},{"name":"chair","coordinates":[0.3770089043511285,0.6006364186604818,0.05061106681823731,0.13506970405578614]},{"name":"clock","coordinates":[0.5716694725884331,0.3524754206339518,0.03306002616882324,0.06054753462473551]},{"name":"vase","coordinates":[0.8607708401150174,0.6245168685913086,0.02292694780561659,0.06300652027130127]}]}
