{"src":"https://a0.muscache.com/im/pictures/2e134ad0-22ce-4196-9702-a07715444743.jpg?aki_policy=xx_large","name":"Cómoda habitación todos los servicios zona sur","listingId":14841251,"photoId":"287-7","tags":[{"name":"sofa","coordinates":[0.2143470287322998,0.7224834442138672,0.35446949005126954,0.46812992095947265]},{"name":"pottedplant","coordinates":[0.19095175266265868,0.8240577697753906,0.23724241256713868,0.2871410369873047]},{"name":"sofa","coordinates":[0.42884244918823244,0.45651556650797526,0.1769705295562744,0.1609583854675293]},{"name":"vase","coordinates":[0.5849937915802002,0.5673309961954752,0.044200348854064944,0.06875783602396647]},{"name":"book","coordinates":[0.508698844909668,0.5697876612345377,0.06407877206802368,0.02166754603385925]}]}
