{"src":"https://a0.muscache.com/im/pictures/2e134ad0-22ce-4196-9702-a07715444743.jpg?aki_policy=xx_large","name":"Cómoda habitación todos los servicios zona sur","listingId":14841251,"photoId":"287-7","tags":[{"name":"sofa","coordinates":[0.03711228370666503,0.4884184837341309,0.35446949005126954,0.46812992095947265]},{"name":"pottedplant","coordinates":[0.07233054637908934,0.6804872512817383,0.23724241256713868,0.2871410369873047]},{"name":"sofa","coordinates":[0.3403571844100952,0.3760363737742106,0.1769705295562744,0.1609583854675293]},{"name":"vase","coordinates":[0.5628936171531677,0.532952078183492,0.044200348854064944,0.06875783602396647]},{"name":"book","coordinates":[0.47665945887565614,0.558953888217608,0.06407877206802368,0.02166754603385925]}]}
