{"src":"https://a0.muscache.com/im/pictures/e72e34b5-b343-4319-abdc-8f0a5de5cb4f.jpg?aki_policy=xx_large","name":"Cómoda habitación todos los servicios zona sur","listingId":14841251,"photoId":"287-10","tags":[{"name":"oven","coordinates":[0.0093231413099501,0.512592871983846,0.605689960055881,0.48321154912312825]},{"name":"bottle","coordinates":[0.3768372164832221,0.4588629961013794,0.06097951465182834,0.0970093568166097]},{"name":"cup","coordinates":[0.5774768564436171,0.4954679687817891,0.06460754606458875,0.05163932641347249]},{"name":"cup","coordinates":[0.48334541320800783,0.5006113449732462,0.05219989352756076,0.05878179868062337]},{"name":"knife","coordinates":[0.4278420064184401,0.4233427504698436,0.019042261441548667,0.048817797501881914]},{"name":"knife","coordinates":[0.4546798487504323,0.466404128074646,0.02145169708463881,0.03839510281880697]},{"name":"knife","coordinates":[0.45409500466452707,0.41894606550534563,0.019858103328280977,0.035352790355682374]},{"name":"knife","coordinates":[0.47237699296739366,0.4703881919384003,0.018422063191731772,0.033255382378896074]}]}
