{"src":"https://a0.muscache.com/im/pictures/e72e34b5-b343-4319-abdc-8f0a5de5cb4f.jpg?aki_policy=xx_large","name":"Cómoda habitación todos los servicios zona sur","listingId":14841251,"photoId":"287-10","tags":[{"name":"oven","coordinates":[0.3121681213378906,0.7541986465454101,0.605689960055881,0.48321154912312825]},{"name":"bottle","coordinates":[0.4073269738091363,0.5073676745096842,0.06097951465182834,0.0970093568166097]},{"name":"cup","coordinates":[0.6097806294759115,0.5212876319885253,0.06460754606458875,0.05163932641347249]},{"name":"cup","coordinates":[0.5094453599717882,0.5300022443135579,0.05219989352756076,0.05878179868062337]},{"name":"knife","coordinates":[0.43736313713921443,0.44775164922078453,0.019042261441548667,0.048817797501881914]},{"name":"knife","coordinates":[0.4654056972927517,0.4856016794840495,0.02145169708463881,0.03839510281880697]},{"name":"knife","coordinates":[0.46402405632866756,0.43662246068318683,0.019858103328280977,0.035352790355682374]},{"name":"knife","coordinates":[0.48158802456325955,0.4870158831278483,0.018422063191731772,0.033255382378896074]}]}
