{"src":"https://a0.muscache.com/im/pictures/4b95493d-5ecf-4f6e-bf93-ec748098676f.jpg?aki_policy=xx_large","name":"BURSA CENTRAL 2 ND FLOOR  APARTMENT","listingId":1489981,"photoId":"294-3","tags":[{"name":"refrigerator","coordinates":[0.5222524590757391,0.5204865455627441,0.15435500115498124,0.3549603144327799]},{"name":"sink","coordinates":[0.286805788395369,0.5621181488037109,0.20364859329317905,0.08870917161305746]},{"name":"chair","coordinates":[0.6467323942933584,0.5276260375976562,0.08037132808621332,0.15216307640075682]},{"name":"bed","coordinates":[0.7764701338226776,0.4268798828125,0.1443156606837489,0.08368091583251953]},{"name":"bottle","coordinates":[0.16950669587447595,0.5127115885416667,0.02210723964492515,0.1259400526682536]},{"name":"chair","coordinates":[0.6466133945933087,0.45055208206176756,0.03907853990977356,0.030868860085805257]}]}
