{"src":"https://a0.muscache.com/im/pictures/5745b6e1-095b-420d-90ef-3767139b157a.jpg?aki_policy=xx_large","name":"Fantastic Beach House near the Sea, 115 sqm! ‚ù§","listingId":14802700,"photoId":"294-6","tags":[{"name":"sofa","coordinates":[0.38938611348470054,0.7430636088053385,0.7967418246799045,0.4297215461730957]},{"name":"diningtable","coordinates":[1.0248539394802518,0.6930398941040039,0.4900136311848958,0.315673033396403]},{"name":"chair","coordinates":[1.2017506917317708,0.6448694864908854,0.24329922993977865,0.2354852835337321]},{"name":"vase","coordinates":[0.49816661410861546,0.4341119130452474,0.0692656781938341,0.07329103946685792]},{"name":"bottle","coordinates":[0.8644442240397135,0.5449207305908204,0.03835329479641385,0.08968611558278401]}]}
