{"src":"https://a0.muscache.com/im/pictures/4b95493d-5ecf-4f6e-bf93-ec748098676f.jpg?aki_policy=xx_large","name":"BURSA CENTRAL 2 ND FLOOR  APARTMENT","listingId":1489981,"photoId":"294-3","tags":[{"name":"refrigerator","coordinates":[0.7287094041044488,0.5204865455627441,0.21537465062634698,0.3549603144327799]},{"name":"sink","coordinates":[0.4001859091772822,0.5621181488037109,0.28415499532164024,0.08870917161305746]},{"name":"chair","coordinates":[0.9023987718403633,0.5276260375976562,0.11214373734197006,0.15216307640075682]},{"name":"bed","coordinates":[1.0834244601244998,0.4268798828125,0.2013665561018319,0.08368091583251953]},{"name":"bottle","coordinates":[0.23651611628790795,0.5127115885416667,0.030846677977463294,0.1259400526682536]},{"name":"chair","coordinates":[0.9022327291554418,0.45055208206176756,0.054527076007110147,0.030868860085805257]}]}
