{"src":"https://a0.muscache.com/im/pictures/d578ad91-d017-4595-9539-8715bb530263.jpg?aki_policy=xx_large","name":"BURSA CENTRAL 2 ND FLOOR  APARTMENT","listingId":1489981,"photoId":"294-6","tags":[{"name":"refrigerator","coordinates":[0.4338691075642903,0.4228947639465332,0.1812458038330078,0.5592009862263997]},{"name":"diningtable","coordinates":[0.7036847750345866,0.600456714630127,0.25552683936225046,0.32061417897542316]},{"name":"chair","coordinates":[0.6438082271152072,0.6302567640940347,0.16591544681125217,0.37933746973673504]},{"name":"chair","coordinates":[0.8744086053636339,0.5819450855255127,0.11049217647976345,0.3210895856221517]},{"name":"sink","coordinates":[0.03849867184956868,0.5430458982785543,0.17717358271280925,0.09796505769093831]},{"name":"bottle","coordinates":[0.07449337177806431,0.48889625072479254,0.020411744382646348,0.06934533119201661]}]}
