{"src":"https://a0.muscache.com/im/pictures/0b410418-8be2-4a42-9f34-68c73cccb51b.jpg?aki_policy=xx_large","name":"Fantastic Beach House near the Sea, 115 sqm! ‚ù§","listingId":14802700,"photoId":"294-0","tags":[{"name":"bed","coordinates":[0.8578141106499566,0.7063694636027018,0.2679626676771376,0.44593210220336915]},{"name":"sofa","coordinates":[0.8578141106499566,0.7063694636027018,0.2679626676771376,0.44593210220336915]},{"name":"chair","coordinates":[0.2193849351671007,0.541542116800944,0.20081428951687283,0.2868112881978353]},{"name":"sofa","coordinates":[0.2193849351671007,0.541542116800944,0.20081428951687283,0.2868112881978353]},{"name":"tvmonitor","coordinates":[0.3694954342312283,0.22037439346313475,0.1164261711968316,0.13628214200337727]},{"name":"vase","coordinates":[0.5656367407904731,0.715402094523112,0.0716384145948622,0.16696039835611978]},{"name":"clock","coordinates":[0.6716086917453342,0.12731425762176513,0.040064279238382974,0.08378242651621501]},{"name":"cup","coordinates":[0.6768683115641276,0.7735239028930664,0.03928783204820421,0.07141338189442953]}]}
