{"src":"https://a0.muscache.com/im/pictures/9dffa809-3b1c-4bd5-b0e1-f3661b40ee40.jpg?aki_policy=xx_large","name":"WiFi Free.Shinjuku 20 min by Odakyu.Room by forest","listingId":14904251,"photoId":"295-0","tags":[{"name":"chair","coordinates":[0.09852192136976454,0.6971210479736328,0.19695860544840496,0.5380428314208985]},{"name":"sofa","coordinates":[0.27964920467800564,0.6480414072672526,0.22950248718261718,0.3427485148111979]},{"name":"chair","coordinates":[0.9070772806803385,0.8622305552164714,0.16837788687811958,0.30699758529663085]},{"name":"tvmonitor","coordinates":[0.7541346232096354,0.47634766896565756,0.06968861156039768,0.22584867477416992]},{"name":"tvmonitor","coordinates":[0.8427416483561198,0.5218922932942708,0.06442860497368706,0.23183104197184246]},{"name":"pottedplant","coordinates":[0.7019690195719401,0.5416807810465495,0.034921593136257596,0.08658141295115153]}]}
