{"src":"https://a0.muscache.com/im/pictures/9dffa809-3b1c-4bd5-b0e1-f3661b40ee40.jpg?aki_policy=xx_large","name":"WiFi Free.Shinjuku 20 min by Odakyu.Room by forest","listingId":14904251,"photoId":"295-0","tags":[{"name":"chair","coordinates":[0.00004261864556205641,0.4280996322631836,0.19695860544840496,0.5380428314208985]},{"name":"sofa","coordinates":[0.16489796108669705,0.4766671498616536,0.22950248718261718,0.3427485148111979]},{"name":"chair","coordinates":[0.8228883372412787,0.708731762568156,0.16837788687811958,0.30699758529663085]},{"name":"tvmonitor","coordinates":[0.7192903174294366,0.3634233315785726,0.06968861156039768,0.22584867477416992]},{"name":"tvmonitor","coordinates":[0.8105273458692762,0.40597677230834955,0.06442860497368706,0.23183104197184246]},{"name":"pottedplant","coordinates":[0.6845082230038113,0.49839007457097373,0.034921593136257596,0.08658141295115153]}]}
