{"src":"https://a0.muscache.com/im/pictures/fe77c9ea-8be7-4cda-9223-b16bc4e84700.jpg?aki_policy=xx_large","name":"In City Centre with good Wi-Fi","listingId":14910637,"photoId":"296-2","tags":[{"name":"oven","coordinates":[0.12675015131632486,0.7505791346232097,0.24557096693250868,0.452304744720459]},{"name":"microwave","coordinates":[0.10784272087944878,0.3027528444925944,0.20951340993245443,0.3466780662536621]},{"name":"sink","coordinates":[0.39970809088812936,0.7735554377237955,0.22151463826497395,0.0946407159169515]},{"name":"sink","coordinates":[0.570232645670573,0.669928232828776,0.19965186648898656,0.029265214999516804]},{"name":"spoon","coordinates":[0.39496099683973523,0.6018648147583008,0.021144027180141873,0.13380303382873535]}]}
