{"src":"https://a0.muscache.com/im/pictures/fe77c9ea-8be7-4cda-9223-b16bc4e84700.jpg?aki_policy=xx_large","name":"In City Centre with good Wi-Fi","listingId":14910637,"photoId":"296-3","tags":[{"name":"oven","coordinates":[0.003964667850070519,0.5244267622629801,0.24557096693250868,0.452304744720459]},{"name":"microwave","coordinates":[0.0030860159132215653,0.12941381136576333,0.20951340993245443,0.3466780662536621]},{"name":"sink","coordinates":[0.2889507717556424,0.7262350797653198,0.22151463826497395,0.0946407159169515]},{"name":"sink","coordinates":[0.4704067124260797,0.6552956253290176,0.19965186648898656,0.029265214999516804]},{"name":"spoon","coordinates":[0.3843889832496643,0.5349632978439331,0.021144027180141873,0.13380303382873535]}]}
