{"src":"https://a0.muscache.com/im/pictures/1e8a4a93-963f-452a-bf74-c74b1c5df2ba.jpg?aki_policy=xx_large","name":"Newly decorated and fully equipped beach loft apar","listingId":14820741,"photoId":"297-0","tags":[{"name":"sofa","coordinates":[0.2412750244140625,0.7469527562459309,0.44690651893615724,0.45010573069254556]},{"name":"diningtable","coordinates":[0.5845731735229492,0.46082766850789386,0.1557403326034546,0.17958676020304362]},{"name":"chair","coordinates":[0.6700163841247558,0.45785967508951825,0.0809518814086914,0.17536953290303547]},{"name":"book","coordinates":[0.8942235946655274,0.3867956161499023,0.017433905601501466,0.054755858580271405]},{"name":"book","coordinates":[0.87479248046875,0.38111677169799807,0.01495569795370102,0.05215933322906494]}]}
