{"src":"https://a0.muscache.com/im/pictures/4a93a61c-cca5-4340-9331-f6ff10796dd4.jpg?aki_policy=xx_large","name":"Large city appartement with garden","listingId":10756008,"photoId":"30-4","tags":[{"name":"chair","coordinates":[0.4730424576696255,0.7750242869059245,0.22230490599160993,0.4127078056335449]},{"name":"chair","coordinates":[0.28568226855088763,0.730905024210612,0.1946318155132843,0.45430161158243815]},{"name":"refrigerator","coordinates":[0.060739925399364667,0.43391682306925455,0.12620146636369164,0.6623531977335612]},{"name":"chair","coordinates":[0.6684920374057636,0.6828951517740885,0.17301971791783197,0.45911378860473634]},{"name":"person","coordinates":[0.4532871587731031,0.22673988342285156,0.15560257611107733,0.2952338536580404]},{"name":"bowl","coordinates":[0.40833906477991244,0.4907042185465495,0.10096531730681542,0.06250460545221964]},{"name":"bowl","coordinates":[0.5070747583292802,0.5106727600097656,0.10158133302681177,0.050991769631703696]}]}
