{"src":"https://a0.muscache.com/im/pictures/330045ec-941e-4b3e-9329-e8598d93cf00.jpg?aki_policy=xx_large","name":"Уют и комфорт- комната длительного проживания","listingId":14975055,"photoId":"300-2","tags":[{"name":"bed","coordinates":[0.7333513895670573,0.7189001719156901,0.5577744377983941,0.5056288401285808]},{"name":"bed","coordinates":[0.7315221150716146,0.24579593340555828,0.5788947211371528,0.1940385341644287]},{"name":"chair","coordinates":[0.37744259304470484,0.602232297261556,0.31194171905517576,0.31639795303344725]},{"name":"pottedplant","coordinates":[0.367825190226237,0.24605563481648762,0.24504424201117622,0.31795600255330403]},{"name":"pottedplant","coordinates":[0.16086805131700305,0.27998329798380533,0.28159010145399305,0.2539828777313232]},{"name":"chair","coordinates":[0.1233412848578559,0.5991160074869791,0.2352174335055881,0.2915006319681803]},{"name":"vase","coordinates":[0.30294844309488933,0.3556985855102539,0.10892196231418186,0.09790403048197428]}]}
