{"src":"https://a0.muscache.com/im/pictures/775ac422-a60b-4644-b975-00c8d398ce48.jpg?aki_policy=xx_large","name":"Charming, Luxurious Apartment close to City Centre","listingId":14849967,"photoId":"300-7","tags":[{"name":"diningtable","coordinates":[0.21796121597290039,0.810397720336914,0.31371519565582273,0.33686256408691406]},{"name":"refrigerator","coordinates":[0.8465670585632324,0.6919642766316731,0.17054544687271117,0.5628408432006836]},{"name":"chair","coordinates":[0.10456957817077636,0.853286870320638,0.19521722793579102,0.2823423703511556]},{"name":"chair","coordinates":[0.16288024187088013,0.6649518966674804,0.08264365196228027,0.046130975087483726]},{"name":"bowl","coordinates":[0.263044548034668,0.6637468338012695,0.071007639169693,0.04100946982701619]}]}
