{"src":"https://a0.muscache.com/im/pictures/330045ec-941e-4b3e-9329-e8598d93cf00.jpg?aki_policy=xx_large","name":"Уют и комфорт- комната длительного проживания","listingId":14975055,"photoId":"300-2","tags":[{"name":"bed","coordinates":[0.3666756947835286,0.7189001719156901,0.27888721889919704,0.5056288401285808]},{"name":"bed","coordinates":[0.3657610575358073,0.24579593340555828,0.2894473605685764,0.1940385341644287]},{"name":"chair","coordinates":[0.18872129652235242,0.602232297261556,0.15597085952758788,0.31639795303344725]},{"name":"pottedplant","coordinates":[0.1839125951131185,0.24605563481648762,0.12252212100558811,0.31795600255330403]},{"name":"pottedplant","coordinates":[0.08043402565850152,0.27998329798380533,0.14079505072699652,0.2539828777313232]},{"name":"chair","coordinates":[0.06167064242892795,0.5991160074869791,0.11760871675279405,0.2915006319681803]},{"name":"vase","coordinates":[0.15147422154744467,0.3556985855102539,0.05446098115709093,0.09790403048197428]}]}
