{"src":"https://a0.muscache.com/im/pictures/51bde71f-bef4-4f99-bfc5-8f899cf68ae5.jpg?aki_policy=xx_large","name":"Уют и комфорт- комната длительного проживания","listingId":14975055,"photoId":"300-4","tags":[{"name":"bed","coordinates":[0.5953314887152777,0.5991455078125,0.8462857564290365,0.7498443603515625]},{"name":"bed","coordinates":[0.5813296000162761,0.3737677892049154,0.7017027113172744,0.20261977513631185]},{"name":"chair","coordinates":[0.131354734632704,0.6769619623819987,0.25993317498101126,0.32516628901163735]},{"name":"pottedplant","coordinates":[0.09878939522637262,0.40284417470296224,0.1977934095594618,0.21550038655598958]},{"name":"book","coordinates":[0.4849368625217014,0.644442621866862,0.21299360063340927,0.08636737664540609]},{"name":"pottedplant","coordinates":[0.05716564390394423,0.43507525126139324,0.11511238945855035,0.14698853492736816]}]}
