{"src":"https://a0.muscache.com/im/pictures/51bde71f-bef4-4f99-bfc5-8f899cf68ae5.jpg?aki_policy=xx_large","name":"Уют и комфорт- комната длительного проживания","listingId":14975055,"photoId":"300-4","tags":[{"name":"bed","coordinates":[0.2976657443576389,0.5991455078125,0.42314287821451824,0.7498443603515625]},{"name":"bed","coordinates":[0.29066480000813805,0.3737677892049154,0.3508513556586372,0.20261977513631185]},{"name":"chair","coordinates":[0.065677367316352,0.6769619623819987,0.12996658749050563,0.32516628901163735]},{"name":"pottedplant","coordinates":[0.04939469761318631,0.40284417470296224,0.0988967047797309,0.21550038655598958]},{"name":"book","coordinates":[0.2424684312608507,0.644442621866862,0.10649680031670464,0.08636737664540609]},{"name":"pottedplant","coordinates":[0.028582821951972114,0.43507525126139324,0.05755619472927517,0.14698853492736816]}]}
