{"src":"https://a0.muscache.com/im/pictures/1004e2b0-7184-43b7-ab37-26d49c67df86.jpg?aki_policy=xx_large","name":"Charming, Luxurious Apartment close to City Centre","listingId":14849967,"photoId":"300-2","tags":[{"name":"chair","coordinates":[0.5819925785064697,0.6694288889567057,0.29301340579986573,0.3674419403076172]},{"name":"sofa","coordinates":[0.11915800571441651,0.37127049763997394,0.216269588470459,0.2258515199025472]},{"name":"sofa","coordinates":[0.5273337364196777,0.3400388399759928,0.16841291189193724,0.17915236155192057]},{"name":"vase","coordinates":[0.6579151153564453,0.24465527534484863,0.01985144764184952,0.03762639760971069]},{"name":"pottedplant","coordinates":[0.3664562702178955,0.22274510065714517,0.019667300581932067,0.02946971853574117]}]}
