{"src":"https://a0.muscache.com/im/pictures/8666d3cd-b39d-44ae-87ac-2479bc64ea51.jpg?aki_policy=xx_large","name":"Уют и комфорт- комната длительного проживания","listingId":14975055,"photoId":"300-18","tags":[{"name":"bed","coordinates":[0.13825764656066894,0.7266022364298502,0.2743443489074707,0.5607455571492513]},{"name":"pottedplant","coordinates":[0.9070319175720215,0.406103515625,0.16727688312530517,0.9077967961629232]},{"name":"pottedplant","coordinates":[0.523367166519165,0.47861579259236653,0.13770853281021117,0.4225457191467285]},{"name":"chair","coordinates":[0.43335304260253904,0.5623797734578451,0.1136377215385437,0.21709353129069012]},{"name":"pottedplant","coordinates":[0.2880105495452881,0.3742177645365397,0.12322810888290406,0.12660282452901203]},{"name":"vase","coordinates":[0.502129602432251,0.6122920354207356,0.04820131063461304,0.17711621920267742]},{"name":"pottedplant","coordinates":[0.7134134769439697,0.39207398096720375,0.04677658081054688,0.07612865765889486]}]}
