{"src":"https://a0.muscache.com/im/pictures/8666d3cd-b39d-44ae-87ac-2479bc64ea51.jpg?aki_policy=xx_large","name":"Уют и комфорт- комната длительного проживания","listingId":14975055,"photoId":"300-18","tags":[{"name":"bed","coordinates":[0.001085472106933577,0.44622945785522455,0.2743443489074707,0.5607455571492513]},{"name":"pottedplant","coordinates":[0.823393476009369,-0.047794882456461574,0.16727688312530517,0.9077967961629232]},{"name":"pottedplant","coordinates":[0.4545129001140594,0.26734293301900225,0.13770853281021117,0.4225457191467285]},{"name":"chair","coordinates":[0.3765341818332672,0.4538330078125,0.1136377215385437,0.21709353129069012]},{"name":"pottedplant","coordinates":[0.22639649510383608,0.3109163522720337,0.12322810888290406,0.12660282452901203]},{"name":"vase","coordinates":[0.4780289471149445,0.5237339258193969,0.04820131063461304,0.17711621920267742]},{"name":"pottedplant","coordinates":[0.6900251865386963,0.3540096521377563,0.04677658081054688,0.07612865765889486]}]}
