{"src":"https://a0.muscache.com/im/pictures/25fbba4d-ec9f-4799-9f88-80e3005b2030.jpg?aki_policy=xx_large","name":"Stylish &amp; cosy villa; beautiful quiet green area","listingId":14854984,"photoId":"301-5","tags":[{"name":"pottedplant","coordinates":[0.9363705952962239,0.5492331822713216,0.12015110651652018,0.14496825536092123]},{"name":"oven","coordinates":[0.28193486531575523,0.5162116368611653,0.09789986080593532,0.17467934290568035]},{"name":"pottedplant","coordinates":[0.8765330844455295,0.5869497299194336,0.07607542673746745,0.14956682523091633]},{"name":"bowl","coordinates":[0.9677254570855035,0.655139414469401,0.07414188385009765,0.09663857618967692]},{"name":"bottle","coordinates":[0.7590127733018663,0.5999074300130208,0.018439610799153645,0.08314549922943115]}]}
