{"src":"https://a0.muscache.com/im/pictures/ee48ef77-a20d-42fe-8558-6134431c53e1.jpg?aki_policy=xx_large","name":"Very cosy apartment in city centre Delft","listingId":14881967,"photoId":"302-7","tags":[{"name":"truck","coordinates":[0.3939128028021918,0.6982201894124349,0.24270299275716145,0.21321412722269695]},{"name":"car","coordinates":[0.23403578864203559,0.7945492426554362,0.25326624976264106,0.18773514429728191]},{"name":"car","coordinates":[0.09388329188028971,0.8951757431030274,0.1953883277045356,0.20190337498982747]},{"name":"car","coordinates":[1.6593826293945313,0.8504722595214844,0.23466673956976997,0.15287750562032063]},{"name":"car","coordinates":[1.4547943115234374,0.7622813542683919,0.24123234219021267,0.10893309116363525]},{"name":"car","coordinates":[1.292134518093533,0.7189974466959635,0.14342679977416992,0.09333992004394531]},{"name":"car","coordinates":[0.5654839409722222,0.7136366526285808,0.10633484522501628,0.06927512486775717]},{"name":"car","coordinates":[1.1533231947157119,0.6832172393798828,0.08627228207058377,0.056297242641448975]},{"name":"clock","coordinates":[0.9099604288736979,0.1977113405863444,0.05513576931423611,0.04467154343922933]},{"name":"person","coordinates":[0.015106870068444146,0.7204626083374024,0.02448170714908176,0.07747047742207845]}]}
