{"src":"https://a0.muscache.com/im/pictures/014386b6-e272-47cb-84ca-c02a1302df1d.jpg?aki_policy=xx_large","name":"cosy room, garden&amp;terracce, close to the airport","listingId":15010456,"photoId":"303-10","tags":[{"name":"sofa","coordinates":[0.6112775683403016,0.607712205251058,0.38639280796051023,0.3205195744832357]},{"name":"diningtable","coordinates":[0.49743394851684575,0.8376105626424153,0.46790142059326173,0.15647837320963542]},{"name":"chair","coordinates":[0.003910851478576657,0.6569162527720134,0.2244485855102539,0.32050930658976234]},{"name":"sofa","coordinates":[0.003910851478576657,0.6569162527720134,0.2244485855102539,0.32050930658976234]},{"name":"pottedplant","coordinates":[0.001761940121650693,0.2082154432932536,0.08942753076553345,0.45106560389200845]},{"name":"pottedplant","coordinates":[0.3576468825340271,0.3783576647440592,0.11930248737335206,0.2823828379313151]},{"name":"tvmonitor","coordinates":[0.23725284337997438,0.4715389013290406,0.15458199977874756,0.17135891914367676]},{"name":"chair","coordinates":[0.7540907979011536,0.8030230720837911,0.20822503566741943,0.10076042016347249]},{"name":"chair","coordinates":[0.43763737678527836,0.8154426495234172,0.08407087326049804,0.17130255699157715]},{"name":"person","coordinates":[0.558989106118679,0.5281385978062948,0.02546394169330597,0.12456793785095215]}]}
