{"src":"https://a0.muscache.com/im/pictures/014386b6-e272-47cb-84ca-c02a1302df1d.jpg?aki_policy=xx_large","name":"cosy room, garden&amp;terracce, close to the airport","listingId":15010456,"photoId":"303-5","tags":[{"name":"sofa","coordinates":[0.8013437234010214,0.7679719924926758,0.3848893339995744,0.3205195744832357]},{"name":"diningtable","coordinates":[0.7285388041099222,0.9158497492472331,0.4660807924975681,0.15647837320963542]},{"name":"chair","coordinates":[0.1156832565129499,0.8171709060668946,0.2235752447106031,0.32050930658976234]},{"name":"sofa","coordinates":[0.1156832565129499,0.8171709060668946,0.2235752447106031,0.32050930658976234]},{"name":"pottedplant","coordinates":[0.04629486618338856,0.4337482452392578,0.08907956371975316,0.45106560389200845]},{"name":"pottedplant","coordinates":[0.41567439810311285,0.5195490837097168,0.11883827536022616,0.2823828379313151]},{"name":"tvmonitor","coordinates":[0.31331993726440904,0.557218360900879,0.1539805133982855,0.17135891914367676]},{"name":"chair","coordinates":[0.8548640032222763,0.8534032821655273,0.2074148215208536,0.10076042016347249]},{"name":"chair","coordinates":[0.47780638223492217,0.9010939280192057,0.08374374924002918,0.17130255699157715]},{"name":"person","coordinates":[0.5694964813351168,0.5904225667317708,0.02536486020811801,0.12456793785095215]}]}
