{"src":"https://a0.muscache.com/im/pictures/014386b6-e272-47cb-84ca-c02a1302df1d.jpg?aki_policy=xx_large","name":"cosy room, garden&amp;terracce, close to the airport","listingId":15010456,"photoId":"303-5","tags":[{"name":"sofa","coordinates":[0.8044739723205566,0.7679719924926758,0.38639280796051023,0.3205195744832357]},{"name":"diningtable","coordinates":[0.7313846588134766,0.9158497492472331,0.46790142059326173,0.15647837320963542]},{"name":"chair","coordinates":[0.11613514423370361,0.8171709060668946,0.2244485855102539,0.32050930658976234]},{"name":"sofa","coordinates":[0.11613514423370361,0.8171709060668946,0.2244485855102539,0.32050930658976234]},{"name":"pottedplant","coordinates":[0.04647570550441742,0.4337482452392578,0.08942753076553345,0.45106560389200845]},{"name":"pottedplant","coordinates":[0.4172981262207031,0.5195490837097168,0.11930248737335206,0.2823828379313151]},{"name":"tvmonitor","coordinates":[0.31454384326934814,0.557218360900879,0.15458199977874756,0.17135891914367676]},{"name":"chair","coordinates":[0.8582033157348633,0.8534032821655273,0.20822503566741943,0.10076042016347249]},{"name":"chair","coordinates":[0.47967281341552737,0.9010939280192057,0.08407087326049804,0.17130255699157715]},{"name":"person","coordinates":[0.571721076965332,0.5904225667317708,0.02546394169330597,0.12456793785095215]}]}
