{"src":"https://a0.muscache.com/im/pictures/15f0fd9f-eb73-4d7a-b994-67f7713df3a8.jpg?aki_policy=xx_large","name":"Fantastic Luxurious Apartment in Center + Parking!","listingId":14891008,"photoId":"303-10","tags":[{"name":"diningtable","coordinates":[0.412565188937717,0.8056770324707031,0.7444988674587674,0.3558320681254069]},{"name":"chair","coordinates":[0.15275761286417644,0.6548639297485351,0.1762012587653266,0.19858160018920898]},{"name":"chair","coordinates":[0.7785449557834201,0.6612215677897135,0.07989078097873265,0.2976940155029297]},{"name":"vase","coordinates":[0.39801788330078125,0.522496509552002,0.04326870971255832,0.21304155985514323]},{"name":"cup","coordinates":[0.49187978108723956,0.6533756256103516,0.037555228339301215,0.06369271278381347]}]}
