{"src":"https://a0.muscache.com/im/pictures/9b0a0153-273e-4c5f-9c5a-69f8e2a332b3.jpg?aki_policy=xx_large","name":"Hostal \"Rojas House\" (ideal parejas y solteros)","listingId":15028386,"photoId":"305-8","tags":[{"name":"chair","coordinates":[0.02740372419357301,0.5291062355041504,0.35401937961578367,0.47894166310628256]},{"name":"chair","coordinates":[0.5038041353225707,0.5383581479390462,0.35225586891174315,0.4548518498738607]},{"name":"diningtable","coordinates":[0.3265928149223328,0.5681384086608886,0.29077293872833254,0.43478094736735023]},{"name":"pottedplant","coordinates":[0.3524758636951446,0.44224919478098546,0.18905986547470094,0.19296132723490397]},{"name":"vase","coordinates":[0.4344586282968521,0.5420327464739482,0.07501518130302429,0.09969127178192139]}]}
