{"src":"https://a0.muscache.com/im/pictures/d234755a-dc80-4fa3-8dcf-7cb97d80a85d.jpg?aki_policy=xx_large","name":"Hostal \"Rojas House\" (ideal parejas y solteros)","listingId":15028386,"photoId":"305-11","tags":[{"name":"chair","coordinates":[0.5245037078857422,0.6855618000030518,0.42251005172729494,0.2894442558288574]},{"name":"pottedplant","coordinates":[0.6555980086326599,0.26935033798217767,0.169653058052063,0.4132901509602865]},{"name":"chair","coordinates":[0.12831128835678102,0.5783226807912191,0.22883107662200927,0.29954754511515297]},{"name":"pottedplant","coordinates":[0.7770735144615173,0.5340552409489949,0.17515060901641846,0.2022753874460856]},{"name":"tvmonitor","coordinates":[0.7691637396812439,0.3865487019220988,0.17907211780548096,0.17294758160909016]},{"name":"pottedplant","coordinates":[0.17143936157226564,0.33552767435709635,0.11246662139892578,0.1636100133260091]},{"name":"pottedplant","coordinates":[0.30246713757514954,0.3251034339269002,0.07285393476486206,0.10490196545918783]},{"name":"bottle","coordinates":[0.4266615971922874,0.36756219069163004,0.015530470013618469,0.06909435590108236]},{"name":"vase","coordinates":[0.33311516121029855,0.37997771302858985,0.022067807614803314,0.047080719470977785]}]}
