{"src":"https://a0.muscache.com/im/pictures/a7feb977-8e46-4d18-90c2-6df7f6bd2541.jpg?aki_policy=xx_large","name":"Hostal \"Rojas House\" (ideal parejas y solteros)","listingId":15028386,"photoId":"305-8","tags":[{"name":"person","coordinates":[0.516686201095581,0.6225480397542318,0.2538398504257202,0.5298617045084636]},{"name":"pottedplant","coordinates":[0.8116236686706543,0.5192694028218587,0.3181024074554443,0.3176268577575684]},{"name":"pottedplant","coordinates":[0.874381160736084,0.8357443491617839,0.2674445152282715,0.33495705922444663]},{"name":"diningtable","coordinates":[0.39884984493255615,0.6855061213175456,0.20354394912719725,0.3341533660888672]},{"name":"chair","coordinates":[0.5822351455688477,0.7239728291829427,0.179999840259552,0.363355827331543]},{"name":"person","coordinates":[0.3713364124298096,0.5763612111409505,0.12831614017486573,0.4267862319946289]},{"name":"chair","coordinates":[0.09781049489974976,0.5611227035522461,0.1236119031906128,0.19532024065653483]},{"name":"pottedplant","coordinates":[0.7203715324401856,0.7113991419474284,0.11912275552749634,0.13610094388326008]},{"name":"pottedplant","coordinates":[0.17990777492523194,0.5334732055664062,0.07768183350563049,0.1316691795984904]},{"name":"pottedplant","coordinates":[0.27335152626037595,0.5217731475830079,0.04494143724441528,0.09016327857971192]},{"name":"cup","coordinates":[0.43507986068725585,0.542224629720052,0.019492959976196288,0.05117798646291097]}]}
