{"src":"https://a0.muscache.com/im/pictures/d234755a-dc80-4fa3-8dcf-7cb97d80a85d.jpg?aki_policy=xx_large","name":"Hostal \"Rojas House\" (ideal parejas y solteros)","listingId":15028386,"photoId":"305-11","tags":[{"name":"chair","coordinates":[0.7357587337493896,0.8302839279174805,0.42251005172729494,0.2894442558288574]},{"name":"pottedplant","coordinates":[0.7404245376586914,0.47599541346232094,0.169653058052063,0.4132901509602865]},{"name":"chair","coordinates":[0.24272682666778564,0.7280964533487956,0.22883107662200927,0.29954754511515297]},{"name":"pottedplant","coordinates":[0.8646488189697266,0.6351929346720377,0.17515060901641846,0.2022753874460856]},{"name":"tvmonitor","coordinates":[0.8586997985839844,0.4730224927266439,0.17907211780548096,0.17294758160909016]},{"name":"pottedplant","coordinates":[0.22767267227172852,0.4173326810201009,0.11246662139892578,0.1636100133260091]},{"name":"pottedplant","coordinates":[0.33889410495758054,0.37755441665649414,0.07285393476486206,0.10490196545918783]},{"name":"bottle","coordinates":[0.43442683219909667,0.4021093686421712,0.015530470013618469,0.06909435590108236]},{"name":"vase","coordinates":[0.3441490650177002,0.40351807276407875,0.022067807614803314,0.047080719470977785]}]}
