{"src":"https://a0.muscache.com/im/pictures/a7feb977-8e46-4d18-90c2-6df7f6bd2541.jpg?aki_policy=xx_large","name":"Hostal \"Rojas House\" (ideal parejas y solteros)","listingId":15028386,"photoId":"305-9","tags":[{"name":"person","coordinates":[0.38976627588272095,0.3576171875,0.2538398504257202,0.5298617045084636]},{"name":"pottedplant","coordinates":[0.6525724649429321,0.36045597394307455,0.3181024074554443,0.3176268577575684]},{"name":"pottedplant","coordinates":[0.7406589031219482,0.6682658195495605,0.2674445152282715,0.33495705922444663]},{"name":"diningtable","coordinates":[0.2970778703689575,0.518429438273112,0.20354394912719725,0.3341533660888672]},{"name":"chair","coordinates":[0.4922352254390717,0.5422949155171712,0.179999840259552,0.363355827331543]},{"name":"person","coordinates":[0.30717834234237673,0.36296809514363604,0.12831614017486573,0.4267862319946289]},{"name":"chair","coordinates":[0.03600454330444336,0.4634625832239787,0.1236119031906128,0.19532024065653483]},{"name":"pottedplant","coordinates":[0.6608101546764374,0.6433486700057983,0.11912275552749634,0.13610094388326008]},{"name":"pottedplant","coordinates":[0.1410668581724167,0.46763861576716104,0.07768183350563049,0.1316691795984904]},{"name":"pottedplant","coordinates":[0.25088080763816833,0.4766915082931519,0.04494143724441528,0.09016327857971192]},{"name":"cup","coordinates":[0.4253333806991577,0.5166356364885966,0.019492959976196288,0.05117798646291097]}]}
