{"src":"https://a0.muscache.com/im/pictures/93675e13-cf54-4a15-a4d8-a92bfa580550.jpg?aki_policy=xx_large","name":"Hostal \"Rojas House\" (ideal parejas y solteros)","listingId":15028386,"photoId":"305-1","tags":[{"name":"sofa","coordinates":[0.07079583406448364,0.678486696879069,0.15258493423461914,0.1799057642618815]},{"name":"chair","coordinates":[0.5095569610595703,0.8533667882283529,0.1108331561088562,0.2278231143951416]},{"name":"pottedplant","coordinates":[0.20193984508514404,0.5504773457845052,0.054889142513275146,0.11102385520935058]},{"name":"bottle","coordinates":[0.2912818670272827,0.5868481953938802,0.019269293546676634,0.07661083539326986]},{"name":"vase","coordinates":[0.20168614387512207,0.5817649205525716,0.018517182767391206,0.04175370534261068]},{"name":"vase","coordinates":[0.26890766620635986,0.5992590586344401,0.014137713611125946,0.05328367948532105]},{"name":"vase","coordinates":[0.35062255859375,0.6289342880249024,0.023088438808917998,0.02390146255493164]}]}
