{"src":"https://a0.muscache.com/im/pictures/f3ef6ebf-8743-468d-8f11-fd3acb695b80.jpg?aki_policy=xx_large","name":"Rang Mahal B&amp;B..home away from home","listingId":10664370,"photoId":"31-14","tags":[{"name":"sofa","coordinates":[0.167293209499783,0.6969484329223633,0.33693887922498916,0.6082188288370768]},{"name":"sofa","coordinates":[0.5736294216579861,0.5321010907491048,0.524896960788303,0.3539515177408854]},{"name":"book","coordinates":[0.5487197028266059,0.7737106959025065,0.14469125535753039,0.13319699764251708]},{"name":"vase","coordinates":[0.5937429640028212,0.6635594685872396,0.046398157543606225,0.10282967885335287]},{"name":"bottle","coordinates":[0.15864607493082683,0.3686155954996745,0.022210599316491022,0.1555902322133382]},{"name":"pottedplant","coordinates":[0.2786482493082682,0.42249259948730467,0.04190605216556125,0.0724496603012085]},{"name":"bottle","coordinates":[0.13793705834282768,0.3929530143737793,0.02236236996120877,0.11938951015472413]}]}
