{"src":"https://a0.muscache.com/im/pictures/c96aedb5-abc1-4d0f-bcd2-293fc9019e22.jpg?aki_policy=xx_large","name":"Rang Mahal B&amp;B..home away from home","listingId":10664370,"photoId":"31-22","tags":[{"name":"person","coordinates":[0.5375074810451932,0.22127577463785802,0.4225346459282769,0.7047505696614583]},{"name":"person","coordinates":[-0.004728306664360887,0.1420315742492676,0.2953756544325087,0.7036005655924479]},{"name":"sofa","coordinates":[0.3151080237494575,0.20599233309427897,0.5152208116319444,0.3395826021830241]},{"name":"diningtable","coordinates":[0.28842078314887154,0.43559943834940584,0.4004765828450521,0.32192920049031576]},{"name":"person","coordinates":[0.12096055348714194,0.11029806137084963,0.27563485039605035,0.40184745788574217]},{"name":"person","coordinates":[0.4525520112779406,0.11656119028727216,0.11190308464898004,0.3434879938761393]},{"name":"bottle","coordinates":[0.4384192930327521,0.3486937522888184,0.03439493444230821,0.17636839548746744]},{"name":"cup","coordinates":[0.2973121616575453,0.505258580048879,0.03467602729797363,0.09770541985829671]},{"name":"cup","coordinates":[0.3519499474101596,0.47017424503962196,0.03555899461110433,0.07354406515757243]},{"name":"cup","coordinates":[0.572517438729604,0.4188783268133799,0.026935829056633845,0.06442363659540812]},{"name":"remote","coordinates":[0.5395449890030755,0.6001461863517762,0.027166295051574706,0.04003419081370036]},{"name":"cell-phone","coordinates":[0.5395449890030755,0.6001461863517762,0.027166295051574706,0.04003419081370036]}]}
