{"src":"https://a0.muscache.com/im/pictures/c96aedb5-abc1-4d0f-bcd2-293fc9019e22.jpg?aki_policy=xx_large","name":"Rang Mahal B&amp;B..home away from home","listingId":10664370,"photoId":"31-22","tags":[{"name":"person","coordinates":[0.7487748040093316,0.5736510594685872,0.4225346459282769,0.7047505696614583]},{"name":"person","coordinates":[0.14295952055189345,0.49383185704549154,0.2953756544325087,0.7036005655924479]},{"name":"sofa","coordinates":[0.5727184295654297,0.375783634185791,0.5152208116319444,0.3395826021830241]},{"name":"diningtable","coordinates":[0.48865907457139757,0.5965640385945638,0.4004765828450521,0.32192920049031576]},{"name":"person","coordinates":[0.2587779786851671,0.3112217903137207,0.27563485039605035,0.40184745788574217]},{"name":"person","coordinates":[0.5085035536024306,0.2883051872253418,0.11190308464898004,0.3434879938761393]},{"name":"bottle","coordinates":[0.45561676025390624,0.4368779500325521,0.03439493444230821,0.17636839548746744]},{"name":"cup","coordinates":[0.3146501753065321,0.5541112899780274,0.03467602729797363,0.09770541985829671]},{"name":"cup","coordinates":[0.3697294447157118,0.5069462776184082,0.03555899461110433,0.07354406515757243]},{"name":"cup","coordinates":[0.585985353257921,0.451090145111084,0.026935829056633845,0.06442363659540812]},{"name":"remote","coordinates":[0.5531281365288628,0.6201632817586263,0.027166295051574706,0.04003419081370036]},{"name":"cell-phone","coordinates":[0.5531281365288628,0.6201632817586263,0.027166295051574706,0.04003419081370036]}]}
