{"src":"https://a0.muscache.com/im/pictures/8b9953a6-b8d2-4df5-ae7e-6649901608dc.jpg?aki_policy=xx_large","name":"Cute apartment in the historical centre of Delft","listingId":14974810,"photoId":"310-5","tags":[{"name":"chair","coordinates":[0.44028052305563903,0.6863257090250651,0.3481616973876953,0.2998521169026693]},{"name":"tvmonitor","coordinates":[0.6521885700714893,0.46906328201293945,0.21474987421280298,0.10662569204966227]},{"name":"tvmonitor","coordinates":[0.538748276539338,0.4683119138081869,0.1927654926593487,0.09077097574869791]},{"name":"pottedplant","coordinates":[0.8373856177696815,0.4870904286702474,0.10205353834690192,0.13822110493977866]},{"name":"laptop","coordinates":[0.6183684911483374,0.5087961514790853,0.1440421495682154,0.06459196011225382]},{"name":"vase","coordinates":[0.8314186487442408,0.5230313618977864,0.058205207188924156,0.05780346790949504]}]}
