{"src":"https://a0.muscache.com/im/pictures/68536284/cbb25895_original.jpg?aki_policy=xx_large","name":"Lovely family home in the Hague","listingId":1497896,"photoId":"311-0","tags":[{"name":"diningtable","coordinates":[0.25508842468261717,0.825937016805013,0.3092656241522895,0.3488197644551595]},{"name":"chair","coordinates":[0.1317715326944987,0.8116093317667643,0.136620913611518,0.3562816619873047]},{"name":"chair","coordinates":[0.32569633060031467,0.8570149739583334,0.17159047656589085,0.2699925422668457]},{"name":"oven","coordinates":[0.8594571431477864,0.6957257588704427,0.09650057686699762,0.2078072388966878]},{"name":"pottedplant","coordinates":[0.1673932605319553,0.5998757044474284,0.10742067760891384,0.173930819829305]},{"name":"bottle","coordinates":[0.7789530436197917,0.5477221171061198,0.01329709423912896,0.06444810231526693]},{"name":"bottle","coordinates":[0.8183097839355469,0.5518187204996745,0.01342664294772678,0.0604565699895223]},{"name":"bottle","coordinates":[0.8370641072591146,0.5517580668131511,0.013516603575812445,0.05998673439025879]},{"name":"bottle","coordinates":[0.7977869669596355,0.5505525588989257,0.012994931803809272,0.05848015944163005]}]}
