{"src":"https://a0.muscache.com/im/pictures/68536271/032870a8_original.jpg?aki_policy=xx_large","name":"Lovely family home in the Hague","listingId":1497896,"photoId":"311-3","tags":[{"name":"diningtable","coordinates":[0.21684919387785573,0.7728537241617839,0.24572473967381864,0.29458932876586913]},{"name":"chair","coordinates":[0.29013761370607843,0.777707290649414,0.11602541437738881,0.3194923400878906]},{"name":"chair","coordinates":[0.18627611575149844,0.8000494003295898,0.10669957970147997,0.2448708693186442]},{"name":"bowl","coordinates":[0.3963226042662005,0.6504769643147786,0.07648302068968793,0.05630882581075033]},{"name":"chair","coordinates":[0.25990349489255776,0.6038399378458659,0.046347299327943126,0.07473210493723552]},{"name":"apple","coordinates":[0.41416599255125086,0.6227949142456055,0.02169266966500988,0.02105067769686381]}]}
