{"src":"https://a0.muscache.com/im/pictures/68536223/70ebe3bf_original.jpg?aki_policy=xx_large","name":"Lovely family home in the Hague","listingId":1497896,"photoId":"311-8","tags":[{"name":"sofa","coordinates":[0.8713272868799948,0.760992431640625,0.23455081009218642,0.35777238210042317]},{"name":"pottedplant","coordinates":[0.8930457925697098,0.4603309631347656,0.18364127598511337,0.3544215520222982]},{"name":"tvmonitor","coordinates":[0.1319327815031326,0.33886992136637367,0.18405206506661528,0.2216783046722412]},{"name":"chair","coordinates":[0.49022512853435546,0.5930788675944011,0.08446701505765723,0.17809195518493653]},{"name":"vase","coordinates":[0.2710538417452984,0.5124899864196777,0.036807324672590284,0.09147978623708089]}]}
