{"src":"https://a0.muscache.com/im/pictures/148c4e8c-ce71-47ba-9c27-de7cbeca6ade.jpg?aki_policy=xx_large","name":"Двухкомнатные апартаменты на Марата 17","listingId":15102449,"photoId":"312-0","tags":[{"name":"refrigerator","coordinates":[0.5877124667167664,0.28701051076253253,0.24356062412261964,0.7057032267252604]},{"name":"diningtable","coordinates":[0.11052947044372557,0.7059990008672079,0.31833348274230955,0.2317568302154541]},{"name":"chair","coordinates":[0.06619046926498415,0.7916237274805704,0.20529298782348632,0.19621485074361164]},{"name":"chair","coordinates":[0.4058341801166534,0.6670044422149658,0.09910558462142945,0.3415864626566569]},{"name":"chair","coordinates":[0.25899367332458495,0.8038946628570557,0.16311120986938477,0.18673645655314128]},{"name":"oven","coordinates":[0.30247696638107296,0.5747075557708741,0.11036756038665771,0.1755247433980306]},{"name":"microwave","coordinates":[0.38111504912376404,0.3577259341875712,0.10511542558670044,0.09096038341522217]},{"name":"chair","coordinates":[0.17318283617496488,0.6493170499801636,0.09702665209770203,0.06779707272847493]},{"name":"microwave","coordinates":[0.39814677834510803,0.4533076902230581,0.07846297025680542,0.0605307936668396]},{"name":"spoon","coordinates":[0.20994751453399657,0.48617990811665857,0.020419788360595704,0.09314292271931966]},{"name":"bottle","coordinates":[0.2690266646444797,0.5442514141400655,0.014897243678569793,0.04797699451446533]}]}
