{"src":"https://a0.muscache.com/im/pictures/27903878/282a05a7_original.jpg?aki_policy=xx_large","name":"Room for 3 - near Beach &amp; Kurhaus","listingId":1501251,"photoId":"312-8","tags":[{"name":"chair","coordinates":[0.655261637935718,0.7815353393554687,0.3472462363634388,0.4504479090372721]},{"name":"chair","coordinates":[0.31481791404755954,0.7492549260457356,0.20332232436815456,0.48993536631266277]},{"name":"tvmonitor","coordinates":[0.6215397565520688,0.17773143450419107,0.19995017442981788,0.31096064249674477]},{"name":"vase","coordinates":[0.40628005068889084,0.5414214452107747,0.022999101620224487,0.05304262638092041]},{"name":"cup","coordinates":[0.3793857876879781,0.5487178802490235,0.022096978772498967,0.04408839543660482]}]}
