{"src":"https://a0.muscache.com/im/pictures/148c4e8c-ce71-47ba-9c27-de7cbeca6ade.jpg?aki_policy=xx_large","name":"Двухкомнатные апартаменты на Марата 17","listingId":15102449,"photoId":"312-0","tags":[{"name":"refrigerator","coordinates":[0.7094927787780761,0.6398621241251627,0.24356062412261964,0.7057032267252604]},{"name":"diningtable","coordinates":[0.26969621181488035,0.8218774159749349,0.31833348274230955,0.2317568302154541]},{"name":"chair","coordinates":[0.1688369631767273,0.8897311528523763,0.20529298782348632,0.19621485074361164]},{"name":"chair","coordinates":[0.45538697242736814,0.8377976735432943,0.09910558462142945,0.3415864626566569]},{"name":"chair","coordinates":[0.34054927825927733,0.8972628911336263,0.16311120986938477,0.18673645655314128]},{"name":"oven","coordinates":[0.35766074657440183,0.6624699274698893,0.11036756038665771,0.1755247433980306]},{"name":"microwave","coordinates":[0.43367276191711424,0.4032061258951823,0.10511542558670044,0.09096038341522217]},{"name":"chair","coordinates":[0.2216961622238159,0.683215586344401,0.09702665209770203,0.06779707272847493]},{"name":"microwave","coordinates":[0.4373782634735107,0.4835730870564779,0.07846297025680542,0.0605307936668396]},{"name":"spoon","coordinates":[0.22015740871429443,0.5327513694763184,0.020419788360595704,0.09314292271931966]},{"name":"bottle","coordinates":[0.2764752864837646,0.5682399113972981,0.014897243678569793,0.04797699451446533]}]}
