{"src":"https://a0.muscache.com/im/pictures/745e9d9d-8647-4f5c-a1a9-f70d98e93d99.jpg?aki_policy=xx_large","name":"Двухкомнатные апартаменты на Марата 17","listingId":15102449,"photoId":"312-7","tags":[{"name":"sofa","coordinates":[0.012154936790466309,0.5682602882385254,0.24472193717956542,0.4180957158406576]},{"name":"diningtable","coordinates":[0.520799970626831,0.8348931868871053,0.46290273666381837,0.14325111707051594]},{"name":"chair","coordinates":[0.4494542717933655,0.7574384848276774,0.14569394588470458,0.24572966893513998]},{"name":"tvmonitor","coordinates":[0.6660985708236694,0.47108507156372076,0.1882509708404541,0.1729580561319987]},{"name":"chair","coordinates":[0.7971262097358705,0.7659684816996257,0.19894006252288818,0.14834740956624348]},{"name":"clock","coordinates":[0.7505369544029236,0.20529564221700033,0.06420271396636963,0.09043629964192708]}]}
