{"src":"https://a0.muscache.com/im/pictures/56ee7937-6336-4d88-9af9-6555336e3b98.jpg?aki_policy=xx_large","name":"Colourful and sunny private room *","listingId":15107379,"photoId":"313-3","tags":[{"name":"sofa","coordinates":[0.5245694478352865,0.7637328465779623,0.332882202996148,0.3405117988586426]},{"name":"sofa","coordinates":[0.23876096937391494,0.6866571426391601,0.14923543930053712,0.19416510264078776]},{"name":"chair","coordinates":[0.23876096937391494,0.6866571426391601,0.14923543930053712,0.19416510264078776]},{"name":"sofa","coordinates":[0.5449331919352214,0.5940897623697917,0.09399034712049696,0.09122715791066488]},{"name":"chair","coordinates":[0.5449331919352214,0.5940897623697917,0.09399034712049696,0.09122715791066488]},{"name":"tvmonitor","coordinates":[0.42609592013888886,0.5485171000162761,0.08234555986192492,0.09055999120076498]},{"name":"microwave","coordinates":[0.8000467088487413,0.5531095504760742,0.09001603656344943,0.07382326126098633]}]}
