{"src":"https://a0.muscache.com/im/pictures/56ee7937-6336-4d88-9af9-6555336e3b98.jpg?aki_policy=xx_large","name":"Colourful and sunny private room *","listingId":15107379,"photoId":"313-3","tags":[{"name":"sofa","coordinates":[0.35812834633721247,0.593476947148641,0.332882202996148,0.3405117988586426]},{"name":"sofa","coordinates":[0.16414324972364638,0.5895745913187662,0.14923543930053712,0.19416510264078776]},{"name":"chair","coordinates":[0.16414324972364638,0.5895745913187662,0.14923543930053712,0.19416510264078776]},{"name":"sofa","coordinates":[0.4979380183749729,0.5484761834144593,0.09399034712049696,0.09122715791066488]},{"name":"chair","coordinates":[0.4979380183749729,0.5484761834144593,0.09399034712049696,0.09122715791066488]},{"name":"tvmonitor","coordinates":[0.3849231402079264,0.5032371044158935,0.08234555986192492,0.09055999120076498]},{"name":"microwave","coordinates":[0.7550386905670166,0.516197919845581,0.09001603656344943,0.07382326126098633]}]}
