{"src":"https://a0.muscache.com/im/pictures/73bf3390-e85f-4e85-919f-f6fd50913b86.jpg?aki_policy=xx_large","name":"Beautiful &amp; classic family house; close to beach.","listingId":15022054,"photoId":"313-6","tags":[{"name":"diningtable","coordinates":[0.302030611038208,0.7695977528889973,0.7543632507324218,0.40364109675089516]},{"name":"chair","coordinates":[0.17537965774536132,0.8717243830362956,0.2886347770690918,0.23431270917256672]},{"name":"chair","coordinates":[0.5275454044342041,0.7832050959269206,0.1543445587158203,0.40998662312825523]},{"name":"chair","coordinates":[0.35177910327911377,0.5939579645792643,0.11858720779418945,0.07132564385732015]},{"name":"bowl","coordinates":[0.04036038815975189,0.5826523462931316,0.08748131394386291,0.0708633025487264]},{"name":"chair","coordinates":[0.21662187576293945,0.5650466283162435,0.09084244966506957,0.06460493008295695]},{"name":"vase","coordinates":[0.6132772445678711,0.4389919916788737,0.054243171215057374,0.059871351718902587]}]}
