{"src":"https://a0.muscache.com/im/pictures/c911f444-36fb-40d0-90f9-f47ec71c0783.jpg?aki_policy=xx_large","name":"Beautiful &amp; classic family house; close to beach.","listingId":15022054,"photoId":"313-8","tags":[{"name":"diningtable","coordinates":[0.4291654109954834,0.615670649210612,0.3487363338470459,0.3024582862854004]},{"name":"chair","coordinates":[0.32052590847015383,0.666511599222819,0.19431896209716798,0.32905104955037434]},{"name":"pottedplant","coordinates":[0.4018139362335205,0.27591129938761394,0.16153050661087037,0.38715105056762694]},{"name":"chair","coordinates":[0.5514533519744873,0.5813944498697917,0.17114096879959106,0.29058602650960286]},{"name":"bench","coordinates":[0.5514533519744873,0.5813944498697917,0.17114096879959106,0.29058602650960286]},{"name":"pottedplant","coordinates":[0.8629246711730957,0.6884278615315755,0.14769718647003174,0.2922210693359375]},{"name":"pottedplant","coordinates":[0.7358529090881347,0.661170768737793,0.15144263505935668,0.2628550211588542]},{"name":"chair","coordinates":[0.17097944021224976,0.5946039835611979,0.12360023260116577,0.29839633305867513]}]}
