{"src":"https://a0.muscache.com/im/pictures/82c79294-0276-4ddd-8d52-6b633ee1d38c.jpg?aki_policy=xx_large","name":"Very central, quiet , two bedrooms , roof terrace","listingId":15097905,"photoId":"314-17","tags":[{"name":"bench","coordinates":[0.33166913210807203,0.8411386489868165,0.5104703074780663,0.291113026936849]},{"name":"pottedplant","coordinates":[0.09429121514506601,0.4696522076924642,0.17887438362551034,0.6163632710774739]},{"name":"chair","coordinates":[0.25160002029132644,0.41990435918172203,0.17422873448629692,0.3618642807006836]},{"name":"pottedplant","coordinates":[0.9381320680322707,0.3574512481689453,0.1229176789708565,0.3742849349975586]},{"name":"sofa","coordinates":[0.5230677262041783,0.3197748819986979,0.251365126131971,0.15373056729634602]},{"name":"pottedplant","coordinates":[0.3721195562918042,0.4280665079752604,0.08568389023071035,0.21692161560058593]},{"name":"pottedplant","coordinates":[0.900307237149279,0.40916112263997395,0.07277673081112372,0.2156046708424886]},{"name":"pottedplant","coordinates":[0.712164226052163,0.3144330660502116,0.07917877897112795,0.18761545817057293]}]}
