{"src":"https://a0.muscache.com/im/pictures/6234c940-b53d-4017-997c-62b256bb921a.jpg?aki_policy=xx_large","name":"Very central, quiet , two bedrooms , roof terrace","listingId":15097905,"photoId":"314-2","tags":[{"name":"refrigerator","coordinates":[0.9295917087131076,0.5227958043416341,0.1375761349995931,1.0493513107299806]},{"name":"oven","coordinates":[0.6617373148600261,0.8088462829589844,0.18502313825819228,0.38769893646240233]},{"name":"diningtable","coordinates":[0.08700558344523111,0.882205073038737,0.14277682834201388,0.25702452659606934]},{"name":"pottedplant","coordinates":[0.4165602366129557,0.40350977579752606,0.08241203625996908,0.0899429718653361]},{"name":"bowl","coordinates":[0.7717274983723958,0.6414941787719727,0.08296288384331597,0.07808404763539632]},{"name":"chair","coordinates":[0.024104001786973743,0.719014040629069,0.05089941554599338,0.11656019687652588]},{"name":"bottle","coordinates":[0.8441969129774306,0.5334348678588867,0.027816743320888942,0.10946752230326334]},{"name":"pottedplant","coordinates":[0.1887770970662435,0.39830923080444336,0.04124832418229845,0.06455279986063639]},{"name":"bowl","coordinates":[0.22894670698377823,0.6062641779581706,0.049860541025797525,0.025645152727762858]},{"name":"bottle","coordinates":[0.08586735195583767,0.39097503026326497,0.01458797189924452,0.07291767597198487]},{"name":"bottle","coordinates":[0.05046105914645725,0.38947941462198893,0.011900533570183648,0.07763300736745199]},{"name":"bottle","coordinates":[0.06678021748860677,0.3933574358622233,0.012311911582946778,0.0656501571337382]},{"name":"bottle","coordinates":[0.10580052269829644,0.3985747337341309,0.012731730937957764,0.05443687041600545]},{"name":"bottle","coordinates":[0.31707509358723956,0.5898452123006185,0.012712687916225858,0.05205612579981486]},{"name":"bottle","coordinates":[0.3342402352227105,0.5921087265014648,0.014323364363776313,0.04064824183781942]}]}
