{"src":"https://a0.muscache.com/im/pictures/0bd1550b-8de9-4cf8-82fa-c62099666bdb.jpg?aki_policy=xx_large","name":"300m from beach, Lovely room (Maison de CanelYa)","listingId":15139333,"photoId":"315-6","tags":[{"name":"diningtable","coordinates":[0.3153600692749023,0.3736327171325683,0.5390109062194824,0.47175680796305336]},{"name":"chair","coordinates":[0.6103933215141297,0.47903013229370117,0.39281866550445554,0.5268679936726888]},{"name":"chair","coordinates":[0.04851062297821043,0.4516870498657226,0.28571906089782717,0.5195522308349609]},{"name":"person","coordinates":[0.14142302274703977,0.24371829032897951,0.2764244318008423,0.5197041511535645]},{"name":"chair","coordinates":[0.30971646308898926,0.5086255073547363,0.2645734786987305,0.46488056182861326]},{"name":"person","coordinates":[0.4611850023269653,0.2247788747151693,0.2688101291656494,0.22848014831542968]},{"name":"chair","coordinates":[0.6978587448596955,0.3967787663141886,0.1220934271812439,0.12059893608093261]},{"name":"laptop","coordinates":[0.39855993390083316,0.3320031364758809,0.0722657561302185,0.09996333916982016]},{"name":"cup","coordinates":[0.3403384625911713,0.39141715764999385,0.030613195896148682,0.07525341510772705]}]}
