{"src":"https://a0.muscache.com/im/pictures/f2d22456-6410-40a7-8565-e9968f47e9cb.jpg?aki_policy=xx_large","name":"Cosy house with terrace, in harbour (incl parking)","listingId":15153316,"photoId":"316-4","tags":[{"name":"refrigerator","coordinates":[0.8531675338745117,0.6973737080891927,0.23416283130645751,0.5612361272176106]},{"name":"chair","coordinates":[0.15921082496643066,0.9244277318318684,0.27179679870605467,0.13900955518086752]},{"name":"oven","coordinates":[0.28444557189941405,0.7786869684855143,0.09641990661621094,0.21670454343159992]},{"name":"pottedplant","coordinates":[0.9698566436767578,0.48555526733398435,0.0562799334526062,0.17617891629536947]},{"name":"bowl","coordinates":[0.8692203521728515,0.38684584299723307,0.10988490581512451,0.03818064133326213]},{"name":"bottle","coordinates":[0.06651986241340638,0.134889554977417,0.025710704922676086,0.11183939774831136]},{"name":"bottle","coordinates":[0.043819156289100644,0.13793994585673014,0.024734966456890106,0.1153778870900472]},{"name":"bottle","coordinates":[0.08946609497070312,0.13086233933766683,0.02213815599679947,0.11384679476420084]},{"name":"bottle","coordinates":[0.18665125370025634,0.18964091936747232,0.023448826372623445,0.08859776655832927]},{"name":"bottle","coordinates":[0.14054996967315675,0.17421603202819824,0.023556166887283327,0.08499300479888916]},{"name":"bottle","coordinates":[0.118269944190979,0.1607478459676107,0.0231158584356308,0.08301812807718913]},{"name":"bottle","coordinates":[0.2768287420272827,0.3613381067911784,0.015735121071338655,0.04724709590276082]},{"name":"bottle","coordinates":[0.2622668981552124,0.35606292088826497,0.01446702927350998,0.043391998608907065]}]}
