{"src":"https://a0.muscache.com/im/pictures/c4b60b69-77cd-42ab-ae4a-82f76556f8f7.jpg?aki_policy=xx_large","name":"Cosy house with terrace, in harbour (incl parking)","listingId":15153316,"photoId":"316-6","tags":[{"name":"pottedplant","coordinates":[0.09275773167610168,0.47402893702189125,0.18357826471328736,0.942009162902832]},{"name":"sofa","coordinates":[0.47187061309814454,0.6280069351196289,0.2561031818389893,0.32246596018473306]},{"name":"pottedplant","coordinates":[0.2508814811706543,0.6202101389567057,0.182233464717865,0.4396810531616211]},{"name":"chair","coordinates":[0.8724209785461425,0.6414855321248373,0.12884409427642823,0.2722076416015625]},{"name":"tvmonitor","coordinates":[0.6594072341918945,0.41119505564371744,0.0547177255153656,0.07863226731618246]},{"name":"pottedplant","coordinates":[0.5901095390319824,0.41173197428385416,0.04095675349235535,0.08489265441894531]},{"name":"bowl","coordinates":[0.7145071506500245,0.4570529301961263,0.05155303478240967,0.03961870272954305]},{"name":"vase","coordinates":[0.5887054920196533,0.43374013900756836,0.014954948425292968,0.03399813175201416]}]}
