{"src":"https://a0.muscache.com/im/pictures/402bd116-c661-4e01-b2b8-478a6749545e.jpg?aki_policy=xx_large","name":"1 bed flat in the heart","listingId":15142987,"photoId":"317-1","tags":[{"name":"sofa","coordinates":[0.864307975769043,0.7352781931559245,0.27617530822753905,0.500563367207845]},{"name":"sofa","coordinates":[0.2811164617538452,0.5907625834147135,0.34259958267211915,0.32500168482462566]},{"name":"sofa","coordinates":[0.059961581230163576,0.7290489832560222,0.11577181816101074,0.517936897277832]},{"name":"tvmonitor","coordinates":[0.8061042785644531,0.4196875254313151,0.2603811740875244,0.19288752873738607]},{"name":"pottedplant","coordinates":[0.1060927152633667,0.41879342397054037,0.07786017060279846,0.23203455607096354]},{"name":"person","coordinates":[0.834926700592041,0.4102757136027018,0.07046100497245789,0.08700939019521077]}]}
