{"src":"https://a0.muscache.com/im/pictures/402bd116-c661-4e01-b2b8-478a6749545e.jpg?aki_policy=xx_large","name":"1 bed flat in the heart","listingId":15142987,"photoId":"317-1","tags":[{"name":"sofa","coordinates":[0.7262203216552734,0.48499650955200196,0.27617530822753905,0.500563367207845]},{"name":"sofa","coordinates":[0.10981667041778562,0.4282617410024007,0.34259958267211915,0.32500168482462566]},{"name":"sofa","coordinates":[0.002075672149658203,0.4700805346171062,0.11577181816101074,0.517936897277832]},{"name":"tvmonitor","coordinates":[0.6759136915206909,0.3232437610626221,0.2603811740875244,0.19288752873738607]},{"name":"pottedplant","coordinates":[0.06716262996196747,0.3027761459350586,0.07786017060279846,0.23203455607096354]},{"name":"person","coordinates":[0.799696198105812,0.3667710185050964,0.07046100497245789,0.08700939019521077]}]}
