{"src":"https://a0.muscache.com/im/pictures/4bc2daab-1def-4f94-be0f-70554f9e2b95.jpg?aki_policy=xx_large","name":"Obanikoro VIP Room, Lagos","listingId":15162095,"photoId":"320-16","tags":[{"name":"bed","coordinates":[0.23880687289767794,0.606220547358195,0.7835258483886719,0.4084932009379069]},{"name":"chair","coordinates":[0.009622250662909615,0.5147587617238363,0.17322922812567818,0.4727862993876139]},{"name":"tvmonitor","coordinates":[0.20319966740078393,0.3274409135182698,0.14629045062594945,0.15936314264933268]},{"name":"tvmonitor","coordinates":[0.09661946826510959,0.32788177331288654,0.10959498087565105,0.1551024278004964]},{"name":"chair","coordinates":[0.1326111872990926,0.4611658175786336,0.05839477645026313,0.2462330977121989]},{"name":"microwave","coordinates":[0.6290133502748277,0.456594181060791,0.06810270415412055,0.06961930592854818]}]}
