{"src":"https://a0.muscache.com/im/pictures/4bc2daab-1def-4f94-be0f-70554f9e2b95.jpg?aki_policy=xx_large","name":"Obanikoro VIP Room, Lagos","listingId":15162095,"photoId":"320-16","tags":[{"name":"bed","coordinates":[0.6305697970920139,0.8104671478271485,0.7835258483886719,0.4084932009379069]},{"name":"chair","coordinates":[0.0962368647257487,0.7511519114176433,0.17322922812567818,0.4727862993876139]},{"name":"tvmonitor","coordinates":[0.27634489271375867,0.40712248484293617,0.14629045062594945,0.15936314264933268]},{"name":"tvmonitor","coordinates":[0.15141695870293512,0.40543298721313475,0.10959498087565105,0.1551024278004964]},{"name":"chair","coordinates":[0.16180857552422417,0.5842823664347331,0.05839477645026313,0.2462330977121989]},{"name":"microwave","coordinates":[0.663064702351888,0.4914038340250651,0.06810270415412055,0.06961930592854818]}]}
