{"src":"https://a0.muscache.com/im/pictures/ea54c427-110d-4c08-90c4-e47da1276ed1.jpg?aki_policy=xx_large","name":"Two bedrooms surf Appartment!","listingId":15201514,"photoId":"322-0","tags":[{"name":"sofa","coordinates":[0.7965179532331906,0.6262521107991537,0.37427189329275234,0.48990802764892577]},{"name":"sofa","coordinates":[0.49518458419221484,0.873187001546224,0.3596936773628257,0.21276424725850424]},{"name":"chair","coordinates":[0.49518458419221484,0.873187001546224,0.3596936773628257,0.21276424725850424]},{"name":"diningtable","coordinates":[0.0979514274930815,0.8370750427246094,0.17388899333275443,0.3224407513936361]},{"name":"pottedplant","coordinates":[0.4322862541710322,0.2168415864308675,0.15053013392857142,0.3382328351338704]},{"name":"chair","coordinates":[0.0922743182835704,0.6039468129475911,0.1452858149136468,0.12861834367116293]},{"name":"pottedplant","coordinates":[0.2113756229856619,0.37937682469685874,0.11799175607219729,0.14286472002665201]},{"name":"pottedplant","coordinates":[0.6436758236009248,0.2951428731282552,0.08673065118817477,0.17466441790262857]},{"name":"pottedplant","coordinates":[0.3303992491074276,0.3666344324747721,0.06843174303238315,0.10413203239440919]},{"name":"pottedplant","coordinates":[0.27416051302984923,0.38066307703653973,0.040308877260969954,0.09485379854838054]},{"name":"pottedplant","coordinates":[0.549625140932489,0.339807383219401,0.03535092189777697,0.08148020108540853]}]}
