{"src":"https://a0.muscache.com/im/pictures/69c5a1a1-dd5c-46c3-8652-32788fd52be7.jpg?aki_policy=xx_large","name":"Two bedrooms surf Appartment!","listingId":15201514,"photoId":"322-5","tags":[{"name":"chair","coordinates":[0.3414833164347727,0.737584940592448,0.37589761577494785,0.557147471110026]},{"name":"keyboard","coordinates":[0.19205649936978442,0.6227546691894531,0.28366598200897514,0.13852756818135578]},{"name":"laptop","coordinates":[0.16298767853844315,0.4667229970296224,0.2476302188029707,0.12780977884928385]},{"name":"laptop","coordinates":[0.03303966071244241,0.46378412246704104,0.08334204683051818,0.22693605422973634]},{"name":"mouse","coordinates":[0.34479491932833145,0.5394311904907226,0.06952040649753619,0.0280943234761556]}]}
