{"src":"https://a0.muscache.com/im/pictures/61c948b6-b8b0-4fac-a10c-efc0431859af.jpg?aki_policy=xx_large","name":"Den Haag, gunstig gelegen nieuw appartement","listingId":15228014,"photoId":"324-4","tags":[{"name":"chair","coordinates":[0.7045989036560059,0.7804007848103841,0.3385038137435913,0.3616774241129557]},{"name":"chair","coordinates":[0.30264573097229003,0.8277222315470377,0.3674048900604248,0.33031005859375]},{"name":"pottedplant","coordinates":[0.5412122726440429,0.4470952033996582,0.23947792053222655,0.1350676695505778]},{"name":"bowl","coordinates":[0.34957098960876465,0.5604057947794596,0.10001224279403687,0.04757915337880452]},{"name":"wine-glass","coordinates":[0.37174358367919924,0.5059980710347494,0.052317237854003905,0.07860976060231527]},{"name":"bowl","coordinates":[0.6657965660095215,0.5354155858357748,0.09180482625961303,0.042900458971659346]}]}
