{"src":"https://a0.muscache.com/im/pictures/7714a7a3-f5f5-453d-87ee-3e895be02c81.jpg?aki_policy=xx_large","name":"Elegant appartment in between beach and citycentre","listingId":15253720,"photoId":"326-4","tags":[{"name":"diningtable","coordinates":[0.7008308834499783,0.8463728586832683,0.6471999274359809,0.2777927080790202]},{"name":"cup","coordinates":[0.9199165344238281,0.7048633575439454,0.10555201636420355,0.25672810872395835]},{"name":"knife","coordinates":[0.9327831692165799,0.8889265696207682,0.13501270082261826,0.11001774470011393]},{"name":"orange","coordinates":[0.7435235765245226,0.795643170674642,0.03615472581651476,0.040084866682688396]},{"name":"orange","coordinates":[0.6793206532796224,0.7676386515299479,0.03507347371843126,0.03697104851404826]},{"name":"orange","coordinates":[0.7139991760253906,0.7710610071818034,0.035096351305643717,0.03535245259602864]},{"name":"orange","coordinates":[0.7447846306694879,0.7731882095336914,0.03383638328976101,0.034151899814605716]}]}
