{"src":"https://a0.muscache.com/im/pictures/cf32fada-1b45-4759-9a89-46df258678e5.jpg?aki_policy=xx_large","name":"北京房屋-地铁站5分钟-安全舒适-紧邻诺德中心、总部基地、丰台科技园，空调，Wi-Fi、空气净化器","listingId":15213811,"photoId":"328-3","tags":[{"name":"bed","coordinates":[0.8846311781141493,0.714056650797526,0.22820046036331743,0.3534113883972168]},{"name":"chair","coordinates":[0.9457336990921585,0.4941431999206543,0.11507153687653718,0.1437363624572754]},{"name":"wine-glass","coordinates":[0.239093667489511,0.36224857966105145,0.05364387653492115,0.1088791290918986]},{"name":"wine-glass","coordinates":[0.22027821011013454,0.36042992273966473,0.047267288631863066,0.0979819377263387]},{"name":"wine-glass","coordinates":[0.30139815719039353,0.3608194986979167,0.04353440955833152,0.10214533805847167]},{"name":"bottle","coordinates":[0.07610125365080657,0.18407899538675945,0.04315206386424877,0.09255015055338542]},{"name":"book","coordinates":[0.4452677973994502,0.39378172556559243,0.038504116623489945,0.04285984039306641]},{"name":"book","coordinates":[0.41595329002097803,0.39339917500813804,0.02676563439545808,0.04898741642634074]}]}
