{"src":"https://a0.muscache.com/im/pictures/8eaf6a29-2a70-46ec-9d6d-31290868d22b.jpg?aki_policy=xx_large","name":"Luxury ground floor apartment. Super location!","listingId":15271806,"photoId":"328-3","tags":[{"name":"diningtable","coordinates":[0.8019924587673611,0.6348161061604818,0.3661206987169054,0.21679032643636068]},{"name":"chair","coordinates":[0.9081696404351128,0.8101051966349284,0.17188762029012045,0.3520599683125814]},{"name":"chair","coordinates":[0.7424895392523871,0.837895393371582,0.16445830663045247,0.3253849347432454]},{"name":"clock","coordinates":[0.682954364352756,0.25333466529846194,0.04966671731736925,0.09065799713134766]},{"name":"wine-glass","coordinates":[0.08807690938313802,0.5045686403910319,0.033906608157687715,0.10173771381378174]},{"name":"wine-glass","coordinates":[0.049642054239908855,0.5103235244750977,0.029939497841729057,0.09819724559783935]},{"name":"wine-glass","coordinates":[0.016193173991309272,0.5133028030395508,0.028489279747009277,0.10133856137593587]},{"name":"book","coordinates":[0.02654989825354682,0.6879968007405599,0.027281231350368924,0.10362132390340169]},{"name":"wine-glass","coordinates":[0.06587336858113607,0.5072798728942871,0.02715736495123969,0.09848272800445557]},{"name":"book","coordinates":[0.014568690458933513,0.6899412155151368,0.024330563015407987,0.10942413012186686]},{"name":"bowl","coordinates":[0.8925743103027344,0.569128672281901,0.047548034456041124,0.04624040524164836]},{"name":"book","coordinates":[0.04705077277289497,0.6832699457804362,0.014960735374026828,0.07653493086496989]},{"name":"book","coordinates":[0.0650725523630778,0.6846616744995118,0.01545931233300103,0.060684295495351155]}]}
