{"src":"https://a0.muscache.com/im/pictures/cf32fada-1b45-4759-9a89-46df258678e5.jpg?aki_policy=xx_large","name":"北京房屋-地铁站5分钟-安全舒适-紧邻诺德中心、总部基地、丰台科技园，空调，Wi-Fi、空气净化器","listingId":15213811,"photoId":"328-3","tags":[{"name":"bed","coordinates":[0.3456590710431553,0.714056650797526,0.08916660535180275,0.3534113883972168]},{"name":"chair","coordinates":[0.3695341515989621,0.4941431999206543,0.044962829170282256,0.1437363624572754]},{"name":"wine-glass","coordinates":[0.09342299597998259,0.36224857966105145,0.02096070429005602,0.1088791290918986]},{"name":"wine-glass","coordinates":[0.08607108065084852,0.36042992273966473,0.018469128698412485,0.0979819377263387]},{"name":"wine-glass","coordinates":[0.11776773146368488,0.3608194986979167,0.01701055076808902,0.10214533805847167]},{"name":"bottle","coordinates":[0.029735656274555388,0.18407899538675945,0.016861153753034975,0.09255015055338542]},{"name":"book","coordinates":[0.17398307568430038,0.39378172556559243,0.015045023861566259,0.04285984039306641]},{"name":"book","coordinates":[0.16252878191847187,0.39339917500813804,0.010458352079267267,0.04898741642634074]}]}
