{"src":"https://a0.muscache.com/im/pictures/cf32fada-1b45-4759-9a89-46df258678e5.jpg?aki_policy=xx_large","name":"北京房屋-地铁站5分钟-安全舒适-紧邻诺德中心、总部基地、丰台科技园，空调，Wi-Fi、空气净化器","listingId":15213811,"photoId":"328-3","tags":[{"name":"bed","coordinates":[0.7705309479324906,0.5373509565989176,0.22820046036331743,0.3534113883972168]},{"name":"chair","coordinates":[0.88819793065389,0.4222750186920166,0.11507153687653718,0.1437363624572754]},{"name":"wine-glass","coordinates":[0.21227172922205043,0.30780901511510217,0.05364387653492115,0.1088791290918986]},{"name":"wine-glass","coordinates":[0.196644565794203,0.3114389538764954,0.047267288631863066,0.0979819377263387]},{"name":"wine-glass","coordinates":[0.27963095241122776,0.30974682966868083,0.04353440955833152,0.10214533805847167]},{"name":"bottle","coordinates":[0.05452522171868218,0.13780392011006676,0.04315206386424877,0.09255015055338542]},{"name":"book","coordinates":[0.42601573908770524,0.3723518053690592,0.038504116623489945,0.04285984039306641]},{"name":"book","coordinates":[0.402570472823249,0.36890546679496766,0.02676563439545808,0.04898741642634074]}]}
