{"src":"https://a0.muscache.com/im/pictures/70a2c48f-ad8d-4a8e-9eea-f690d12ab376.jpg?aki_policy=xx_large","name":"Pousada Ada Negri","listingId":15234809,"photoId":"329-3","tags":[{"name":"refrigerator","coordinates":[0.1906065940856934,0.1539188385009766,0.21307701534695095,0.7024415334065756]},{"name":"diningtable","coordinates":[0.5145312203301324,0.6969603061676026,0.4258468204074436,0.2778042157491048]},{"name":"chair","coordinates":[0.4122978051503499,0.6816489855448404,0.14583539962768555,0.30397930145263674]},{"name":"chair","coordinates":[0.6480024761623806,0.555877963701884,0.18477965460883247,0.14844050407409667]},{"name":"microwave","coordinates":[0.20739683045281304,0.07789947191874186,0.15705633163452148,0.13864488601684571]},{"name":"bottle","coordinates":[0.4794267376263936,0.3124458352724711,0.024639397197299535,0.11063485940297445]}]}
