{"src":"https://a0.muscache.com/im/pictures/70a2c48f-ad8d-4a8e-9eea-f690d12ab376.jpg?aki_policy=xx_large","name":"Pousada Ada Negri","listingId":15234809,"photoId":"329-3","tags":[{"name":"refrigerator","coordinates":[0.29714510175916886,0.5051396052042644,0.21307701534695095,0.7024415334065756]},{"name":"diningtable","coordinates":[0.7274546305338542,0.835862414042155,0.4258468204074436,0.2778042157491048]},{"name":"chair","coordinates":[0.4852155049641927,0.8336386362711589,0.14583539962768555,0.30397930145263674]},{"name":"chair","coordinates":[0.7403923034667969,0.6300982157389323,0.18477965460883247,0.14844050407409667]},{"name":"microwave","coordinates":[0.2859249962700738,0.14722191492716472,0.15705633163452148,0.13864488601684571]},{"name":"bottle","coordinates":[0.4917464362250434,0.36776326497395834,0.024639397197299535,0.11063485940297445]}]}
