{"src":"https://a0.muscache.com/im/pictures/acc6308b-14be-4449-8a54-133f16bdde1d.jpg?aki_policy=xx_large","name":"Eigen charmant appartemant op perfecte locatie","listingId":15357641,"photoId":"330-0","tags":[{"name":"sofa","coordinates":[0.8800545586480035,0.6169387817382812,0.233571285671658,0.41019891103108724]},{"name":"pottedplant","coordinates":[0.6727450052897136,0.5145490010579427,0.10596128039889866,0.24026732444763182]},{"name":"pottedplant","coordinates":[0.5184568193223741,0.5314192771911621,0.11594107945760092,0.18659029006958008]},{"name":"vase","coordinates":[0.5224377102322049,0.594569714864095,0.037259880701700845,0.08214734395345052]},{"name":"book","coordinates":[0.9519338819715711,0.2777554194132487,0.017000293731689452,0.07825214862823486]},{"name":"bottle","coordinates":[0.23638195461697048,0.33311131795247395,0.01388735506269667,0.09399444262186686]},{"name":"bottle","coordinates":[0.21970303853352866,0.33134425481160484,0.013531238502926297,0.08695126374562581]}]}
