{"src":"https://a0.muscache.com/im/pictures/d949fcff-0011-487d-a9ca-e484ae9d7113.jpg?aki_policy=xx_large","name":"Shell Residences Condo","listingId":15241349,"photoId":"330-1","tags":[{"name":"tvmonitor","coordinates":[0.9527450561523437,0.7351689020792643,0.0952842116355896,0.48664426803588867]},{"name":"chair","coordinates":[0.6228857517242432,0.9036259969075521,0.19329326152801513,0.1891936461130778]},{"name":"chair","coordinates":[0.3569075584411621,0.9034473419189453,0.17782496213912963,0.18418243726094563]},{"name":"pottedplant","coordinates":[0.43777995109558104,0.11548178990681966,0.17700908184051514,0.1592239220937093]},{"name":"chair","coordinates":[0.04854359924793243,0.8783530553181966,0.0871396005153656,0.2348934809366862]},{"name":"chair","coordinates":[0.874813461303711,0.8836619695027669,0.08705834150314332,0.22688988049825032]},{"name":"chair","coordinates":[0.17628501653671264,0.8450412114461263,0.05941570997238159,0.21850132942199707]},{"name":"chair","coordinates":[0.7391410827636719,0.8297599156697592,0.06442063450813293,0.1840586503346761]},{"name":"chair","coordinates":[0.6785249233245849,0.7896895090738932,0.07672610878944397,0.13474106788635254]},{"name":"vase","coordinates":[0.5115046501159668,0.8223707199096679,0.034385707974433896,0.09725448290506998]}]}
