{"src":"https://a0.muscache.com/im/pictures/05ad5ef7-813c-4aef-bb3d-47351174fda3.jpg?aki_policy=xx_large","name":"Ramosa Guest House Pyramids View","listingId":15251455,"photoId":"331-5","tags":[{"name":"person","coordinates":[0.26242047264462426,0.6144216537475586,0.2515009471348354,0.7105987548828125]},{"name":"diningtable","coordinates":[0.4687623069399879,0.7423624038696289,0.36261935461135136,0.3504080136617025]},{"name":"person","coordinates":[0.6866541362944103,0.6274627685546875,0.1935002009073893,0.641681989034017]},{"name":"pottedplant","coordinates":[0.5331934066045851,0.49314673741658527,0.04279157945087978,0.09292113780975342]},{"name":"cup","coordinates":[0.3752551759992327,0.5601156870524089,0.03395584083738781,0.0483849843343099]},{"name":"cup","coordinates":[0.5056935264950707,0.5430870691935221,0.032047223477136524,0.04252535104751587]}]}
