{"src":"https://a0.muscache.com/im/pictures/05ad5ef7-813c-4aef-bb3d-47351174fda3.jpg?aki_policy=xx_large","name":"Ramosa Guest House Pyramids View","listingId":15251455,"photoId":"331-8","tags":[{"name":"person","coordinates":[0.24492577446831598,0.6144216537475586,0.23473421732584634,0.7105987548828125]},{"name":"diningtable","coordinates":[0.4375114864773221,0.7423624038696289,0.33844473097059463,0.3504080136617025]},{"name":"person","coordinates":[0.640877193874783,0.6274627685546875,0.18060018751356338,0.641681989034017]},{"name":"pottedplant","coordinates":[0.49764717949761283,0.49314673741658527,0.03993880748748779,0.09292113780975342]},{"name":"cup","coordinates":[0.3502381642659505,0.5601156870524089,0.03169211811489529,0.0483849843343099]},{"name":"cup","coordinates":[0.47198062472873265,0.5430870691935221,0.029910741911994086,0.04252535104751587]}]}
