{"src":"https://a0.muscache.com/im/pictures/05ad5ef7-813c-4aef-bb3d-47351174fda3.jpg?aki_policy=xx_large","name":"Ramosa Guest House Pyramids View","listingId":15251455,"photoId":"331-8","tags":[{"name":"person","coordinates":[0.12755866580539282,0.25912227630615237,0.23473421732584634,0.7105987548828125]},{"name":"diningtable","coordinates":[0.26828912099202473,0.5671583970387777,0.33844473097059463,0.3504080136617025]},{"name":"person","coordinates":[0.5505771001180013,0.30662177403767904,0.18060018751356338,0.641681989034017]},{"name":"pottedplant","coordinates":[0.47767777575386894,0.44668616851170856,0.03993880748748779,0.09292113780975342]},{"name":"cup","coordinates":[0.3343921052085029,0.535923194885254,0.03169211811489529,0.0483849843343099]},{"name":"cup","coordinates":[0.4570252537727356,0.5218243936697642,0.029910741911994086,0.04252535104751587]}]}
