{"src":"https://a0.muscache.com/im/pictures/134f860d-65e5-44de-8004-f03a19b53c45.jpg?aki_policy=xx_large","name":"Comfortable home in the city centre of The Hague!","listingId":15432881,"photoId":"333-2","tags":[{"name":"chair","coordinates":[0.28290400505065916,0.789378801981608,0.22244598865509033,0.32489013671875]},{"name":"chair","coordinates":[0.520975399017334,0.7645043690999349,0.14366109371185304,0.34499521255493165]},{"name":"tvmonitor","coordinates":[0.8034782409667969,0.5988780975341796,0.14528554677963257,0.13872132301330567]},{"name":"pottedplant","coordinates":[0.33414270877838137,0.38833173116048175,0.12123522758483887,0.13860487937927246]},{"name":"laptop","coordinates":[0.6432068824768067,0.6649344126383464,0.0915618896484375,0.07272024154663086]},{"name":"pottedplant","coordinates":[0.10293856859207154,0.6594229380289713,0.04717608094215393,0.1070927063624064]}]}
