{"src":"https://a0.muscache.com/im/pictures/e87b8868-c351-44b5-9ecd-bbc9b91fce37.jpg?aki_policy=xx_large","name":"New appartment near airport","listingId":15266515,"photoId":"333-2","tags":[{"name":"chair","coordinates":[0.1581678885397035,0.6124381224314372,0.17576855931007845,0.3688459078470866]},{"name":"sofa","coordinates":[0.5773656772864986,0.49605607191721596,0.22174735691236414,0.2020722230275472]},{"name":"chair","coordinates":[0.12033751703077748,0.5742820739746093,0.08682685948354499,0.25282630920410154]},{"name":"chair","coordinates":[0.3472948381977697,0.5410479545593262,0.09910199351263915,0.2142819086710612]},{"name":"pottedplant","coordinates":[0.8056160845228197,0.47642618815104165,0.035399957258269964,0.08518136342366536]},{"name":"vase","coordinates":[0.8127692899396343,0.5220494627952577,0.018902957857407494,0.03661307493845622]}]}
