{"src":"https://a0.muscache.com/im/pictures/e87b8868-c351-44b5-9ecd-bbc9b91fce37.jpg?aki_policy=xx_large","name":"New appartment near airport","listingId":15266515,"photoId":"333-2","tags":[{"name":"chair","coordinates":[0.24605216819474274,0.7968610763549805,0.17576855931007845,0.3688459078470866]},{"name":"sofa","coordinates":[0.6882393557426806,0.5970921834309896,0.22174735691236414,0.2020722230275472]},{"name":"chair","coordinates":[0.16375094677254998,0.7006952285766601,0.08682685948354499,0.25282630920410154]},{"name":"chair","coordinates":[0.39684583495408926,0.6481889088948568,0.09910199351263915,0.2142819086710612]},{"name":"pottedplant","coordinates":[0.8233160631519547,0.5190168698628743,0.035399957258269964,0.08518136342366536]},{"name":"vase","coordinates":[0.8222207688683381,0.5403560002644857,0.018902957857407494,0.03661307493845622]}]}
