{"src":"https://a0.muscache.com/im/pictures/8aa97070-1b61-47d8-88f1-43fa4a325eeb.jpg?aki_policy=xx_large","name":"2 minutes to the station.Pocket Wi-Fi and Coffee","listingId":15277796,"photoId":"334-7","tags":[{"name":"sofa","coordinates":[0.00485862096150716,0.5256903489430745,0.2635997772216797,0.48184150060017905]},{"name":"bed","coordinates":[0.15858603583441844,0.4318674405415853,0.35594711303710935,0.2923128128051758]},{"name":"chair","coordinates":[0.5363138887617322,0.39143664042154946,0.06443251503838433,0.1966833750406901]},{"name":"clock","coordinates":[0.7513917684555054,0.18041740655899047,0.04494849840799967,0.10368179480234782]},{"name":"remote","coordinates":[0.306310150358412,0.8762092590332031,0.06805783377753363,0.038364283243815106]},{"name":"vase","coordinates":[0.6084486616982354,0.36698267857233685,0.01938587294684516,0.06155192852020264]},{"name":"vase","coordinates":[0.6897639625602299,0.3705949127674103,0.01882616016599867,0.05300560394922892]}]}
