{"src":"https://a0.muscache.com/im/pictures/b807cafb-4f8e-43a1-8e03-94ec33d66629.jpg?aki_policy=xx_large","name":"2 minutes to the station.Pocket Wi-Fi and Coffee","listingId":15277796,"photoId":"334-3","tags":[{"name":"sofa","coordinates":[0.3458729002210829,0.6448764801025391,0.7200675964355469,0.5240355173746745]},{"name":"sofa","coordinates":[0.7382760789659288,0.7220930735270182,0.5228745778401692,0.45063660939534506]},{"name":"diningtable","coordinates":[0.4985423194037543,0.8147057851155599,0.5604278564453125,0.3460349718729655]},{"name":"chair","coordinates":[0.18233975304497613,0.8676682154337565,0.3514488855997721,0.22955010732014974]},{"name":"wine-glass","coordinates":[0.3689535352918837,0.7523078282674154,0.05095486111111111,0.20121529897054036]},{"name":"vase","coordinates":[0.5999758826361762,0.7220619201660157,0.07460878160264757,0.09636738300323486]},{"name":"wine-glass","coordinates":[0.4145475599500868,0.7492142995198567,0.04397996796502007,0.1481569766998291]},{"name":"cup","coordinates":[0.3246442370944553,0.7363941828409831,0.05267747773064507,0.08713727792104085]},{"name":"wine-glass","coordinates":[0.6879994710286458,0.6494392395019531,0.03635545041826036,0.1159876028696696]}]}
