{"src":"https://a0.muscache.com/im/pictures/9bcad4a0-0814-4dc0-91f6-657d0c044594.jpg?aki_policy=xx_large","name":"2 minutes to the station.Pocket Wi-Fi and Coffee","listingId":15277796,"photoId":"334-11","tags":[{"name":"bed","coordinates":[0.3509473588731553,0.6312043031056722,0.6206679450141059,0.35617494583129883]},{"name":"sofa","coordinates":[0.08465667300754123,0.5163733243942261,0.20498839484320747,0.13794681231180828]},{"name":"chair","coordinates":[0.3711165957980686,0.494215202331543,0.03921101888020833,0.13679924011230468]},{"name":"tvmonitor","coordinates":[0.47312119801839186,0.4796545306841532,0.05875053405761719,0.088914688428243]},{"name":"vase","coordinates":[0.16870539585749308,0.5876254002253214,0.029867794778611925,0.037680896123250325]}]}
