{"src":"https://a0.muscache.com/im/pictures/8aa97070-1b61-47d8-88f1-43fa4a325eeb.jpg?aki_policy=xx_large","name":"2 minutes to the station.Pocket Wi-Fi and Coffee","listingId":15277796,"photoId":"334-7","tags":[{"name":"sofa","coordinates":[0.13665850957234701,0.7666110992431641,0.2635997772216797,0.48184150060017905]},{"name":"bed","coordinates":[0.3365595923529731,0.5780238469441732,0.35594711303710935,0.2923128128051758]},{"name":"chair","coordinates":[0.5685301462809245,0.4897783279418945,0.06443251503838433,0.1966833750406901]},{"name":"clock","coordinates":[0.7738660176595052,0.2322583039601644,0.04494849840799967,0.10368179480234782]},{"name":"remote","coordinates":[0.34033906724717883,0.8953914006551107,0.06805783377753363,0.038364283243815106]},{"name":"vase","coordinates":[0.618141598171658,0.39775864283243817,0.01938587294684516,0.06155192852020264]},{"name":"vase","coordinates":[0.6991770426432292,0.39709771474202477,0.01882616016599867,0.05300560394922892]}]}
