{"src":"https://a0.muscache.com/im/pictures/ac8dc801-68b3-4ea5-bc1a-2570aa96fbce.jpg?aki_policy=xx_large","name":"Centrally Located, Walk to Beach!","listingId":15444310,"photoId":"334-3","tags":[{"name":"diningtable","coordinates":[0.6758780585394966,0.6953669230143229,0.33093948364257814,0.23307342529296876]},{"name":"chair","coordinates":[0.5219588385687934,0.6907782236735026,0.1462095578511556,0.3368745485941569]},{"name":"chair","coordinates":[0.8008334689670139,0.7933013280232747,0.13190673192342123,0.333373228708903]},{"name":"chair","coordinates":[0.6575885348849826,0.8480953216552735,0.15661166508992513,0.2730808893839518]},{"name":"pottedplant","coordinates":[0.5702268388536241,0.37406899134318033,0.08031742307874891,0.15832932790120444]},{"name":"clock","coordinates":[0.043030651410420735,0.30106452306111653,0.0812609142727322,0.13684388796488445]},{"name":"chair","coordinates":[0.7775401645236545,0.5557853062947591,0.05579441918267144,0.09811561902364095]},{"name":"chair","coordinates":[0.6568759494357639,0.5337255477905274,0.05730915599399143,0.09042332967122396]}]}
