{"src":"https://a0.muscache.com/im/pictures/3478f7f3-7940-4680-b342-88370b538232.jpg?aki_policy=xx_large","name":"2 minutes to the station.Pocket Wi-Fi and Coffee","listingId":15277796,"photoId":"334-5","tags":[{"name":"diningtable","coordinates":[0.10871993170844185,0.6598210175832113,0.7763637118869358,0.3082186063130697]},{"name":"sofa","coordinates":[0.05566147698296442,0.4372011502583822,0.7078570048014323,0.30853697458902996]},{"name":"bed","coordinates":[0.7081331041124133,0.44954169591267906,0.2862718370225694,0.5467287063598633]},{"name":"sofa","coordinates":[0.7081331041124133,0.44954169591267906,0.2862718370225694,0.5467287063598633]},{"name":"wine-glass","coordinates":[0.7236380285686916,0.6083620230356852,0.05640758408440484,0.19302504857381184]},{"name":"wine-glass","coordinates":[0.6806213988198174,0.6117779731750488,0.0392585383521186,0.17365652720133465]},{"name":"wine-glass","coordinates":[0.2097012519836426,0.614315414428711,0.037763320075141056,0.16952743530273437]},{"name":"wine-glass","coordinates":[0.2612398915820651,0.6239280303319295,0.04185241593254937,0.13600001335144044]},{"name":"wine-glass","coordinates":[0.27721737888124254,0.6352415005366008,0.03962804741329617,0.10981040000915528]},{"name":"bowl","coordinates":[0.3963893757926093,0.6679555575052898,0.06153982480367025,0.06030317942301432]},{"name":"pottedplant","coordinates":[0.8165590511427986,0.13481409947077433,0.04424497551388211,0.0815196434656779]},{"name":"cup","coordinates":[0.6152151134279039,0.677436763048172,0.05941318405999078,0.058114373683929445]},{"name":"cup","coordinates":[0.5160806430710686,0.6546767195065817,0.03979526360829671,0.07428545157114665]},{"name":"vase","coordinates":[0.8267865909470452,0.1785930077234904,0.02242440382639567,0.037566518783569335]}]}
