{"src":"https://a0.muscache.com/im/pictures/9bcad4a0-0814-4dc0-91f6-657d0c044594.jpg?aki_policy=xx_large","name":"2 minutes to the station.Pocket Wi-Fi and Coffee","listingId":15277796,"photoId":"334-11","tags":[{"name":"bed","coordinates":[0.6612813313802083,0.8092917760213216,0.6206679450141059,0.35617494583129883]},{"name":"sofa","coordinates":[0.18715087042914497,0.5853467305501302,0.20498839484320747,0.13794681231180828]},{"name":"chair","coordinates":[0.39072210523817275,0.5626148223876953,0.03921101888020833,0.13679924011230468]},{"name":"tvmonitor","coordinates":[0.5024964650472005,0.5241118748982747,0.05875053405761719,0.088914688428243]},{"name":"vase","coordinates":[0.18363929324679903,0.6064658482869466,0.029867794778611925,0.037680896123250325]}]}
