{"src":"https://a0.muscache.com/im/pictures/3478f7f3-7940-4680-b342-88370b538232.jpg?aki_policy=xx_large","name":"2 minutes to the station.Pocket Wi-Fi and Coffee","listingId":15277796,"photoId":"334-5","tags":[{"name":"diningtable","coordinates":[0.49690178765190973,0.8139303207397461,0.7763637118869358,0.3082186063130697]},{"name":"sofa","coordinates":[0.4095899793836806,0.5914696375528972,0.7078570048014323,0.30853697458902996]},{"name":"bed","coordinates":[0.851269022623698,0.7229060490926107,0.2862718370225694,0.5467287063598633]},{"name":"sofa","coordinates":[0.851269022623698,0.7229060490926107,0.2862718370225694,0.5467287063598633]},{"name":"wine-glass","coordinates":[0.7518418206108941,0.7048745473225911,0.05640758408440484,0.19302504857381184]},{"name":"wine-glass","coordinates":[0.7002506679958768,0.6986062367757161,0.0392585383521186,0.17365652720133465]},{"name":"wine-glass","coordinates":[0.2285829120212131,0.6990791320800781,0.037763320075141056,0.16952743530273437]},{"name":"wine-glass","coordinates":[0.2821660995483398,0.6919280370076497,0.04185241593254937,0.13600001335144044]},{"name":"wine-glass","coordinates":[0.2970314025878906,0.6901467005411784,0.03962804741329617,0.10981040000915528]},{"name":"bowl","coordinates":[0.42715928819444443,0.6981071472167969,0.06153982480367025,0.06030317942301432]},{"name":"pottedplant","coordinates":[0.8386815388997396,0.1755739212036133,0.04424497551388211,0.0815196434656779]},{"name":"cup","coordinates":[0.6449217054578993,0.7064939498901367,0.05941318405999078,0.058114373683929445]},{"name":"cup","coordinates":[0.535978274875217,0.691819445292155,0.03979526360829671,0.07428545157114665]},{"name":"vase","coordinates":[0.837998792860243,0.19737626711527506,0.02242440382639567,0.037566518783569335]}]}
