{"src":"https://a0.muscache.com/im/pictures/613da187-d9bd-41eb-a5e1-0666df280329.jpg?aki_policy=xx_large","name":"Jersey City Bnb - 15 min. ride to NYC - Room 4","listingId":15282782,"photoId":"335-4","tags":[{"name":"diningtable","coordinates":[0.603725094265408,0.8269753774007161,0.7748611450195313,0.3362171173095703]},{"name":"pottedplant","coordinates":[0.5968878851996527,0.6351594924926758,0.29562034606933596,0.38050502141316733]},{"name":"chair","coordinates":[0.29711907704671225,0.8692922592163086,0.21123763190375433,0.2648728529612223]},{"name":"chair","coordinates":[0.1395172013176812,0.6332350413004557,0.0901076316833496,0.24027347564697266]},{"name":"vase","coordinates":[0.6198850419786242,0.7671045303344727,0.07216342290242513,0.11800212860107422]}]}
