{"src":"https://a0.muscache.com/im/pictures/613da187-d9bd-41eb-a5e1-0666df280329.jpg?aki_policy=xx_large","name":"Jersey City Bnb - 15 min. ride to NYC - Room 4","listingId":15282782,"photoId":"335-4","tags":[{"name":"diningtable","coordinates":[0.21629452175564234,0.658866818745931,0.7748611450195313,0.3362171173095703]},{"name":"pottedplant","coordinates":[0.44907771216498477,0.4449069817860921,0.29562034606933596,0.38050502141316733]},{"name":"chair","coordinates":[0.1915002610948351,0.7368558327356974,0.21123763190375433,0.2648728529612223]},{"name":"chair","coordinates":[0.09446338547600638,0.5130983034769694,0.0901076316833496,0.24027347564697266]},{"name":"vase","coordinates":[0.5838033305274116,0.7081034660339356,0.07216342290242513,0.11800212860107422]}]}
