{"src":"https://a0.muscache.com/im/pictures/73419dcc-4977-4a22-9918-dc2f6db063f9.jpg?aki_policy=xx_large","name":"Statenkwartier Home, Walk to Beach!","listingId":15444660,"photoId":"335-4","tags":[{"name":"diningtable","coordinates":[0.6825571592080715,0.7942551294962565,0.7142949609988708,0.3795309066772461]},{"name":"chair","coordinates":[0.5011677228833219,0.7432139078776042,0.1434303637292567,0.22749675114949544]},{"name":"chair","coordinates":[0.8290555344167321,0.589445432027181,0.1911096924978827,0.16587157249450685]},{"name":"pottedplant","coordinates":[0.6373946436352367,0.376931635538737,0.1462325750142687,0.20692636171976725]},{"name":"chair","coordinates":[0.6069951563113708,0.6754709243774414,0.09755749938437439,0.17677318255106608]},{"name":"chair","coordinates":[0.9847084159281716,0.8391798655192058,0.04426164170090645,0.3087814966837565]},{"name":"pottedplant","coordinates":[0.7211522823792224,0.4447927157084147,0.0408918586005775,0.06354915301005046]},{"name":"vase","coordinates":[0.644706875905219,0.44500420888264974,0.018362395892626455,0.07052177588144938]},{"name":"vase","coordinates":[0.7203668323166241,0.458880360921224,0.020527387920178865,0.03501034180323283]}]}
