{"src":"https://a0.muscache.com/im/pictures/9dac68ca-4514-4c2b-8121-91e4ae915aa1.jpg?aki_policy=xx_large","name":"西太湖澜月湾酒店式公寓 湖景房 可拼2米大床 ENG spoken","listingId":15315291,"photoId":"339-1","tags":[{"name":"diningtable","coordinates":[-0.028093210856119766,0.7475498437881469,0.5437976837158203,0.2641822338104248]},{"name":"bed","coordinates":[-0.028093210856119766,0.7475498437881469,0.5437976837158203,0.2641822338104248]},{"name":"diningtable","coordinates":[0.3718488587273492,0.605715831120809,0.304111205206977,0.3954063097635905]},{"name":"chair","coordinates":[0.2886927074856228,0.6206262429555258,0.21097696092393664,0.3686971346537272]},{"name":"refrigerator","coordinates":[0.21553990576002335,0.3834117889404297,0.14695541593763564,0.48672307332356773]},{"name":"tvmonitor","coordinates":[0.7249044630262587,0.3331628163655599,0.23407355414496528,0.20653463999430338]},{"name":"pottedplant","coordinates":[0.5244052992926703,0.5202728907267252,0.11232136620415581,0.15702501932779947]},{"name":"microwave","coordinates":[0.3409072240193685,0.5406836191813151,0.10217679341634114,0.10058097839355469]},{"name":"chair","coordinates":[-0.003326149781545003,0.5810988823572795,0.04508228302001953,0.21244378089904786]},{"name":"pottedplant","coordinates":[0.5577025757895576,0.0864251176516215,0.06984595722622342,0.11225448449452718]},{"name":"book","coordinates":[0.48908053371641375,0.26858317454655967,0.03838090101877848,0.07838210264841715]},{"name":"book","coordinates":[0.45055480533176,0.2581679026285807,0.030907821655273438,0.09723307291666666]},{"name":"vase","coordinates":[0.566393804550171,0.6396693110466003,0.03309077156914605,0.04285020033518473]}]}
