{"src":"https://a0.muscache.com/im/pictures/9dac68ca-4514-4c2b-8121-91e4ae915aa1.jpg?aki_policy=xx_large","name":"西太湖澜月湾酒店式公寓 湖景房 可拼2米大床 ENG spoken","listingId":15315291,"photoId":"339-1","tags":[{"name":"diningtable","coordinates":[0.24380563100179037,0.8796409606933594,0.5437976837158203,0.2641822338104248]},{"name":"bed","coordinates":[0.24380563100179037,0.8796409606933594,0.5437976837158203,0.2641822338104248]},{"name":"diningtable","coordinates":[0.5239044613308377,0.8034189860026042,0.304111205206977,0.3954063097635905]},{"name":"chair","coordinates":[0.39418118794759116,0.8049748102823894,0.21097696092393664,0.3686971346537272]},{"name":"refrigerator","coordinates":[0.28901761372884116,0.6267733256022135,0.14695541593763564,0.48672307332356773]},{"name":"tvmonitor","coordinates":[0.8419412400987413,0.4364301363627116,0.23407355414496528,0.20653463999430338]},{"name":"pottedplant","coordinates":[0.5805659823947482,0.598785400390625,0.11232136620415581,0.15702501932779947]},{"name":"microwave","coordinates":[0.3919956207275391,0.5909741083780925,0.10217679341634114,0.10058097839355469]},{"name":"chair","coordinates":[0.01921499172846476,0.6873207728068034,0.04508228302001953,0.21244378089904786]},{"name":"pottedplant","coordinates":[0.5926255544026693,0.1425523598988851,0.06984595722622342,0.11225448449452718]},{"name":"book","coordinates":[0.508270984225803,0.30777422587076825,0.03838090101877848,0.07838210264841715]},{"name":"book","coordinates":[0.4660087161593967,0.30678443908691405,0.030907821655273438,0.09723307291666666]},{"name":"vase","coordinates":[0.582939190334744,0.6610944112141927,0.03309077156914605,0.04285020033518473]}]}
