{"src":"https://a0.muscache.com/im/pictures/16650429/759c17da_original.jpg?aki_policy=xx_large","name":"Comfortable rooms in the Hague","listingId":1082476,"photoId":"34-2","tags":[{"name":"chair","coordinates":[0.16527686648898654,0.7061554590861002,0.3106636683146159,0.2500233968098958]},{"name":"diningtable","coordinates":[0.22411973741319444,0.912101682027181,0.41445770263671877,0.1666453997294108]},{"name":"pottedplant","coordinates":[0.5830291324191623,0.5458837509155273,0.13456575605604384,0.33874533971150717]},{"name":"tvmonitor","coordinates":[0.6874683380126954,0.6318333307902019,0.07275637520684136,0.12671749591827391]},{"name":"book","coordinates":[0.3159298578898112,0.410881773630778,0.027776948610941567,0.08043564160664876]}]}
