{"src":"https://a0.muscache.com/im/pictures/16650596/1a164201_original.jpg?aki_policy=xx_large","name":"Comfortable rooms in the Hague","listingId":1082476,"photoId":"34-6","tags":[{"name":"diningtable","coordinates":[0.44170926411946615,0.7972061157226562,0.6899779849582248,0.36190500259399416]},{"name":"chair","coordinates":[0.6470884535047743,0.7725802739461263,0.18750540415445963,0.4355984369913737]},{"name":"chair","coordinates":[0.18310938941107857,0.8015008926391601,0.16668021943834094,0.36694924036661786]},{"name":"refrigerator","coordinates":[0.7428903367784289,0.5330734888712565,0.09914387596978082,0.5198618253072103]},{"name":"chair","coordinates":[0.09590205086602105,0.7681121190388998,0.10948862499660916,0.4281358083089193]},{"name":"pottedplant","coordinates":[0.1449674818250868,0.5386726379394531,0.1500795152452257,0.20812241236368814]},{"name":"chair","coordinates":[0.488047112358941,0.6347379684448242,0.12262244754367405,0.17726972897847493]},{"name":"oven","coordinates":[0.9661410013834636,0.7132026672363281,0.06881055302090115,0.31311969757080077]},{"name":"chair","coordinates":[0.3934626261393229,0.6018746693929037,0.07599621348910862,0.12774859269460043]}]}
