{"src":"https://a0.muscache.com/im/pictures/5dab173e-dfb4-4102-ad17-64125b6867fd.jpg?aki_policy=xx_large","name":"Lovely apartment near Delft Centre","listingId":15542973,"photoId":"342-5","tags":[{"name":"oven","coordinates":[0.2258926030791142,0.7949385325113932,0.16662355564097064,0.42787148157755533]},{"name":"oven","coordinates":[0.21102919240292478,0.6674294789632161,0.14557751874538163,0.2348456859588623]},{"name":"bed","coordinates":[0.49322784447106216,0.49332571029663086,0.13225260370110484,0.12144985993703207]},{"name":"sink","coordinates":[0.3195966521262395,0.5113695144653321,0.09682043266150898,0.041048343976338705]},{"name":"spoon","coordinates":[0.17421432017916308,0.46198371251424153,0.030574213721932208,0.06925903956095378]}]}
