{"src":"https://a0.muscache.com/im/pictures/60652ec9-ea74-447d-a653-72918532c002.jpg?aki_policy=xx_large","name":"Scheveningen (centre)","listingId":15575888,"photoId":"343-6","tags":[{"name":"diningtable","coordinates":[0.4215780893961589,0.8621452967325847,0.5181902567545573,0.24592707951863607]},{"name":"chair","coordinates":[0.5949121263292101,0.8152039210001628,0.1382544305589464,0.20932923952738444]},{"name":"chair","coordinates":[0.16650591956244576,0.8701449712117513,0.07932071155971951,0.2540633996327718]},{"name":"bowl","coordinates":[0.40026223924424914,0.8400039672851562,0.1536677678426107,0.12215212980906169]},{"name":"pottedplant","coordinates":[0.491664547390408,0.5197054862976074,0.06782507366604275,0.2389366626739502]},{"name":"chair","coordinates":[0.5514241536458333,0.7769863764444987,0.08007435268825955,0.15768564542134603]},{"name":"chair","coordinates":[0.3362944708930122,0.7176637013753255,0.11869088278876411,0.08317667643229167]}]}
