{"src":"https://a0.muscache.com/im/pictures/6f739ae9-c99f-4f47-b392-5ea32901932e.jpg?aki_policy=xx_large","name":"柬埔寨性冷淡风公寓","listingId":15354339,"photoId":"343-0","tags":[{"name":"diningtable","coordinates":[0.39830638744212965,0.6004401524861653,0.4744942636704566,0.6902120590209961]},{"name":"person","coordinates":[0.7304630321095452,0.6877721786499024,0.32610753765120054,0.5524624506632487]},{"name":"person","coordinates":[0.2965193161863993,0.34140796661376954,0.1615963162246959,0.2912439982096354]},{"name":"laptop","coordinates":[0.3942895029105392,0.29597613016764324,0.12857845752414102,0.19939877192179362]},{"name":"bowl","coordinates":[0.4315080054012346,0.7394575119018555,0.11397988534787468,0.1531225045522054]},{"name":"cup","coordinates":[0.6136041113494008,0.47334515253702797,0.0737115587111219,0.1474401632944743]},{"name":"cup","coordinates":[0.33471535632120325,0.6491212844848633,0.04749776248751816,0.13021259307861327]},{"name":"cup","coordinates":[0.420147886809527,0.5899270375569662,0.052734064726874544,0.09107029438018799]},{"name":"mouse","coordinates":[0.37698521610611835,0.4107148806254069,0.03593031219061337,0.02657862106959025]}]}
