{"src":"https://a0.muscache.com/im/pictures/6f739ae9-c99f-4f47-b392-5ea32901932e.jpg?aki_policy=xx_large","name":"柬埔寨性冷淡风公寓","listingId":15354339,"photoId":"343-0","tags":[{"name":"diningtable","coordinates":[0.16105925560690135,0.25533412297566727,0.4744942636704566,0.6902120590209961]},{"name":"person","coordinates":[0.5674092632839449,0.411540953318278,0.32610753765120054,0.5524624506632487]},{"name":"person","coordinates":[0.21572115807405137,0.19578596750895183,0.1615963162246959,0.2912439982096354]},{"name":"laptop","coordinates":[0.3300002741484687,0.19627674420674643,0.12857845752414102,0.19939877192179362]},{"name":"bowl","coordinates":[0.37451806272729726,0.6628962596257528,0.11397988534787468,0.1531225045522054]},{"name":"cup","coordinates":[0.5767483319938399,0.3996250708897908,0.0737115587111219,0.1474401632944743]},{"name":"cup","coordinates":[0.3109664750774442,0.5840149879455566,0.04749776248751816,0.13021259307861327]},{"name":"cup","coordinates":[0.39378085444608973,0.5443918903668722,0.052734064726874544,0.09107029438018799]},{"name":"mouse","coordinates":[0.35902006001081166,0.39742557009061175,0.03593031219061337,0.02657862106959025]}]}
