{"src":"https://a0.muscache.com/im/pictures/8e2b32d4-bfa5-4c00-a319-0d7914927a33.jpg?aki_policy=xx_large","name":"Scheveningen (centre)","listingId":15575888,"photoId":"343-8","tags":[{"name":"pottedplant","coordinates":[0.21484603881835937,0.49695777893066406,0.41762093438042536,1.0516850789388021]},{"name":"sofa","coordinates":[0.4815274556477865,0.8008380889892578,0.6732978396945529,0.37486445109049477]},{"name":"diningtable","coordinates":[0.8156273735894097,0.9263357162475586,0.3885682423909505,0.17208361625671387]},{"name":"cup","coordinates":[0.9759677463107639,0.9116565704345703,0.04884454939100477,0.13302850723266602]},{"name":"pottedplant","coordinates":[0.4504656049940321,0.5913267135620117,0.02873128785027398,0.05163833300272624]}]}
