{"src":"https://a0.muscache.com/im/pictures/31575539/091cb2b3_original.jpg?aki_policy=xx_large","name":"Genuine monument in historic Delft","listingId":1559662,"photoId":"344-3","tags":[{"name":"diningtable","coordinates":[0.44729868570963544,0.768455696105957,0.41609518263075085,0.4956980069478353]},{"name":"chair","coordinates":[0.28253377278645836,0.7771383285522461,0.11768597496880426,0.46938699086507163]},{"name":"pottedplant","coordinates":[0.512906731499566,0.5466596603393554,0.1542203903198242,0.16861944198608397]},{"name":"oven","coordinates":[0.8293546888563368,0.5972769419352214,0.06723859045240614,0.2194862683614095]},{"name":"chair","coordinates":[0.632864252726237,0.6296773274739583,0.05950754483540853,0.22025028864542642]},{"name":"chair","coordinates":[0.35179292890760633,0.5952460606892903,0.042015626695421006,0.1549688975016276]},{"name":"bowl","coordinates":[0.3995862748887804,0.7109582265218098,0.08435548146565755,0.054596404234568276]},{"name":"apple","coordinates":[0.3737274593777127,0.7093055725097657,0.0240249236424764,0.03054219881693522]},{"name":"orange","coordinates":[0.3737274593777127,0.7093055725097657,0.0240249236424764,0.03054219881693522]},{"name":"knife","coordinates":[0.733209228515625,0.4330732027689616,0.015247368812561035,0.03400468428929647]}]}
