{"src":"https://a0.muscache.com/im/pictures/995adccd-e910-4a9b-93c7-15c03626a29b.jpg?aki_policy=xx_large","name":"Квартира с шикарным видом","listingId":15361458,"photoId":"344-3","tags":[{"name":"chair","coordinates":[0.05600348578559028,0.5063607215881347,0.3301592508951823,0.36218255360921225]},{"name":"diningtable","coordinates":[0.21720354292127822,0.5074338754018148,0.3665432824028863,0.3118646303812663]},{"name":"chair","coordinates":[0.43235842386881507,0.488774585723877,0.25558403862847223,0.30636908213297526]},{"name":"tvmonitor","coordinates":[0.2068938308291965,0.2542740146319072,0.13896714316474068,0.10087681611378987]},{"name":"chair","coordinates":[0.42032354672749833,0.43810078700383503,0.06709436840481228,0.09125715096791585]},{"name":"bowl","coordinates":[0.28225219514634875,0.5301979531844457,0.052166175842285153,0.023403074343999228]}]}
