{"src":"https://a0.muscache.com/im/pictures/995adccd-e910-4a9b-93c7-15c03626a29b.jpg?aki_policy=xx_large","name":"Квартира с шикарным видом","listingId":15361458,"photoId":"344-3","tags":[{"name":"chair","coordinates":[0.22108311123318142,0.6874519983927408,0.3301592508951823,0.36218255360921225]},{"name":"diningtable","coordinates":[0.4004751841227214,0.663366190592448,0.3665432824028863,0.3118646303812663]},{"name":"chair","coordinates":[0.5601504431830512,0.6419591267903646,0.25558403862847223,0.30636908213297526]},{"name":"tvmonitor","coordinates":[0.27637740241156683,0.3047124226888021,0.13896714316474068,0.10087681611378987]},{"name":"chair","coordinates":[0.4538707309299045,0.48372936248779297,0.06709436840481228,0.09125715096791585]},{"name":"bowl","coordinates":[0.3083352830674913,0.5418994903564454,0.052166175842285153,0.023403074343999228]}]}
