{"src":"https://a0.muscache.com/im/pictures/31576930/65e7d19d_original.jpg?aki_policy=xx_large","name":"Genuine monument in historic Delft","listingId":1559662,"photoId":"344-8","tags":[{"name":"diningtable","coordinates":[0.8246163940429687,0.817531967163086,0.5671561177571615,0.34387454986572263]},{"name":"pottedplant","coordinates":[0.6921178690592448,0.6315410614013672,0.3217522939046224,0.304891840616862]},{"name":"chair","coordinates":[0.9460073852539063,0.7856466929117839,0.16145970662434897,0.4547014872233073]},{"name":"chair","coordinates":[0.5157739766438802,0.7697807312011719,0.1432294464111328,0.40559072494506837]},{"name":"chair","coordinates":[0.42431630452473956,0.7603612899780273,0.10498593012491862,0.45295556386311847]},{"name":"vase","coordinates":[0.6839947509765625,0.7189360936482747,0.07579964955647786,0.0967639684677124]}]}
