{"src":"https://a0.muscache.com/im/pictures/31575025/5daf426a_original.jpg?aki_policy=xx_large","name":"Genuine monument in historic Delft","listingId":1559662,"photoId":"344-0","tags":[{"name":"chair","coordinates":[0.6248080783420139,0.7970523834228516,0.30870405832926434,0.44421202341715493]},{"name":"chair","coordinates":[0.16059557596842447,0.5854681650797526,0.23721173604329426,0.36369384129842125]},{"name":"pottedplant","coordinates":[0.6479075537787543,0.4750240643819173,0.1388001865810818,0.1587828000386556]},{"name":"pottedplant","coordinates":[0.34055182139078777,0.4650875091552734,0.08253900739881727,0.212023655573527]},{"name":"tvmonitor","coordinates":[0.24476420084635417,0.404409662882487,0.10043647554185656,0.1632723331451416]},{"name":"vase","coordinates":[0.6460459815131293,0.5191627820332845,0.030177333619859484,0.05600782632827759]}]}
