{"src":"https://a0.muscache.com/im/pictures/050ee11a-a23b-4630-94be-1001ac066d9f.jpg?aki_policy=xx_large","name":"Shizuoka 2BRroomy Apt Near HAMAMATSU Sta freeWiFi","listingId":15379970,"photoId":"346-18","tags":[{"name":"refrigerator","coordinates":[0.20145725674099393,0.6637555440266927,0.1949295891655816,0.489910888671875]},{"name":"chair","coordinates":[0.6322585211859809,0.7196623484293619,0.18082345326741536,0.45271218617757164]},{"name":"chair","coordinates":[0.5135630289713542,0.6904073715209961,0.1326266818576389,0.3866885185241699]},{"name":"chair","coordinates":[0.7219801161024305,0.6583716710408528,0.12979999118381078,0.3133344014485677]},{"name":"microwave","coordinates":[0.1760914272732205,0.3542995770772298,0.14187903934054905,0.13465499877929688]},{"name":"vase","coordinates":[0.6027963002522786,0.4941645622253418,0.020426530308193632,0.04341083765029907]}]}
