{"src":"https://a0.muscache.com/im/pictures/40214f7b-406d-4cbc-9819-974c1793b7b8.jpg?aki_policy=xx_large","name":"Shizuoka 2BRroomy Apt Near HAMAMATSU Sta freeWiFi","listingId":15379970,"photoId":"346-18","tags":[{"name":"bed","coordinates":[0.5772585974799262,0.6978889465332031,0.7509910583496093,0.5801386515299479]},{"name":"pottedplant","coordinates":[0.0965197033352322,0.36137482325236003,0.19948126475016276,0.7311191558837891]},{"name":"diningtable","coordinates":[0.3703117370605469,0.5171811421712239,0.23573883904351128,0.21585295995076498]},{"name":"chair","coordinates":[0.8964597913953993,0.2827293078104655,0.08691056569417317,0.1811732292175293]},{"name":"chair","coordinates":[0.969454108344184,0.29597447713216146,0.05462773640950521,0.22962605158487956]}]}
