{"src":"https://a0.muscache.com/im/pictures/d5a7cb0b-b8a8-46f1-b987-72e06ad419d4.jpg?aki_policy=xx_large","name":"Shizuoka 2BRroomy Apt Near HAMAMATSU Sta freeWiFi","listingId":15379970,"photoId":"346-11","tags":[{"name":"diningtable","coordinates":[0.32651969061957464,0.5569280624389649,0.451560295952691,0.4366570790608724]},{"name":"chair","coordinates":[0.3123417748345269,0.6108014265696208,0.18794436984592014,0.3903034528096517]},{"name":"refrigerator","coordinates":[0.8523637135823569,0.4968296686808268,0.1527268303765191,0.4302995045979818]},{"name":"chair","coordinates":[0.4344484806060791,0.6579133828481039,0.17152764002482096,0.3387876192728678]},{"name":"microwave","coordinates":[0.8922297954559326,0.3886377493540446,0.10068377388848199,0.1279017448425293]},{"name":"tvmonitor","coordinates":[0.7767403178744845,0.5132341086864471,0.07814049190945095,0.05476016600926717]},{"name":"vase","coordinates":[0.5175221972995334,0.5667411128679911,0.038842731051974826,0.07183037598927816]},{"name":"chair","coordinates":[0.5560433414247301,0.5798445304234823,0.052580234739515515,0.037221670150756836]}]}
