{"src":"https://a0.muscache.com/im/pictures/c466d925-7bdf-4991-b73a-0874b8c543ae.jpg?aki_policy=xx_large","name":"Shizuoka 2BRroomy Apt Near HAMAMATSU Sta freeWiFi","listingId":15379970,"photoId":"346-7","tags":[{"name":"diningtable","coordinates":[0.5112764994303386,0.7019877751668294,0.29213458167182077,0.41633707682291665]},{"name":"chair","coordinates":[0.520695792304145,0.7403640747070312,0.15939937167697482,0.3523577690124512]},{"name":"sofa","coordinates":[0.330916616651747,0.45707130432128906,0.17814930809868706,0.17039079666137696]},{"name":"pottedplant","coordinates":[0.3692244211832682,0.2874884287516276,0.06598778830634223,0.2180322806040446]},{"name":"vase","coordinates":[0.5157928466796875,0.49428796768188477,0.027911583582560223,0.05755492846171061]}]}
