{"src":"https://a0.muscache.com/im/pictures/40214f7b-406d-4cbc-9819-974c1793b7b8.jpg?aki_policy=xx_large","name":"Shizuoka 2BRroomy Apt Near HAMAMATSU Sta freeWiFi","listingId":15379970,"photoId":"346-18","tags":[{"name":"bed","coordinates":[0.20176306830512158,0.40781962076822914,0.7509910583496093,0.5801386515299479]},{"name":"pottedplant","coordinates":[-0.003220929039849177,-0.004184754689534498,0.19948126475016276,0.7311191558837891]},{"name":"diningtable","coordinates":[0.2524423175387912,0.4092546621958414,0.23573883904351128,0.21585295995076498]},{"name":"chair","coordinates":[0.8530045085483128,0.19214269320170085,0.08691056569417317,0.1811732292175293]},{"name":"chair","coordinates":[0.9421402401394314,0.18116145133972167,0.05462773640950521,0.22962605158487956]}]}
