{"src":"https://a0.muscache.com/im/pictures/050ee11a-a23b-4630-94be-1001ac066d9f.jpg?aki_policy=xx_large","name":"Shizuoka 2BRroomy Apt Near HAMAMATSU Sta freeWiFi","listingId":15379970,"photoId":"346-25","tags":[{"name":"refrigerator","coordinates":[0.10399246215820314,0.41880009969075516,0.1949295891655816,0.489910888671875]},{"name":"chair","coordinates":[0.5418467945522732,0.49330625534057615,0.18082345326741536,0.45271218617757164]},{"name":"chair","coordinates":[0.44724968804253473,0.4970631122589111,0.1326266818576389,0.3866885185241699]},{"name":"chair","coordinates":[0.6570801205105251,0.501704470316569,0.12979999118381078,0.3133344014485677]},{"name":"microwave","coordinates":[0.10515190760294597,0.2869720776875814,0.14187903934054905,0.13465499877929688]},{"name":"vase","coordinates":[0.5925830350981818,0.47245914340019224,0.020426530308193632,0.04341083765029907]}]}
