{"src":"https://a0.muscache.com/im/pictures/2bd95f66-9934-41e9-9549-927593669e57.jpg?aki_policy=xx_large","name":"Shizuoka 2BRroomy Apt Near HAMAMATSU Sta freeWiFi","listingId":15379970,"photoId":"346-20","tags":[{"name":"diningtable","coordinates":[0.5000848134358724,0.7616671880086263,0.3130440606011285,0.3863025347391764]},{"name":"chair","coordinates":[0.5489605797661675,0.7705625534057617,0.14278708563910592,0.38810475667317706]},{"name":"chair","coordinates":[0.6290606180826823,0.7615137736002604,0.13233519660101997,0.3842513084411621]},{"name":"sofa","coordinates":[0.31584722730848525,0.607681401570638,0.18378751542833116,0.1868105411529541]},{"name":"pottedplant","coordinates":[0.3726910909016927,0.45180091857910154,0.06494713359408909,0.16849055290222167]},{"name":"microwave","coordinates":[0.5458189222547744,0.45173371632893883,0.07197150654262967,0.06063796281814575]},{"name":"pottedplant","coordinates":[0.5089166853162977,0.5196883519490559,0.04139159520467122,0.08087143103281656]},{"name":"chair","coordinates":[0.5977343241373698,0.5487894694010417,0.05542719099256727,0.058717600504557294]},{"name":"vase","coordinates":[0.5163278367784289,0.560405985514323,0.026440609825981988,0.06259617805480958]}]}
