{"src":"https://a0.muscache.com/im/pictures/d5a7cb0b-b8a8-46f1-b987-72e06ad419d4.jpg?aki_policy=xx_large","name":"Shizuoka 2BRroomy Apt Near HAMAMATSU Sta freeWiFi","listingId":15379970,"photoId":"346-11","tags":[{"name":"diningtable","coordinates":[0.5522998385959201,0.775256601969401,0.451560295952691,0.4366570790608724]},{"name":"chair","coordinates":[0.40631395975748696,0.8059531529744466,0.18794436984592014,0.3903034528096517]},{"name":"refrigerator","coordinates":[0.9287271287706164,0.7119794209798177,0.1527268303765191,0.4302995045979818]},{"name":"chair","coordinates":[0.5202123006184896,0.8273071924845378,0.17152764002482096,0.3387876192728678]},{"name":"microwave","coordinates":[0.9425716824001736,0.45258862177530923,0.10068377388848199,0.1279017448425293]},{"name":"tvmonitor","coordinates":[0.81581056382921,0.5406141916910807,0.07814049190945095,0.05476016600926717]},{"name":"vase","coordinates":[0.5369435628255208,0.6026563008626302,0.038842731051974826,0.07183037598927816]},{"name":"chair","coordinates":[0.5823334587944878,0.5984553654988607,0.052580234739515515,0.037221670150756836]}]}
