{"src":"https://a0.muscache.com/im/pictures/2bd95f66-9934-41e9-9549-927593669e57.jpg?aki_policy=xx_large","name":"Shizuoka 2BRroomy Apt Near HAMAMATSU Sta freeWiFi","listingId":15379970,"photoId":"346-27","tags":[{"name":"diningtable","coordinates":[0.3435627831353082,0.5685159206390381,0.3130440606011285,0.3863025347391764]},{"name":"chair","coordinates":[0.47756703694661456,0.5765101750691732,0.14278708563910592,0.38810475667317706]},{"name":"chair","coordinates":[0.5628930197821723,0.5693881193796794,0.13233519660101997,0.3842513084411621]},{"name":"sofa","coordinates":[0.22395346959431967,0.5142761309941609,0.18378751542833116,0.1868105411529541]},{"name":"pottedplant","coordinates":[0.3402175241046482,0.3675556421279907,0.06494713359408909,0.16849055290222167]},{"name":"microwave","coordinates":[0.5098331689834595,0.421414734919866,0.07197150654262967,0.06063796281814575]},{"name":"pottedplant","coordinates":[0.48822088771396216,0.47925263643264765,0.04139159520467122,0.08087143103281656]},{"name":"chair","coordinates":[0.5700207286410862,0.519430669148763,0.05542719099256727,0.058717600504557294]},{"name":"vase","coordinates":[0.5031075318654379,0.5291078964869181,0.026440609825981988,0.06259617805480958]}]}
