{"src":"https://a0.muscache.com/im/pictures/d12dac65-f152-4f06-90dd-aae9245c887a.jpg?aki_policy=xx_large","name":"Beautiful appartment near The Hague (free parking)","listingId":15668896,"photoId":"348-2","tags":[{"name":"bird","coordinates":[0.19127952646544844,0.4103822708129883,0.2420149528574279,0.4446683883666992]},{"name":"diningtable","coordinates":[0.3620788999386247,0.6797516504923503,0.2949942715765891,0.16005500157674155]},{"name":"chair","coordinates":[0.39144706135563806,0.8730689366658528,0.15227324305673132,0.25350993474324546]},{"name":"chair","coordinates":[0.3146406002458035,0.5744572321573893,0.06669808615102857,0.03301721016565959]},{"name":"vase","coordinates":[0.3680586445811363,0.6283995310465494,0.02852828436222608,0.06295268138249716]}]}
