{"src":"https://a0.muscache.com/im/pictures/72e66347-4edd-432f-935e-bf705f5096df.jpg?aki_policy=xx_large","name":"Beautiful appartment near The Hague (free parking)","listingId":15668896,"photoId":"348-3","tags":[{"name":"bed","coordinates":[0.6302853502950209,0.7866554260253906,1.2328036276460137,0.42900390625]},{"name":"tvmonitor","coordinates":[1.1641473003901421,0.5131162961324056,0.3380536243264254,0.2166234016418457]},{"name":"chair","coordinates":[0.7627657028594329,0.5560888926188151,0.257230855331138,0.1939120610555013]},{"name":"pottedplant","coordinates":[0.10150890562531385,0.4855221748352051,0.15446966333943332,0.18097230593363445]},{"name":"pottedplant","coordinates":[0.2673081255371697,0.486872927347819,0.14950733161237834,0.15590084393819173]}]}
