{"src":"https://z0.muscache.cn/im/pictures/9801a78e-f70d-4106-b1e9-a88773ae2e75.jpg?aki_policy=xx_large","name":"PrivateRoomForMax3FutonsOnTheFloor#Friendly#Cozy#1","listingId":10845189,"photoId":"35-4","tags":[{"name":"bed","coordinates":[0.359554118460628,0.8091203689575195,0.7156958669486189,0.27711057662963867]},{"name":"pottedplant","coordinates":[0.5012872098136727,0.48358500798543297,0.18503655916787917,0.45577144622802734]},{"name":"tvmonitor","coordinates":[0.21283962098652492,0.31481650670369465,0.22560848106188108,0.2576751708984375]},{"name":"book","coordinates":[0.3319631315420865,0.5698232014973958,0.028047883734262345,0.12951467831929525]},{"name":"book","coordinates":[0.3166753094257623,0.5684919993082682,0.020115517675255306,0.1325704018274943]},{"name":"book","coordinates":[0.24888603417222246,0.5689716339111328,0.016836981544733214,0.1544543743133545]},{"name":"book","coordinates":[0.07705364001965341,0.5839533487955729,0.015798958413214877,0.14276323318481446]},{"name":"book","coordinates":[0.09517856833833717,0.5841689427693685,0.016189132488958532,0.13183154265085856]},{"name":"book","coordinates":[0.11097943144924861,0.5840972264607748,0.013804146115195015,0.13124406337738037]}]}
