{"src":"https://z0.muscache.cn/im/pictures/9801a78e-f70d-4106-b1e9-a88773ae2e75.jpg?aki_policy=xx_large","name":"PrivateRoomForMax3FutonsOnTheFloor#Friendly#Cozy#1","listingId":10845189,"photoId":"35-6","tags":[{"name":"bed","coordinates":[0.4045335234283376,0.8091203689575195,0.8052277971376564,0.27711057662963867]},{"name":"pottedplant","coordinates":[0.5639971031445465,0.48358500798543297,0.2081842131685521,0.45577144622802734]},{"name":"tvmonitor","coordinates":[0.23946537498014805,0.31481650670369465,0.25383159049886383,0.2576751708984375]},{"name":"book","coordinates":[0.373490966605991,0.5698232014973958,0.03155661039374786,0.12951467831929525]},{"name":"book","coordinates":[0.35629067260646746,0.5684919993082682,0.022631923326577312,0.1325704018274943]},{"name":"book","coordinates":[0.28002111272386876,0.5689716339111328,0.018943249759867938,0.1544543743133545]},{"name":"book","coordinates":[0.0866928756749658,0.5839533487955729,0.017775372288206578,0.14276323318481446]},{"name":"book","coordinates":[0.10708519142991961,0.5841689427693685,0.018214356256146466,0.13183154265085856]},{"name":"book","coordinates":[0.12486270668918589,0.5840972264607748,0.015531013494734656,0.13124406337738037]}]}
