{"src":"https://z0.muscache.cn/im/pictures/9801a78e-f70d-4106-b1e9-a88773ae2e75.jpg?aki_policy=xx_large","name":"PrivateRoomForMax3FutonsOnTheFloor#Friendly#Cozy#1","listingId":10845189,"photoId":"35-6","tags":[{"name":"bed","coordinates":[0.0019196248595094167,0.6705650806427002,0.8052277971376564,0.27711057662963867]},{"name":"pottedplant","coordinates":[0.4599049965602705,0.2556992848714193,0.2081842131685521,0.45577144622802734]},{"name":"tvmonitor","coordinates":[0.11254957973071614,0.1859789212544759,0.25383159049886383,0.2576751708984375]},{"name":"book","coordinates":[0.35771266140911706,0.5050658623377482,0.03155661039374786,0.12951467831929525]},{"name":"book","coordinates":[0.34497471094317883,0.5022067983945211,0.022631923326577312,0.1325704018274943]},{"name":"book","coordinates":[0.2705494878439348,0.49174444675445556,0.018943249759867938,0.1544543743133545]},{"name":"book","coordinates":[0.0778051895308625,0.5125717322031657,0.017775372288206578,0.14276323318481446]},{"name":"book","coordinates":[0.09797801330184638,0.5182531714439392,0.018214356256146466,0.13183154265085856]},{"name":"book","coordinates":[0.11709719994181857,0.5184751947720846,0.015531013494734656,0.13124406337738037]}]}
