{"src":"https://a0.muscache.com/im/pictures/dbe951e1-6df1-4e0f-8bfa-fbc705b0ddb7.jpg?aki_policy=xx_large","name":"Family house, near city centre and beach","listingId":15710615,"photoId":"350-6","tags":[{"name":"sofa","coordinates":[0.7867396884494358,0.7385950724283854,0.3893594953748915,0.503379472096761]},{"name":"sofa","coordinates":[0.3929017384847005,0.6233338673909505,0.3500682618882921,0.3315369923909505]},{"name":"tvmonitor","coordinates":[0.7836502922905816,0.3748844464619954,0.08388645384046767,0.11338358720143636]},{"name":"chair","coordinates":[0.2947482215033637,0.4534417152404785,0.06472526656256782,0.09268050988515218]},{"name":"book","coordinates":[0.5274759080674913,0.4502498944600423,0.01884101496802436,0.03822796742121379]},{"name":"book","coordinates":[0.5273857540554471,0.396746571858724,0.04639212290445963,0.01433627208073934]},{"name":"book","coordinates":[0.5115457322862413,0.4496941884358724,0.010881535874472725,0.04148202339808146]},{"name":"book","coordinates":[0.5277957492404514,0.3515878359476725,0.00926522347662184,0.03612108627955119]},{"name":"book","coordinates":[0.5113674587673611,0.3508546193440755,0.00896074440744188,0.034819368521372476]}]}
