{"src":"https://a0.muscache.com/im/pictures/f02faaef-80bf-4347-9706-e86f90749e56.jpg?aki_policy=xx_large","name":"Hostel Shiksha send room","listingId":15399978,"photoId":"350-1","tags":[{"name":"bed","coordinates":[0.6965906884935167,0.09465901056925458,0.3117931577894423,0.7931132634480794]},{"name":"chair","coordinates":[0.16256725523206925,0.4817663828531901,0.34874235788981117,0.5172274271647136]},{"name":"diningtable","coordinates":[-0.006679524315728103,0.6331789493560791,0.3675524393717448,0.3746582349141439]},{"name":"pottedplant","coordinates":[0.012315050760904944,0.21703399022420247,0.20486070844862198,0.35376663208007814]},{"name":"pottedplant","coordinates":[0.5797556771172417,0.3122356573740641,0.13306651645236545,0.28737802505493165]}]}
