{"src":"https://a0.muscache.com/im/pictures/a2f6752e-2192-4bc6-aa88-275b32d82541.jpg?aki_policy=xx_large","name":"Hostel Shiksha send room","listingId":15399978,"photoId":"350-6","tags":[{"name":"diningtable","coordinates":[0.7740852073386864,0.834121831258138,1.3904477719907407,0.2749637603759766]},{"name":"refrigerator","coordinates":[1.5277365225332755,0.47668244043986,0.5342989886248554,0.577420171101888]},{"name":"chair","coordinates":[0.965225671838831,0.9094998677571614,0.6040826868127893,0.18617328008015951]},{"name":"chair","coordinates":[0.6565010918511285,0.6826241175333659,0.4896787290219907,0.13469276428222657]},{"name":"microwave","coordinates":[1.9114291720920138,0.2342871348063151,0.43983821162471065,0.1330917199452718]},{"name":"pottedplant","coordinates":[1.487692712854456,0.10180532932281494,0.3249705844455295,0.17135736147562664]},{"name":"sink","coordinates":[2.0153474030671297,0.5133239110310872,0.5286742598922164,0.08198471069335937]},{"name":"chair","coordinates":[0.1766147189670139,0.9425729751586914,0.34254972669813366,0.11019179026285807]},{"name":"chair","coordinates":[0.07149195494475188,0.7186436335245768,0.1369108412000868,0.1118614673614502]},{"name":"cup","coordinates":[2.432663981119792,0.5107141176859538,0.157360189932364,0.07258436679840088]},{"name":"bowl","coordinates":[2.432663981119792,0.5107141176859538,0.157360189932364,0.07258436679840088]},{"name":"vase","coordinates":[1.471896814416956,0.14791450500488282,0.059343443976508245,0.0584845503171285]},{"name":"bottle","coordinates":[0.2863038804796007,0.17571531931559245,0.048567164385760274,0.05686849355697632]},{"name":"bottle","coordinates":[0.22907449227792245,0.1749526818593343,0.04961664411756728,0.05427641868591308]}]}
