{"src":"https://a0.muscache.com/im/pictures/a2f6752e-2192-4bc6-aa88-275b32d82541.jpg?aki_policy=xx_large","name":"Hostel Shiksha send room","listingId":15399978,"photoId":"350-7","tags":[{"name":"diningtable","coordinates":[0.029572995503743482,0.6966399510701498,0.5214179144965277,0.2749637603759766]},{"name":"refrigerator","coordinates":[0.472720135582818,0.187972354888916,0.20036212073432075,0.577420171101888]},{"name":"chair","coordinates":[0.24869412316216363,0.8164132277170817,0.226531007554796,0.18617328008015951]},{"name":"chair","coordinates":[0.1543731477525499,0.6152777353922526,0.18362952338324653,0.13469276428222657]},{"name":"microwave","coordinates":[0.634316274854872,0.1677412748336792,0.1649393293592665,0.1330917199452718]},{"name":"pottedplant","coordinates":[0.49695278273688426,0.016126648585001624,0.12186396916707357,0.17135736147562664]},{"name":"sink","coordinates":[0.6566288524203829,0.47233155568440754,0.19825284745958116,0.08198471069335937]},{"name":"chair","coordinates":[0.0020024458567301506,0.8874770800272624,0.12845614751180012,0.11019179026285807]},{"name":"chair","coordinates":[0.0011387003792656808,0.6627128998438517,0.05134156545003255,0.1118614673614502]},{"name":"cup","coordinates":[0.8827439573076037,0.47442193428675333,0.0590100712246365,0.07258436679840088]},{"name":"bowl","coordinates":[0.8827439573076037,0.47442193428675333,0.0590100712246365,0.07258436679840088]},{"name":"vase","coordinates":[0.5408344096607631,0.11867222984631856,0.022253791491190594,0.0584845503171285]},{"name":"bottle","coordinates":[0.0982576118575202,0.1472810725371043,0.018212686644660102,0.05686849355697632]},{"name":"bottle","coordinates":[0.07659981383217707,0.14781447251637775,0.01860624154408773,0.05427641868591308]}]}
