{"src":"https://a0.muscache.com/im/pictures/a2f6752e-2192-4bc6-aa88-275b32d82541.jpg?aki_policy=xx_large","name":"Hostel Shiksha send room","listingId":15399978,"photoId":"350-6","tags":[{"name":"diningtable","coordinates":[0.29028195275200736,0.834121831258138,0.5214179144965277,0.2749637603759766]},{"name":"refrigerator","coordinates":[0.5729011959499783,0.47668244043986,0.20036212073432075,0.577420171101888]},{"name":"chair","coordinates":[0.36195962693956163,0.9094998677571614,0.226531007554796,0.18617328008015951]},{"name":"chair","coordinates":[0.24618790944417318,0.6826241175333659,0.18362952338324653,0.13469276428222657]},{"name":"microwave","coordinates":[0.7167859395345052,0.2342871348063151,0.1649393293592665,0.1330917199452718]},{"name":"pottedplant","coordinates":[0.557884767320421,0.10180532932281494,0.12186396916707357,0.17135736147562664]},{"name":"sink","coordinates":[0.7557552761501736,0.5133239110310872,0.19825284745958116,0.08198471069335937]},{"name":"chair","coordinates":[0.06623051961263021,0.9425729751586914,0.12845614751180012,0.11019179026285807]},{"name":"chair","coordinates":[0.026809483104281957,0.7186436335245768,0.05134156545003255,0.1118614673614502]},{"name":"cup","coordinates":[0.9122489929199219,0.5107141176859538,0.0590100712246365,0.07258436679840088]},{"name":"bowl","coordinates":[0.9122489929199219,0.5107141176859538,0.0590100712246365,0.07258436679840088]},{"name":"vase","coordinates":[0.5519613054063585,0.14791450500488282,0.022253791491190594,0.0584845503171285]},{"name":"bottle","coordinates":[0.10736395517985026,0.17571531931559245,0.018212686644660102,0.05686849355697632]},{"name":"bottle","coordinates":[0.08590293460422092,0.1749526818593343,0.01860624154408773,0.05427641868591308]}]}
