{"src":"https://a0.muscache.com/im/pictures/f02faaef-80bf-4347-9706-e86f90749e56.jpg?aki_policy=xx_large","name":"Hostel Shiksha send room","listingId":15399978,"photoId":"350-1","tags":[{"name":"bed","coordinates":[0.8524872673882379,0.4912156422932943,0.3117931577894423,0.7931132634480794]},{"name":"chair","coordinates":[0.33693843417697483,0.7403800964355469,0.34874235788981117,0.5172274271647136]},{"name":"diningtable","coordinates":[0.1770966953701443,0.820508066813151,0.3675524393717448,0.3746582349141439]},{"name":"pottedplant","coordinates":[0.11474540498521593,0.39391730626424154,0.20486070844862198,0.35376663208007814]},{"name":"pottedplant","coordinates":[0.6462889353434245,0.45592466990152997,0.13306651645236545,0.28737802505493165]}]}
