{"src":"https://a0.muscache.com/im/pictures/820b12f5-2a74-4460-bf7a-198d00f43ce1.jpg?aki_policy=xx_large","name":"Nice  spacious house very very close to the beach","listingId":15748945,"photoId":"353-5","tags":[{"name":"bench","coordinates":[0.3782245212131076,0.7967002232869466,0.7167656792534722,0.33439480463663734]},{"name":"umbrella","coordinates":[1.0034249199761285,0.3747444152832031,0.20234449174669053,0.7137542724609375]},{"name":"chair","coordinates":[0.8482457478841146,0.5792593638102214,0.23717019822862412,0.30907201766967773]},{"name":"pottedplant","coordinates":[1.6652211507161458,0.6267413457234701,0.10847063064575195,0.1599546750386556]},{"name":"pottedplant","coordinates":[0.22545865376790364,0.4576481819152832,0.17107952965630424,0.09406991004943847]}]}
