{"src":"https://a0.muscache.com/im/pictures/02e35f6e-0125-4a2c-9386-9d455c8ec4b1.jpg?aki_policy=xx_large","name":"W.House [留白-清]老青岛观象山民宿","listingId":15425977,"photoId":"354-10","tags":[{"name":"person","coordinates":[0.216911866929796,0.33403759002685546,0.4171656290690104,0.6948651631673177]},{"name":"diningtable","coordinates":[0.22274545033772786,0.7879596710205078,0.4439036051432292,0.4428008715311686]},{"name":"cup","coordinates":[0.10140136082967123,0.7727821985880534,0.11770129733615452,0.14780743916829428]},{"name":"person","coordinates":[0.39908621046278214,0.2914345423380534,0.08869135114881728,0.16916639010111492]},{"name":"cup","coordinates":[0.23772125244140624,0.7339977264404297,0.10805395974053277,0.13664693832397462]},{"name":"bowl","coordinates":[0.25175840589735243,0.5988733291625976,0.12369342380099826,0.10232946077982584]}]}
