{"src":"https://a0.muscache.com/im/pictures/856f9db3-671c-4608-8033-cf09dac98088.jpg?aki_policy=xx_large","name":"Четырехкомнатная квартира, Комсомольская 122","listingId":15445745,"photoId":"357-4","tags":[{"name":"sofa","coordinates":[0.2584518835839708,0.8732046127319336,0.37734119484255474,0.2541323661804199]},{"name":"oven","coordinates":[0.7125993710068237,0.75943603515625,0.2185726882022014,0.34290889104207356]},{"name":"chair","coordinates":[0.5141458949061196,0.827165158589681,0.15849621471675612,0.3404157002766927]},{"name":"chair","coordinates":[0.34148187332259433,0.6644681930541992,0.10019605315610332,0.14329376220703124]},{"name":"bowl","coordinates":[0.13103711124255693,0.8541620254516602,0.06923658559319042,0.07402774492899576]},{"name":"pottedplant","coordinates":[0.15160081250611201,0.7796091715494792,0.06728676595674603,0.06986951033274333]},{"name":"tvmonitor","coordinates":[0.48487465636952365,0.4232090950012207,0.06457871289843478,0.06451478004455566]},{"name":"bowl","coordinates":[0.2238810065724422,0.8374851862589519,0.045162370705637715,0.04530339241027832]}]}
