{"src":"https://a0.muscache.com/im/pictures/438c2845-b15a-496d-9ecb-86393177131e.jpg?aki_policy=xx_large","name":"Nice and spacious. A place you can call home!","listingId":15785936,"photoId":"358-3","tags":[{"name":"diningtable","coordinates":[0.17352603276570638,0.7241673787434896,0.4010425567626953,0.4694475491841634]},{"name":"oven","coordinates":[0.8089463127983941,0.5668853123982748,0.15312893125745985,0.3310957908630371]},{"name":"bottle","coordinates":[0.05405288272433811,0.6427865346272786,0.06125083499484592,0.27921803792317706]},{"name":"wine-glass","coordinates":[0.1526547114054362,0.6907663345336914,0.060756121741400826,0.24390428860982258]},{"name":"bowl","coordinates":[0.19269652896457248,0.5725226720174154,0.1181173324584961,0.07671785354614258]},{"name":"vase","coordinates":[0.2921459197998047,0.4338957150777181,0.03770996199713813,0.11589659849802653]}]}
