{"src":"https://a0.muscache.com/im/pictures/c32a2071-f4a8-454a-ad6d-4b6d1103f96c.jpg?aki_policy=xx_large","name":"Big appartment close to city centre","listingId":10874386,"photoId":"36-5","tags":[{"name":"diningtable","coordinates":[0.37319360555295983,0.7131350835164388,0.7347470682751651,0.5479450861612956]},{"name":"chair","coordinates":[0.09197014396147536,0.8850472132364909,0.18005623638381216,0.22962312698364257]},{"name":"sink","coordinates":[0.11360164212583666,0.5431294759114583,0.18092373780315543,0.08171716531117758]},{"name":"oven","coordinates":[0.3506257079738569,0.3382147789001465,0.06947725638229094,0.16767632166544597]},{"name":"bottle","coordinates":[0.5345025201831971,0.5181102116902669,0.04101435962406418,0.1747121810913086]},{"name":"bottle","coordinates":[0.499982555320432,0.5109518051147461,0.03284950150236467,0.15872241655985514]}]}
