{"src":"https://a0.muscache.com/im/pictures/f02c4232-d42e-4905-a87f-df61a5a48a62.jpg?aki_policy=xx_large","name":"Luxurious apartement at The Hague's cosiest corner","listingId":15851527,"photoId":"360-2","tags":[{"name":"bed","coordinates":[0.5069688857841756,0.8064828872680664,0.9854495065718186,0.37935072580973306]},{"name":"diningtable","coordinates":[0.4121967373873093,0.569416364034017,0.3872008092195085,0.18472843170166015]},{"name":"chair","coordinates":[0.2700248644189927,0.5508632024129232,0.16995403273922396,0.20832564036051432]},{"name":"chair","coordinates":[0.5670594362213939,0.5739283243815104,0.12572899340921898,0.18472712834676105]},{"name":"chair","coordinates":[0.439598940612539,0.5861674626668294,0.13265104465775615,0.15936935742696126]},{"name":"chair","coordinates":[0.21995885163834952,0.5251379648844401,0.10614897242531532,0.18748499552408854]},{"name":"chair","coordinates":[0.4785447034690317,0.48794310887654624,0.09665349783083933,0.02513173222541809]},{"name":"vase","coordinates":[0.6472810065366028,0.4207545598347982,0.02596437980662437,0.04810035228729248]}]}
