{"src":"https://a0.muscache.com/im/pictures/4759064/55bc005a_original.jpg?aki_policy=xx_large","name":"Private Room &amp; breakfast in Caracas","listingId":155027,"photoId":"361-0","tags":[{"name":"oven","coordinates":[0.3164264501342349,0.5501819928487142,0.2565493606874891,0.44552021026611327]},{"name":"microwave","coordinates":[0.029545575235352242,0.5218037287394206,0.15515772943450312,0.2286969502766927]},{"name":"microwave","coordinates":[0.49911380261493443,0.16499437888463336,0.08942515656217426,0.11217766602834066]},{"name":"bottle","coordinates":[0.8333011054595035,0.09264491399129232,0.04424893218167048,0.10346062978108723]},{"name":"bowl","coordinates":[0.41872879197980234,0.5489343126614888,0.06587613167408193,0.05454849402109782]},{"name":"bottle","coordinates":[0.6552942128874014,0.36412002046902975,0.01778393838867866,0.05698576370875041]}]}
