{"src":"https://a0.muscache.com/im/pictures/4759064/55bc005a_original.jpg?aki_policy=xx_large","name":"Private Room &amp; breakfast in Caracas","listingId":155027,"photoId":"361-0","tags":[{"name":"oven","coordinates":[0.4447011304779795,0.7729420979817708,0.2565493606874891,0.44552021026611327]},{"name":"microwave","coordinates":[0.1071244399526038,0.6361522038777669,0.15515772943450312,0.2286969502766927]},{"name":"microwave","coordinates":[0.5438263808960215,0.2210832118988037,0.08942515656217426,0.11217766602834066]},{"name":"bottle","coordinates":[0.8554255715503388,0.14437522888183593,0.04424893218167048,0.10346062978108723]},{"name":"bowl","coordinates":[0.4516668578168433,0.5762085596720378,0.06587613167408193,0.05454849402109782]},{"name":"bottle","coordinates":[0.6641861820817407,0.39261290232340496,0.01778393838867866,0.05698576370875041]}]}
