{"src":"https://a0.muscache.com/im/pictures/d6e6b22d-d397-4b7e-b36b-23e2eb0db1da.jpg?aki_policy=xx_large","name":"Modern and classic apartment in center The Hague","listingId":15852314,"photoId":"361-0","tags":[{"name":"sofa","coordinates":[0.4409133063422309,0.7070383707682292,0.2739768346150716,0.30113964080810546]},{"name":"pottedplant","coordinates":[0.9418464660644531,0.7746951421101888,0.11606824662950303,0.421230951944987]},{"name":"pottedplant","coordinates":[0.8699595133463541,0.4767727851867676,0.048747211032443574,0.1456146717071533]},{"name":"tvmonitor","coordinates":[0.6296138763427734,0.5492038726806641,0.05456559393141005,0.12860800425211588]},{"name":"vase","coordinates":[0.7413825141059027,0.4793951988220215,0.039918918079800074,0.11869335969289144]}]}
