{"src":"https://a0.muscache.com/im/pictures/9ad2bcea-ed9d-46c2-83ba-252c773a2ac2.jpg?aki_policy=xx_large","name":"Wonderful 330m2 house in The Hague city centre","listingId":15855298,"photoId":"362-6","tags":[{"name":"diningtable","coordinates":[0.9245883517795139,0.6634402592976888,0.4139035118950738,0.25409817695617676]},{"name":"chair","coordinates":[1.2885587904188367,0.6397947947184245,0.21044705708821615,0.25542163848876953]},{"name":"sofa","coordinates":[0.5020113627115885,0.5771737416585286,0.30455593532986114,0.1632899284362793]},{"name":"chair","coordinates":[1.0325326707628038,0.6371183395385742,0.22713695102267795,0.20265755653381348]},{"name":"chair","coordinates":[0.07765631675720215,0.5839293162027995,0.15155860053168402,0.09360996087392172]},{"name":"tvmonitor","coordinates":[1.0998874240451388,0.4952228864034017,0.11843654844495985,0.06088314851125081]}]}
