{"src":"https://a0.muscache.com/im/pictures/99271e90-80fc-4d29-be5c-6cd7ffa7c9b6.jpg?aki_policy=xx_large","name":"毗邻世博园温馨舒适美式乡村风格的双拼别墅","listingId":15505065,"photoId":"362-10","tags":[{"name":"bowl","coordinates":[0.25375067392985023,0.5769357681274414,0.4708900027804904,0.4409955342610677]},{"name":"bowl","coordinates":[0.2340545654296875,0.5987967809041341,0.38219867282443576,0.20583407084147134]},{"name":"donut","coordinates":[0.2637291802300347,0.6093685150146484,0.15777656767103407,0.0809786081314087]},{"name":"donut","coordinates":[0.3917697482638889,0.5667405446370443,0.1259294933742947,0.07623643080393473]},{"name":"hot-dog","coordinates":[0.3917697482638889,0.5667405446370443,0.1259294933742947,0.07623643080393473]},{"name":"hot-dog","coordinates":[0.3594220903184679,0.5334385553995769,0.10653727849324544,0.07593111991882324]},{"name":"donut","coordinates":[0.3922758314344618,0.6044245402018229,0.10851662953694662,0.06286129951477051]},{"name":"vase","coordinates":[0.1611455069647895,0.04739049275716146,0.049374834696451826,0.07738197644551595]}]}
