{"src":"https://a0.muscache.com/im/pictures/99271e90-80fc-4d29-be5c-6cd7ffa7c9b6.jpg?aki_policy=xx_large","name":"毗邻世博园温馨舒适美式乡村风格的双拼别墅","listingId":15505065,"photoId":"362-10","tags":[{"name":"bowl","coordinates":[0.018305672539605022,0.3564380009969076,0.4708900027804904,0.4409955342610677]},{"name":"bowl","coordinates":[0.04295522901746962,0.49587974548339847,0.38219867282443576,0.20583407084147134]},{"name":"donut","coordinates":[0.18484089639451767,0.568879210948944,0.15777656767103407,0.0809786081314087]},{"name":"donut","coordinates":[0.32880500157674153,0.5286223292350769,0.1259294933742947,0.07623643080393473]},{"name":"hot-dog","coordinates":[0.32880500157674153,0.5286223292350769,0.1259294933742947,0.07623643080393473]},{"name":"hot-dog","coordinates":[0.30615345107184516,0.4954729954401652,0.10653727849324544,0.07593111991882324]},{"name":"donut","coordinates":[0.3380175166659885,0.5729938904444376,0.10851662953694662,0.06286129951477051]},{"name":"vase","coordinates":[0.13645808961656358,0.008699504534403484,0.049374834696451826,0.07738197644551595]}]}
