{"src":"https://a0.muscache.com/im/pictures/db1514ef-61ef-488d-b33e-fe93a23f23b4.jpg?aki_policy=xx_large","name":"Victory House - Private Room 1","listingId":15510065,"photoId":"363-1","tags":[{"name":"pottedplant","coordinates":[0.7911655849880642,0.7243797302246093,0.36835403442382814,0.5709468205769856]},{"name":"diningtable","coordinates":[0.21522282494439018,0.8229667027791341,0.4075428432888455,0.323185666402181]},{"name":"chair","coordinates":[0.40533209906684026,0.5179436683654786,0.13142993715074328,0.22117536862691242]},{"name":"tvmonitor","coordinates":[0.08029333750406902,0.41544758478800453,0.14907250934176974,0.15549357732137045]},{"name":"chair","coordinates":[0.522127448187934,0.9114546457926432,0.13094921112060548,0.1663710912068685]},{"name":"chair","coordinates":[0.3409092161390517,0.7643503189086914,0.06241023805406359,0.20474379857381184]},{"name":"book","coordinates":[0.9323978000217014,0.36266311009724933,0.042442104551527235,0.10574460824330648]},{"name":"book","coordinates":[0.8934310913085938,0.3661647796630859,0.04580208460489909,0.09143349329630533]},{"name":"book","coordinates":[0.9135737948947482,0.3647947629292806,0.040165792571173774,0.10370848973592123]},{"name":"book","coordinates":[0.9500910441080729,0.3631007194519043,0.03695813814798991,0.10838175614674886]},{"name":"book","coordinates":[0.8760375128851996,0.36378561655680336,0.04635091357760959,0.08191099166870117]},{"name":"book","coordinates":[0.8569207933213976,0.36055631637573243,0.03979735374450684,0.07373368740081787]}]}
