{"src":"https://a0.muscache.com/im/pictures/db1514ef-61ef-488d-b33e-fe93a23f23b4.jpg?aki_policy=xx_large","name":"Victory House - Private Room 1","listingId":15510065,"photoId":"363-1","tags":[{"name":"pottedplant","coordinates":[0.6069885677761502,0.4389063199361165,0.36835403442382814,0.5709468205769856]},{"name":"diningtable","coordinates":[0.011451403299967439,0.6613738695780436,0.4075428432888455,0.323185666402181]},{"name":"chair","coordinates":[0.33961713049146863,0.40735598405202234,0.13142993715074328,0.22117536862691242]},{"name":"tvmonitor","coordinates":[0.005757082833184143,0.3377007961273193,0.14907250934176974,0.15549357732137045]},{"name":"chair","coordinates":[0.4566528426276313,0.828269100189209,0.13094921112060548,0.1663710912068685]},{"name":"chair","coordinates":[0.3097040971120199,0.6619784196217855,0.06241023805406359,0.20474379857381184]},{"name":"book","coordinates":[0.9111767477459377,0.3097908059755961,0.042442104551527235,0.10574460824330648]},{"name":"book","coordinates":[0.8705300490061443,0.32044803301493324,0.04580208460489909,0.09143349329630533]},{"name":"book","coordinates":[0.8934908986091613,0.31294051806131995,0.040165792571173774,0.10370848973592123]},{"name":"book","coordinates":[0.9316119750340779,0.3089098413785299,0.03695813814798991,0.10838175614674886]},{"name":"book","coordinates":[0.8528620560963948,0.32283012072245276,0.04635091357760959,0.08191099166870117]},{"name":"book","coordinates":[0.8370221164491441,0.3236894726753235,0.03979735374450684,0.07373368740081787]}]}
