{"src":"https://a0.muscache.com/im/pictures/98cde5cd-0fe7-4303-abcc-1b015c336ac5.jpg?aki_policy=xx_large","name":"Wayfarer's Rest - Bed 2","listingId":15523263,"photoId":"364-1","tags":[{"name":"chair","coordinates":[0.7203677972157796,0.6589118957519532,0.15018254386054145,0.33957316080729166]},{"name":"chair","coordinates":[0.053691122266981334,0.8810005863507588,0.3155541737874349,0.11825013955434163]},{"name":"laptop","coordinates":[0.4397843519846598,0.6587316592534384,0.15208556916978624,0.21822749773661296]},{"name":"tvmonitor","coordinates":[0.39369475576612684,0.14433008829752603,0.15596918529934353,0.18493070602416992]},{"name":"chair","coordinates":[0.2185670428805881,0.7284378051757813,0.12375034756130643,0.18818944295247395]},{"name":"chair","coordinates":[0.31827543841467965,0.7158461332321167,0.08545365333557128,0.205340305964152]},{"name":"mouse","coordinates":[0.4444630861282349,0.855102308591207,0.04710906876458062,0.03176404635111491]}]}
