{"src":"https://a0.muscache.com/im/pictures/1e0506d9-f067-4032-9656-51d0119952c4.jpg?aki_policy=xx_large","name":"Trendy house in the center of Den Haag","listingId":15870313,"photoId":"364-3","tags":[{"name":"refrigerator","coordinates":[0.11874023013644748,0.5810993194580079,0.22509579128689236,0.8814282735188802]},{"name":"oven","coordinates":[0.25357820722791885,0.8359365463256836,0.3107190661960178,0.31048800150553385]},{"name":"sink","coordinates":[0.72819578382704,0.8778633753458659,0.3024111641777886,0.18652105331420898]},{"name":"bottle","coordinates":[0.6989017062717013,0.7389373779296875,0.04383222262064616,0.12933449745178222]},{"name":"bottle","coordinates":[0.44619611104329426,0.6557158788045248,0.030494054158528645,0.14574206670125325]},{"name":"bottle","coordinates":[0.47508854336208767,0.6566381454467773,0.02584162023332384,0.1459154446919759]},{"name":"bottle","coordinates":[0.5028793758816189,0.666703732808431,0.026580198605855306,0.11808044115702311]}]}
