{"src":"https://a0.muscache.com/im/pictures/8215d155-d683-46e5-ba21-5e2eead61fba.jpg?aki_policy=xx_large","name":"Trendy house in the center of Den Haag","listingId":15870313,"photoId":"364-1","tags":[{"name":"chair","coordinates":[0.13375820583767362,0.8307814280192057,0.19394872453477646,0.2658117930094401]},{"name":"pottedplant","coordinates":[0.2555570602416992,0.588040542602539,0.11441374884711372,0.32163912455240884]},{"name":"car","coordinates":[0.12713175879584418,0.5141053199768066,0.04909888903299967,0.07155183156331381]},{"name":"vase","coordinates":[0.2500666724310981,0.7054028193155925,0.044407910770840116,0.07291176319122314]},{"name":"vase","coordinates":[0.350167359246148,0.6625405629475911,0.025189979871114095,0.10821201006571451]},{"name":"pottedplant","coordinates":[0.18904503716362847,0.5826569239298502,0.03249852922227647,0.05587002436319987]}]}
