{"src":"https://a0.muscache.com/im/pictures/98cde5cd-0fe7-4303-abcc-1b015c336ac5.jpg?aki_policy=xx_large","name":"Wayfarer's Rest - Bed 2","listingId":15523263,"photoId":"364-0","tags":[{"name":"chair","coordinates":[0.7954590691460504,0.828698476155599,0.15018254386054145,0.33957316080729166]},{"name":"chair","coordinates":[0.21146820916069878,0.9401256561279296,0.3155541737874349,0.11825013955434163]},{"name":"laptop","coordinates":[0.5158271365695529,0.7678454081217448,0.15208556916978624,0.21822749773661296]},{"name":"tvmonitor","coordinates":[0.4716793484157986,0.236795441309611,0.15596918529934353,0.18493070602416992]},{"name":"chair","coordinates":[0.2804422166612413,0.8225325266520183,0.12375034756130643,0.18818944295247395]},{"name":"chair","coordinates":[0.3610022650824653,0.8185162862141927,0.08545365333557128,0.205340305964152]},{"name":"mouse","coordinates":[0.4680176205105252,0.8709843317667644,0.04710906876458062,0.03176404635111491]}]}
