{"src":"https://a0.muscache.com/im/pictures/30ccc49a-48b8-4435-a5f6-97fbbf7be4a2.jpg?aki_policy=xx_large","name":"Absolutely Fabulous - cozy room near centre/beach","listingId":15878978,"photoId":"366-8","tags":[{"name":"person","coordinates":[0.38424563937717016,0.634715207417806,0.2175770017835829,0.5961911519368489]},{"name":"chair","coordinates":[0.2246931923760308,0.8054836908976237,0.1584508154127333,0.3794282595316569]},{"name":"chair","coordinates":[0.36014217800564235,0.7870722452799479,0.13249241511027018,0.362132994333903]},{"name":"bicycle","coordinates":[0.05899633831448025,0.667430305480957,0.1293436050415039,0.3243721961975098]},{"name":"pottedplant","coordinates":[0.22811061011420355,0.4771595001220703,0.14849939346313476,0.21231597264607746]},{"name":"pottedplant","coordinates":[0.1682862811618381,0.4402870814005534,0.0893797132703993,0.2053703784942627]},{"name":"bottle","coordinates":[0.3037147733900282,0.5289771397908528,0.035028235117594404,0.07852209409077962]},{"name":"bottle","coordinates":[0.2822476069132487,0.6251566569010417,0.019815811845991346,0.1003827174504598]}]}
