{"src":"https://a0.muscache.com/im/pictures/cc06fbf7-e1b9-458c-a237-673dcd4b3e57.jpg?aki_policy=xx_large","name":"Absolutely Fabulous - cozy room near centre/beach","listingId":15878978,"photoId":"366-3","tags":[{"name":"bowl","coordinates":[0.22498590681287978,0.5949959437052409,0.4002365960015191,0.3169288635253906]},{"name":"bottle","coordinates":[0.4654610527886285,0.4352792421976725,0.1734609709845649,0.3934525489807129]},{"name":"book","coordinates":[0.20288374159071182,0.4171667734781901,0.1312108039855957,0.23511064847310384]},{"name":"vase","coordinates":[0.7412502712673611,0.3351626396179199,0.1321921984354655,0.22206095059712727]},{"name":"cup","coordinates":[0.8933202107747396,0.5263312021891277,0.11904092364841037,0.20871084531148273]},{"name":"cup","coordinates":[0.7866755167643229,0.5068267504374186,0.11361953947279188,0.20899030367533367]}]}
