{"src":"https://a0.muscache.com/im/pictures/4ff661df-96d1-45a6-aae7-600ea84cb22c.jpg?aki_policy=xx_large","name":"Absolutely Fabulous - cozy room near centre/beach","listingId":15878978,"photoId":"366-7","tags":[{"name":"diningtable","coordinates":[0.12035088539123535,0.8286319096883138,0.22281641960144044,0.3147788683573405]},{"name":"chair","coordinates":[0.23554751873016358,0.823825454711914,0.12854762077331544,0.34537016550699867]},{"name":"chair","coordinates":[0.552815294265747,0.8297446568806967,0.1753705620765686,0.1607554276784261]},{"name":"refrigerator","coordinates":[0.8819913864135742,0.5689601262410482,0.11736433506011963,0.21123743057250977]},{"name":"pottedplant","coordinates":[0.2709961891174316,0.51512025197347,0.1451700210571289,0.16789836883544923]},{"name":"chair","coordinates":[0.05277031660079956,0.8779019673665365,0.1079639196395874,0.225585412979126]},{"name":"chair","coordinates":[0.45917763710021975,0.7803008397420247,0.12176156044006348,0.1494597911834717]},{"name":"book","coordinates":[0.8305346488952636,0.703218142191569,0.12922587394714355,0.030710015694300333]}]}
