{"src":"https://a0.muscache.com/im/pictures/5e7c4e84-e5e7-47cd-8c7a-b82e99a5a614.jpg?aki_policy=xx_large","name":"【출장,휴가적합형】 청주CHEONG-JU 시외-고속터미널앞 교통편리,주변 즐길거리풍부한 家","listingId":15573547,"photoId":"367-0","tags":[{"name":"chair","coordinates":[0.07491118113199868,0.5454676946004231,0.2921112484402127,0.4305348714192708]},{"name":"microwave","coordinates":[0.6615498012966581,0.41799054145812986,0.10782606336805556,0.18454809188842775]},{"name":"oven","coordinates":[0.4694491068522135,0.5295355002085368,0.07420908610026042,0.2606797218322754]},{"name":"tvmonitor","coordinates":[0.9462317917082045,0.49240768750508623,0.05425475968254937,0.1936851183573405]},{"name":"microwave","coordinates":[0.6816810978783501,0.44564349253972374,0.08576313654581706,0.10332074960072836]},{"name":"pottedplant","coordinates":[0.854930641916063,0.5407940189043681,0.05269110467698839,0.10960217316945393]}]}
