{"src":"https://a0.muscache.com/im/pictures/2e2f46e3-730c-4fd3-9ffa-2f5664532c2c.jpg?aki_policy=xx_large","name":"【출장,휴가적합형】 청주CHEONG-JU 시외-고속터미널앞 교통편리,주변 즐길거리풍부한 家","listingId":15573547,"photoId":"367-1","tags":[{"name":"chair","coordinates":[0.8624330425085517,0.8207740147908529,0.2537079989799542,0.37941703796386717]},{"name":"tvmonitor","coordinates":[0.8419624286149119,0.28055477142333984,0.3220144070145814,0.23231345812479656]},{"name":"microwave","coordinates":[0.17595611742122275,0.24000380833943685,0.2430831258062529,0.19161996841430665]},{"name":"pottedplant","coordinates":[0.5059375656779047,0.34059616724650066,0.19792667877253883,0.20937898953755696]},{"name":"keyboard","coordinates":[0.8395755463495768,0.4609476089477539,0.2819975391168541,0.031173102060953774]}]}
