{"src":"https://a0.muscache.com/im/pictures/5e7c4e84-e5e7-47cd-8c7a-b82e99a5a614.jpg?aki_policy=xx_large","name":"【출장,휴가적합형】 청주CHEONG-JU 시외-고속터미널앞 교통편리,주변 즐길거리풍부한 家","listingId":15573547,"photoId":"367-0","tags":[{"name":"chair","coordinates":[0.22096680535210503,0.7607351303100586,0.2921112484402127,0.4305348714192708]},{"name":"microwave","coordinates":[0.7154628329806858,0.5102645874023437,0.10782606336805556,0.18454809188842775]},{"name":"oven","coordinates":[0.5065536499023438,0.6598753611246745,0.07420908610026042,0.2606797218322754]},{"name":"tvmonitor","coordinates":[0.9733591715494792,0.5892502466837565,0.05425475968254937,0.1936851183573405]},{"name":"microwave","coordinates":[0.7245626661512586,0.4973038673400879,0.08576313654581706,0.10332074960072836]},{"name":"pottedplant","coordinates":[0.8812761942545573,0.595595105489095,0.05269110467698839,0.10960217316945393]}]}
