{"src":"https://a0.muscache.com/im/pictures/2e2f46e3-730c-4fd3-9ffa-2f5664532c2c.jpg?aki_policy=xx_large","name":"【출장,휴가적합형】 청주CHEONG-JU 시외-고속터미널앞 교통편리,주변 즐길거리풍부한 家","listingId":15573547,"photoId":"367-1","tags":[{"name":"chair","coordinates":[0.645626958211263,0.8207740147908529,0.18992862701416016,0.37941703796386717]},{"name":"tvmonitor","coordinates":[0.6303024291992188,0.28055477142333984,0.24106356302897136,0.23231345812479656]},{"name":"microwave","coordinates":[0.1317227045694987,0.24000380833943685,0.181974728902181,0.19161996841430665]},{"name":"pottedplant","coordinates":[0.378750483194987,0.34059616724650066,0.14817011091444227,0.20937898953755696]},{"name":"keyboard","coordinates":[0.6285155826144748,0.4609476089477539,0.2111064910888672,0.031173102060953774]}]}
