{"src":"https://a0.muscache.com/im/pictures/be16fc72-b45a-485f-a3ca-e639c1932102.jpg?aki_policy=xx_large","name":"Comfortable apartment in Los Palos Grandes","listingId":15585467,"photoId":"368-1","tags":[{"name":"diningtable","coordinates":[0.02607337103949653,0.5422971089680989,0.32536549038357204,0.3857237497965495]},{"name":"diningtable","coordinates":[0.2434088389078776,0.8299675464630127,0.4752667744954427,0.1684271812438965]},{"name":"chair","coordinates":[0.002441914876302076,0.5465930461883545,0.16007537841796876,0.3341167132059733]},{"name":"chair","coordinates":[0.1903646734025743,0.5306772708892822,0.13736405902438695,0.3615049044291178]},{"name":"refrigerator","coordinates":[0.8112636062833999,0.30933008193969724,0.059831762313842775,0.41957740783691405]},{"name":"oven","coordinates":[0.5906752109527588,0.4861859162648519,0.09485926098293729,0.2043381690979004]},{"name":"orange","coordinates":[0.45977711412641736,0.8182812134424845,0.04947839842902289,0.09021191596984864]},{"name":"vase","coordinates":[0.11949720382690429,0.4879550059636434,0.04001297420925564,0.07479519844055176]},{"name":"cup","coordinates":[0.4167682409286499,0.9292067408561706,0.03643752733866374,0.07306883335113526]},{"name":"vase","coordinates":[0.5804951104852888,0.2753783921400706,0.021782521406809488,0.039183413982391356]},{"name":"vase","coordinates":[0.540180751350191,0.28091384172439576,0.017927308877309162,0.040778644879659015]}]}
