{"src":"https://a0.muscache.com/im/pictures/1f2b07eb-eeb4-4b23-817b-46ebabff264e.jpg?aki_policy=xx_large","name":"Comfortable apartment in Los Palos Grandes","listingId":15585467,"photoId":"368-2","tags":[{"name":"sofa","coordinates":[0.19699261983235677,0.7659371693929037,0.39594624837239584,0.43407084147135416]},{"name":"sofa","coordinates":[0.3800826178656684,0.5691956837972005,0.3671805063883464,0.2862684885660807]},{"name":"tvmonitor","coordinates":[0.7281678093804254,0.32179381052652994,0.14490738974677192,0.14599148432413736]},{"name":"remote","coordinates":[0.5737260606553819,0.7833550771077474,0.07665917078653971,0.04218737681706746]},{"name":"apple","coordinates":[0.6807836744520399,0.8420506159464518,0.03221160040961372,0.05551286141077678]},{"name":"apple","coordinates":[0.659726799858941,0.8698876063028972,0.030067147148980036,0.04848057428995768]}]}
