{"src":"https://a0.muscache.com/im/pictures/be16fc72-b45a-485f-a3ca-e639c1932102.jpg?aki_policy=xx_large","name":"Comfortable apartment in Los Palos Grandes","listingId":15585467,"photoId":"368-1","tags":[{"name":"diningtable","coordinates":[0.18875611623128255,0.7351589838663737,0.32536549038357204,0.3857237497965495]},{"name":"diningtable","coordinates":[0.48104222615559894,0.914181137084961,0.4752667744954427,0.1684271812438965]},{"name":"chair","coordinates":[0.08247960408528646,0.7136514027913411,0.16007537841796876,0.3341167132059733]},{"name":"chair","coordinates":[0.2590467029147678,0.7114297231038411,0.13736405902438695,0.3615049044291178]},{"name":"refrigerator","coordinates":[0.8411794874403212,0.5191187858581543,0.059831762313842775,0.41957740783691405]},{"name":"oven","coordinates":[0.6381048414442274,0.5883550008138021,0.09485926098293729,0.2043381690979004]},{"name":"orange","coordinates":[0.4845163133409288,0.8633871714274088,0.04947839842902289,0.09021191596984864]},{"name":"vase","coordinates":[0.13950369093153211,0.5253526051839192,0.04001297420925564,0.07479519844055176]},{"name":"cup","coordinates":[0.4349870045979818,0.9657411575317383,0.03643752733866374,0.07306883335113526]},{"name":"vase","coordinates":[0.5913863711886935,0.29497009913126626,0.021782521406809488,0.039183413982391356]},{"name":"vase","coordinates":[0.5491444057888455,0.30130316416422526,0.017927308877309162,0.040778644879659015]}]}
