{"src":"https://a0.muscache.com/im/pictures/1f2b07eb-eeb4-4b23-817b-46ebabff264e.jpg?aki_policy=xx_large","name":"Comfortable apartment in Los Palos Grandes","listingId":15585467,"photoId":"368-2","tags":[{"name":"sofa","coordinates":[-0.000980504353841144,0.5489017486572266,0.39594624837239584,0.43407084147135416]},{"name":"sofa","coordinates":[0.1964923646714952,0.4260614395141602,0.3671805063883464,0.2862684885660807]},{"name":"tvmonitor","coordinates":[0.6557141145070394,0.24879806836446128,0.14490738974677192,0.14599148432413736]},{"name":"remote","coordinates":[0.5353964752621121,0.7622613886992137,0.07665917078653971,0.04218737681706746]},{"name":"apple","coordinates":[0.664677874247233,0.8142941852410635,0.03221160040961372,0.05551286141077678]},{"name":"apple","coordinates":[0.644693226284451,0.8456473191579184,0.030067147148980036,0.04848057428995768]}]}
