{"src":"https://a0.muscache.com/im/pictures/37603fdb-718d-46a4-882c-c90d6ccf5ae1.jpg?aki_policy=xx_large","name":"Spacious 1BR/1BA pvt. home/apt. in West Meade","listingId":15595325,"photoId":"369-8","tags":[{"name":"refrigerator","coordinates":[0.2741351326860093,0.640043576558431,0.23638178578326297,0.5178591092427571]},{"name":"diningtable","coordinates":[0.6746227721317897,0.7700520833333333,0.3221854632279335,0.3582058588663737]},{"name":"oven","coordinates":[0.13110962551616362,0.7655911763509115,0.2307637249194812,0.434547487894694]},{"name":"chair","coordinates":[0.5532750631773372,0.7409877777099609,0.13242446346867384,0.3227656364440918]},{"name":"vase","coordinates":[0.611484878242514,0.5908628463745117,0.02435408196409433,0.07523725032806397]},{"name":"vase","coordinates":[0.6225072069088396,0.5836700439453125,0.022525423416520227,0.07785844802856445]}]}
