{"src":"https://a0.muscache.com/im/pictures/37603fdb-718d-46a4-882c-c90d6ccf5ae1.jpg?aki_policy=xx_large","name":"Spacious 1BR/1BA pvt. home/apt. in West Meade","listingId":15595325,"photoId":"369-8","tags":[{"name":"refrigerator","coordinates":[0.15594423979437783,0.38111402193705246,0.23638178578326297,0.5178591092427571]},{"name":"diningtable","coordinates":[0.5135300405178229,0.5909491539001465,0.3221854632279335,0.3582058588663737]},{"name":"oven","coordinates":[0.015727763056423025,0.5483174324035645,0.2307637249194812,0.434547487894694]},{"name":"chair","coordinates":[0.4870628314430003,0.579604959487915,0.13242446346867384,0.3227656364440918]},{"name":"vase","coordinates":[0.5993078372604668,0.5532442212104797,0.02435408196409433,0.07523725032806397]},{"name":"vase","coordinates":[0.6112444952005796,0.5447408199310303,0.022525423416520227,0.07785844802856445]}]}
