{"src":"https://a0.muscache.com/im/pictures/37603fdb-718d-46a4-882c-c90d6ccf5ae1.jpg?aki_policy=xx_large","name":"Spacious 1BR/1BA pvt. home/apt. in West Meade","listingId":15595325,"photoId":"369-8","tags":[{"name":"refrigerator","coordinates":[0.4100604693094889,0.640043576558431,0.3535877545674642,0.5178591092427571]},{"name":"diningtable","coordinates":[1.0091232299804687,0.7700520833333333,0.48193575541178385,0.3582058588663737]},{"name":"oven","coordinates":[0.19611814816792805,0.7655911763509115,0.34518407185872396,0.434547487894694]},{"name":"chair","coordinates":[0.8276072820027669,0.7409877777099609,0.19808492660522461,0.3227656364440918]},{"name":"vase","coordinates":[0.9146794637044271,0.5908628463745117,0.03642964760462443,0.07523725032806397]},{"name":"vase","coordinates":[0.9311670303344727,0.5836700439453125,0.03369427919387817,0.07785844802856445]}]}
