{"src":"https://a0.muscache.com/im/pictures/fbecb2b6-6b02-481d-8c43-0627c53bae75.jpg?aki_policy=xx_large","name":"Single room with desk/computer &amp; use of kitchen","listingId":15610848,"photoId":"372-5","tags":[{"name":"bed","coordinates":[0.4869661966959635,0.880389404296875,0.9221722073025174,0.22659039497375488]},{"name":"pottedplant","coordinates":[0.9877038743760851,0.41317532857259115,0.20390692816840278,0.30243714650472003]},{"name":"laptop","coordinates":[1.1020822313096788,0.4876490910847982,0.24274033440483941,0.15914661089579266]},{"name":"pottedplant","coordinates":[0.30989199744330514,0.49317398071289065,0.15311302608913846,0.18980085055033366]},{"name":"pottedplant","coordinates":[0.5162913428412543,0.4811367988586426,0.15550580554538304,0.1818280855814616]},{"name":"pottedplant","coordinates":[1.443626912434896,0.40368808110555016,0.12900001737806532,0.11728137334187826]},{"name":"vase","coordinates":[0.3153125762939453,0.5531566619873047,0.08243125809563531,0.06105910936991374]},{"name":"vase","coordinates":[1.4531370374891492,0.43447055816650393,0.04199967119428846,0.03694316546122233]}]}
