{"src":"https://a0.muscache.com/im/pictures/3354900c-9f1c-4daa-a87d-c7be727f24b9.jpg?aki_policy=xx_large","name":"Small Bed&amp;breakfast room in light family villa.","listingId":15671113,"photoId":"376-10","tags":[{"name":"sofa","coordinates":[0.3253250360488892,0.6292510350545247,0.4775721549987793,0.22624386151631673]},{"name":"sofa","coordinates":[0.09299525618553162,0.8279539744059244,0.18928735256195067,0.3383122762044271]},{"name":"chair","coordinates":[0.09299525618553162,0.8279539744059244,0.18928735256195067,0.3383122762044271]},{"name":"chair","coordinates":[0.04469472765922546,0.6675864537556966,0.0947722315788269,0.14704920450846354]},{"name":"pottedplant","coordinates":[0.22573707103729249,0.46785418192545575,0.057125651836395265,0.11934679349263509]},{"name":"pottedplant","coordinates":[0.4002108097076416,0.43613856633504233,0.05274314284324646,0.12184148629506429]},{"name":"pottedplant","coordinates":[0.4802560806274414,0.44903319676717124,0.05410863757133484,0.09965225060780843]},{"name":"vase","coordinates":[0.485563850402832,0.48230457305908203,0.01886803060770035,0.03933369318644206]},{"name":"vase","coordinates":[0.4021923065185547,0.48345893224080405,0.019640034437179564,0.03500017325083415]}]}
