{"src":"https://a0.muscache.com/im/pictures/9501f771-f6dc-467a-93be-83e13801cc6a.jpg?aki_policy=xx_large","name":"Small Bed&amp;breakfast room in light family villa.","listingId":15671113,"photoId":"376-7","tags":[{"name":"diningtable","coordinates":[0.429763126373291,0.8125125249226888,0.6489124933878581,0.39385951360066734]},{"name":"chair","coordinates":[0.6363688786824544,0.7988701502482096,0.28710336685180665,0.4078576405843099]},{"name":"bowl","coordinates":[0.47414236068725585,0.7005278905232747,0.13744265238444012,0.07907047271728515]},{"name":"bottle","coordinates":[0.36538661321004234,0.6865695953369141,0.05744868516921997,0.11694656213124593]},{"name":"fork","coordinates":[0.2564207394917806,0.8511938095092774,0.12148021856943766,0.03620173931121826]},{"name":"cup","coordinates":[0.31223665873209633,0.7637121836344402,0.05139122406641642,0.06780734062194824]},{"name":"vase","coordinates":[0.1099688212076823,0.5289072354634603,0.05241071383158366,0.06418185631434123]},{"name":"cup","coordinates":[0.4404173215230306,0.7638483683268229,0.04920054276784261,0.06039480368296305]},{"name":"vase","coordinates":[0.22635852495829265,0.5255677223205566,0.04169710874557495,0.06024950345357259]},{"name":"cup","coordinates":[0.3348147710164388,0.7906773885091146,0.0463595708211263,0.054043924808502196]},{"name":"cup","coordinates":[0.5033572832743327,0.7647982279459635,0.041934072971343994,0.05631337960561116]},{"name":"bowl","coordinates":[0.7457857131958008,0.5819464365641276,0.06022560199101766,0.03336435556411743]},{"name":"cup","coordinates":[0.2206140200297038,0.7161197026570638,0.041584261258443195,0.04194316466649373]}]}
