{"src":"https://a0.muscache.com/im/pictures/8957ac47-fc4d-4632-b2bd-2185dba748c8.jpg?aki_policy=xx_large","name":"Small Bed&amp;breakfast room in light family villa.","listingId":15671113,"photoId":"376-10","tags":[{"name":"pottedplant","coordinates":[0.7914427598317464,0.3037177403767904,0.18029044469197592,0.2110919952392578]},{"name":"pottedplant","coordinates":[0.35732779502868656,0.3438188950220744,0.14575351079305013,0.19142231941223145]},{"name":"bowl","coordinates":[0.6284553448359171,0.5656264464060465,0.19206010500590007,0.07585032780965169]},{"name":"vase","coordinates":[0.8252148509025573,0.3816129485766093,0.09474292596181234,0.12060741583506267]},{"name":"apple","coordinates":[0.637685771783193,0.5684806535641352,0.09032682577768962,0.03283366560935974]},{"name":"apple","coordinates":[0.7340070724487305,0.5508219520250957,0.04764874776204427,0.04626309871673584]},{"name":"cup","coordinates":[0.1889596293369929,0.1242701013882955,0.02470483978589376,0.043647170066833496]},{"name":"cup","coordinates":[0.0020025014877319332,0.10801144639650981,0.016665961345036825,0.03999005556106568]}]}
