{"src":"https://a0.muscache.com/im/pictures/3354900c-9f1c-4daa-a87d-c7be727f24b9.jpg?aki_policy=xx_large","name":"Small Bed&amp;breakfast room in light family villa.","listingId":15671113,"photoId":"376-12","tags":[{"name":"sofa","coordinates":[0.4337667147318522,0.6292510350545247,0.6367628733317058,0.22624386151631673]},{"name":"sofa","coordinates":[0.12399367491404216,0.8279539744059244,0.2523831367492676,0.3383122762044271]},{"name":"chair","coordinates":[0.12399367491404216,0.8279539744059244,0.2523831367492676,0.3383122762044271]},{"name":"chair","coordinates":[0.05959297021230062,0.6675864537556966,0.12636297543843586,0.14704920450846354]},{"name":"pottedplant","coordinates":[0.30098276138305663,0.46785418192545575,0.07616753578186035,0.11934679349263509]},{"name":"pottedplant","coordinates":[0.5336144129435222,0.43613856633504233,0.07032419045766194,0.12184148629506429]},{"name":"pottedplant","coordinates":[0.6403414408365885,0.44903319676717124,0.07214485009511312,0.09965225060780843]},{"name":"vase","coordinates":[0.647418467203776,0.48230457305908203,0.025157374143600465,0.03933369318644206]},{"name":"vase","coordinates":[0.5362564086914062,0.48345893224080405,0.02618671258290609,0.03500017325083415]}]}
