{"src":"https://a0.muscache.com/im/pictures/581e3823-15ad-4efa-a1d3-09a06954d962.jpg?aki_policy=xx_large","name":"Small Bed&amp;breakfast room in light family villa.","listingId":15671113,"photoId":"376-24","tags":[{"name":"sofa","coordinates":[0.31364166736602783,0.7277207056681315,0.622673225402832,0.593660545349121]},{"name":"sofa","coordinates":[0.8340219497680664,0.5593555450439454,0.9100980758666992,0.2810772577921549]},{"name":"pottedplant","coordinates":[0.6736886978149415,0.5461074193318685,0.14440129995346068,0.13907111485799153]},{"name":"pottedplant","coordinates":[0.5666767120361328,0.3531238555908203,0.12304575443267822,0.12580926418304444]},{"name":"pottedplant","coordinates":[0.03880189061164856,0.3563349405924479,0.06978554129600525,0.13697900772094726]},{"name":"vase","coordinates":[0.6738158702850342,0.5856973648071289,0.057192283868789676,0.0551764448483785]},{"name":"book","coordinates":[0.2649214506149292,0.47084522247314453,0.13606659173965455,0.022387295961380005]},{"name":"clock","coordinates":[0.44011812210083007,0.23598766326904297,0.03627282381057739,0.03131850163141887]}]}
