{"src":"https://a0.muscache.com/im/pictures/58dd5efb-9686-4608-960b-a2164b4f3604.jpg?aki_policy=xx_large","name":"Small Bed&amp;breakfast room in light family villa.","listingId":15671113,"photoId":"376-18","tags":[{"name":"diningtable","coordinates":[0.5508133671634121,0.782659403483073,0.7926520948419835,0.4021002769470215]},{"name":"oven","coordinates":[0.1014474709992051,0.5690122604370117,0.22092879198315454,0.6399785995483398]},{"name":"chair","coordinates":[0.3963839461355023,0.8751001993815104,0.3715433589233524,0.2565056641896566]},{"name":"chair","coordinates":[0.8641735049460432,0.7782435099283854,0.2272925538614867,0.4108240763346354]},{"name":"chair","coordinates":[0.39661955563897094,0.5744269053141277,0.3432781223402974,0.16231517791748046]},{"name":"chair","coordinates":[0.316014288875819,0.6040393193562825,0.19004268195376733,0.138120698928833]},{"name":"microwave","coordinates":[0.08975989723009539,0.22152311007181805,0.17440581052178347,0.13679237365722657]},{"name":"chair","coordinates":[0.4851620586901015,0.5596967697143554,0.1679289799187436,0.13524103164672852]},{"name":"bowl","coordinates":[0.6703555821637333,0.6339374542236328,0.19415534118464156,0.08405583699544271]},{"name":"cup","coordinates":[0.8120107778174782,0.5792715708414714,0.05046755877942735,0.06407095591227213]},{"name":"cup","coordinates":[0.7708797317614658,0.5791097640991211,0.04032866976856573,0.05587148666381836]}]}
