{"src":"https://a0.muscache.com/im/pictures/9501f771-f6dc-467a-93be-83e13801cc6a.jpg?aki_policy=xx_large","name":"Small Bed&amp;breakfast room in light family villa.","listingId":15671113,"photoId":"376-7","tags":[{"name":"diningtable","coordinates":[0.10530687967936198,0.6155827681223551,0.6489124933878581,0.39385951360066734]},{"name":"chair","coordinates":[0.4928171952565511,0.5949413299560546,0.28710336685180665,0.4078576405843099]},{"name":"bowl","coordinates":[0.4054210344950358,0.6609926541646322,0.13744265238444012,0.07907047271728515]},{"name":"bottle","coordinates":[0.33666227062543236,0.6280963142712911,0.05744868516921997,0.11694656213124593]},{"name":"fork","coordinates":[0.19568063020706178,0.8330929398536683,0.12148021856943766,0.03620173931121826]},{"name":"cup","coordinates":[0.28654104669888814,0.7298085133234661,0.05139122406641642,0.06780734062194824]},{"name":"vase","coordinates":[0.08376346429189047,0.4968163073062897,0.05241071383158366,0.06418185631434123]},{"name":"cup","coordinates":[0.4158170501391093,0.7336509664853413,0.04920054276784261,0.06039480368296305]},{"name":"vase","coordinates":[0.20550997058550516,0.4954429705937703,0.04169710874557495,0.06024950345357259]},{"name":"cup","coordinates":[0.31163498560587566,0.7636554261048635,0.0463595708211263,0.054043924808502196]},{"name":"cup","coordinates":[0.4823902467886607,0.7366415381431579,0.041934072971343994,0.05631337960561116]},{"name":"bowl","coordinates":[0.7156729122002919,0.5652642587820689,0.06022560199101766,0.03336435556411743]},{"name":"cup","coordinates":[0.19982188940048218,0.6951481203238169,0.041584261258443195,0.04194316466649373]}]}
