{"src":"https://a0.muscache.com/im/pictures/8957ac47-fc4d-4632-b2bd-2185dba748c8.jpg?aki_policy=xx_large","name":"Small Bed&amp;breakfast room in light family villa.","listingId":15671113,"photoId":"376-10","tags":[{"name":"pottedplant","coordinates":[0.8815879821777344,0.4092637379964193,0.18029044469197592,0.2110919952392578]},{"name":"pottedplant","coordinates":[0.4302045504252116,0.4395300547281901,0.14575351079305013,0.19142231941223145]},{"name":"bowl","coordinates":[0.7244853973388672,0.6035516103108723,0.19206010500590007,0.07585032780965169]},{"name":"vase","coordinates":[0.8725863138834635,0.44191665649414064,0.09474292596181234,0.12060741583506267]},{"name":"apple","coordinates":[0.6828491846720378,0.5848974863688151,0.09032682577768962,0.03283366560935974]},{"name":"apple","coordinates":[0.7578314463297526,0.5739535013834636,0.04764874776204427,0.04626309871673584]},{"name":"cup","coordinates":[0.20131204922993978,0.14609368642171225,0.02470483978589376,0.043647170066833496]},{"name":"cup","coordinates":[0.010335482160250346,0.12800647417704264,0.016665961345036825,0.03999005556106568]}]}
