{"src":"https://a0.muscache.com/im/pictures/3354900c-9f1c-4daa-a87d-c7be727f24b9.jpg?aki_policy=xx_large","name":"Small Bed&amp;breakfast room in light family villa.","listingId":15671113,"photoId":"376-12","tags":[{"name":"sofa","coordinates":[0.1153852780659993,0.5161291042963664,0.6367628733317058,0.22624386151631673]},{"name":"sofa","coordinates":[-0.0021978934605916406,0.6587978363037109,0.2523831367492676,0.3383122762044271]},{"name":"chair","coordinates":[-0.0021978934605916406,0.6587978363037109,0.2523831367492676,0.3383122762044271]},{"name":"chair","coordinates":[-0.003588517506917313,0.5940618515014648,0.12636297543843586,0.14704920450846354]},{"name":"pottedplant","coordinates":[0.2628989934921265,0.4081807851791382,0.07616753578186035,0.11934679349263509]},{"name":"pottedplant","coordinates":[0.49845231771469123,0.3752178231875102,0.07032419045766194,0.12184148629506429]},{"name":"pottedplant","coordinates":[0.6042690157890319,0.399207071463267,0.07214485009511312,0.09965225060780843]},{"name":"vase","coordinates":[0.6348397801319758,0.462637726465861,0.025157374143600465,0.03933369318644206]},{"name":"vase","coordinates":[0.5231630523999532,0.465958845615387,0.02618671258290609,0.03500017325083415]}]}
