{"src":"https://a0.muscache.com/im/pictures/581e3823-15ad-4efa-a1d3-09a06954d962.jpg?aki_policy=xx_large","name":"Small Bed&amp;breakfast room in light family villa.","listingId":15671113,"photoId":"376-24","tags":[{"name":"sofa","coordinates":[0.2090944449106852,0.7277207056681315,0.41511548360188805,0.593660545349121]},{"name":"sofa","coordinates":[0.5560146331787109,0.5593555450439454,0.6067320505777994,0.2810772577921549]},{"name":"pottedplant","coordinates":[0.44912579854329426,0.5461074193318685,0.09626753330230713,0.13907111485799153]},{"name":"pottedplant","coordinates":[0.3777844746907552,0.3531238555908203,0.08203050295511881,0.12580926418304444]},{"name":"pottedplant","coordinates":[0.025867927074432372,0.3563349405924479,0.04652369419733683,0.13697900772094726]},{"name":"vase","coordinates":[0.4492105801900228,0.5856973648071289,0.038128189245859784,0.0551764448483785]},{"name":"book","coordinates":[0.1766143004099528,0.47084522247314453,0.0907110611597697,0.022387295961380005]},{"name":"clock","coordinates":[0.29341208140055336,0.23598766326904297,0.02418188254038493,0.03131850163141887]}]}
