{"src":"https://a0.muscache.com/im/pictures/58dd5efb-9686-4608-960b-a2164b4f3604.jpg?aki_policy=xx_large","name":"Small Bed&amp;breakfast room in light family villa.","listingId":15671113,"photoId":"376-18","tags":[{"name":"diningtable","coordinates":[0.5582722981770833,0.782659403483073,0.8033859252929687,0.4021002769470215]},{"name":"oven","coordinates":[0.10282123883565267,0.5690122604370117,0.22392053604125978,0.6399785995483398]},{"name":"chair","coordinates":[0.40175164540608727,0.8751001993815104,0.37657467524210614,0.2565056641896566]},{"name":"chair","coordinates":[0.8758758544921875,0.7782435099283854,0.23037047386169435,0.4108240763346354]},{"name":"chair","coordinates":[0.40199044545491536,0.5744269053141277,0.3479266802469889,0.16231517791748046]},{"name":"chair","coordinates":[0.32029364903767904,0.6040393193562825,0.19261617660522462,0.138120698928833]},{"name":"microwave","coordinates":[0.0909753958384196,0.22152311007181805,0.1767675558725993,0.13679237365722657]},{"name":"chair","coordinates":[0.4917319615681966,0.5596967697143554,0.17020301818847655,0.13524103164672852]},{"name":"bowl","coordinates":[0.6794333140055339,0.6339374542236328,0.19678452809651692,0.08405583699544271]},{"name":"cup","coordinates":[0.8230067571004231,0.5792715708414714,0.051150973637898764,0.06407095591227213]},{"name":"cup","coordinates":[0.781318728129069,0.5791097640991211,0.04087478717168172,0.05587148666381836]}]}
