{"src":"https://a0.muscache.com/im/pictures/9d521790-0fea-4cc4-b1bf-f3de12ea05c2.jpg?aki_policy=xx_large","name":"spacious modern appartment near peacepalace","listingId":16037156,"photoId":"376-2","tags":[{"name":"diningtable","coordinates":[0.7861956596374512,0.8525633494059245,0.42513747215270997,0.23293983141581218]},{"name":"sofa","coordinates":[0.4925364017486572,0.6979458491007487,0.3108246326446533,0.25643879572550454]},{"name":"chair","coordinates":[0.4537935733795166,0.8310554504394532,0.2532308101654053,0.30616900126139324]},{"name":"chair","coordinates":[0.7121433734893798,0.9427063624064128,0.15553056001663207,0.1006569226582845]},{"name":"book","coordinates":[0.8311258316040039,0.8726780573527019,0.1535733938217163,0.08826750119527181]},{"name":"chair","coordinates":[0.2553025484085083,0.9345867156982421,0.10963417291641235,0.11622258822123209]},{"name":"chair","coordinates":[0.9506631851196289,0.824794324239095,0.10328860282897949,0.08542820612589518]},{"name":"book","coordinates":[0.26324870586395266,0.6996105194091797,0.05847798585891724,0.03030235767364502]}]}
