{"src":"https://a0.muscache.com/im/pictures/23146809/e32181c2_original.jpg?aki_policy=xx_large","name":"Ãœber cool, old-world charm, Wi-Fi","listingId":1570189,"photoId":"377-0","tags":[{"name":"diningtable","coordinates":[0.4113545311821832,0.8259452184041342,0.7156416998969184,0.3201663335164388]},{"name":"chair","coordinates":[0.7218074374728732,0.8695400873819987,0.18945202297634547,0.2448776880900065]},{"name":"chair","coordinates":[0.5626071506076389,0.9296451568603515,0.17257779439290363,0.11464956601460775]},{"name":"cup","coordinates":[0.43117234971788193,0.7711842854817709,0.04530248641967773,0.14108567237854003]},{"name":"cup","coordinates":[0.04521312713623047,0.8021509806315105,0.06452686521742079,0.08484725157419841]},{"name":"cup","coordinates":[0.5396194458007812,0.7248581568400065,0.0407939698961046,0.12648202578226725]},{"name":"vase","coordinates":[0.3540400822957357,0.7181716918945312,0.031669669681125216,0.1347409725189209]},{"name":"cup","coordinates":[0.427248043484158,0.666125233968099,0.043272164132859975,0.07969111601511637]},{"name":"cup","coordinates":[0.24645606146918403,0.8068788528442383,0.033120565944247775,0.09440228939056397]},{"name":"bottle","coordinates":[0.9516048007541232,0.4566583315531413,0.021808678574032254,0.06734512646993002]},{"name":"cup","coordinates":[0.8979202270507812,0.3669544537862142,0.031232537163628473,0.04266601800918579]},{"name":"cup","coordinates":[0.8335138956705729,0.6360703786214192,0.033435172504848905,0.03324828346570333]}]}
