{"src":"https://a0.muscache.com/im/pictures/a257d2c2-ff94-420c-90dd-0cc8bd20a280.jpg?aki_policy=xx_large","name":"Logeren tussen de kunst","listingId":16047865,"photoId":"377-0","tags":[{"name":"chair","coordinates":[0.274445629119873,0.7945854187011718,0.5727845191955566,0.399859364827474]},{"name":"sofa","coordinates":[0.274445629119873,0.7945854187011718,0.5727845191955566,0.399859364827474]},{"name":"sofa","coordinates":[0.19836844205856324,0.58378480275472,0.41965694427490235,0.2383931318918864]},{"name":"chair","coordinates":[0.8046589851379394,0.5913476943969727,0.2304706573486328,0.21904573440551758]},{"name":"pottedplant","coordinates":[0.7460047721862793,0.41896759668986,0.15847421884536744,0.20448379516601561]},{"name":"chair","coordinates":[0.4360193729400635,0.5440954844156901,0.1401614546775818,0.17105937004089355]},{"name":"vase","coordinates":[0.7382738590240479,0.49151490529378256,0.04831179678440094,0.08798193136850993]}]}
