{"src":"https://a0.muscache.com/im/pictures/23146809/e32181c2_original.jpg?aki_policy=xx_large","name":"Ãœber cool, old-world charm, Wi-Fi","listingId":1570189,"photoId":"377-0","tags":[{"name":"diningtable","coordinates":[0.053533681233723984,0.6658620516459147,0.7156416998969184,0.3201663335164388]},{"name":"chair","coordinates":[0.6270814259847005,0.7471012433369955,0.18945202297634547,0.2448776880900065]},{"name":"chair","coordinates":[0.47631825341118705,0.8723203738530476,0.17257779439290363,0.11464956601460775]},{"name":"cup","coordinates":[0.4085211065080431,0.7006414492925008,0.04530248641967773,0.14108567237854003]},{"name":"cup","coordinates":[0.012949694527520074,0.7597273548444112,0.06452686521742079,0.08484725157419841]},{"name":"cup","coordinates":[0.5192224608527289,0.6616171439488729,0.0407939698961046,0.12648202578226725]},{"name":"vase","coordinates":[0.3382052474551731,0.6508012056350708,0.031669669681125216,0.1347409725189209]},{"name":"cup","coordinates":[0.40561196141772804,0.6262796759605408,0.043272164132859975,0.07969111601511637]},{"name":"cup","coordinates":[0.22989577849706014,0.7596777081489563,0.033120565944247775,0.09440228939056397]},{"name":"bottle","coordinates":[0.9407004614671071,0.42298576831817625,0.021808678574032254,0.06734512646993002]},{"name":"cup","coordinates":[0.882303958468967,0.3456214447816213,0.031232537163628473,0.04266601800918579]},{"name":"cup","coordinates":[0.8167963094181484,0.6194462368885676,0.033435172504848905,0.03324828346570333]}]}
