{"src":"https://a0.muscache.com/im/pictures/d693ec1b-3256-4273-afeb-cd215a37b619.jpg?aki_policy=xx_large","name":"Beautiful, Light &amp; Spacious Loft near City Center","listingId":16053031,"photoId":"378-2","tags":[{"name":"chair","coordinates":[0.2796842998928494,0.8551873524983724,0.2633319854736328,0.27916110356648766]},{"name":"chair","coordinates":[0.5891199747721354,0.8864397684733073,0.296794064839681,0.24591293334960937]},{"name":"sofa","coordinates":[0.5263738844129774,0.589014180501302,0.32464909023708766,0.10994873841603597]},{"name":"pottedplant","coordinates":[0.5640326182047526,0.46570857365926105,0.10628560384114584,0.07692676385243734]},{"name":"chair","coordinates":[0.5178758409288194,0.641633415222168,0.11831828223334419,0.05164798498153687]},{"name":"vase","coordinates":[0.7991960313585069,0.4678002993265788,0.03990106317732069,0.071938689549764]},{"name":"book","coordinates":[0.46254925198025176,0.4868228594462077,0.011605609787835015,0.02899828354517619]},{"name":"book","coordinates":[0.47983678181966144,0.4857205708821615,0.008334884378645156,0.030101557572682697]},{"name":"book","coordinates":[0.46133397420247396,0.5399264653523763,0.012288125356038411,0.020355437199274698]}]}
