{"src":"https://a0.muscache.com/im/pictures/a85206a2-a84d-4b83-ad10-65d8bac61b61.jpg?aki_policy=xx_large","name":"Amazing loft with garden","listingId":16095223,"photoId":"380-17","tags":[{"name":"diningtable","coordinates":[0.35864906311035155,0.8023123423258464,0.5787758827209473,0.29719597498575845]},{"name":"sofa","coordinates":[0.1299993395805359,0.6772600809733073,0.26426470279693604,0.30308558146158854]},{"name":"chair","coordinates":[0.6080697059631348,0.6148268381754557,0.15357984304428102,0.18659106890360513]},{"name":"pottedplant","coordinates":[0.48615851402282717,0.5715174357096354,0.10294946432113647,0.20353941917419432]},{"name":"pottedplant","coordinates":[0.9572325706481933,0.581178855895996,0.08427607417106628,0.24078612327575682]},{"name":"vase","coordinates":[0.3635775804519653,0.6632897059122721,0.03956785500049591,0.08460683822631836]},{"name":"pottedplant","coordinates":[0.6894551277160644,0.48149277369181315,0.0350759357213974,0.07883792718251546]}]}
