{"src":"https://a0.muscache.com/im/pictures/131a8516-7aa0-4d1c-9ee2-f11db453d04e.jpg?aki_policy=xx_large","name":"Amazing loft with garden","listingId":16095223,"photoId":"380-29","tags":[{"name":"sofa","coordinates":[0.7323089122772217,0.6782731374104818,0.277998685836792,0.2139172395070394]},{"name":"chair","coordinates":[0.9370343208312988,0.8312209447224935,0.11765489578247071,0.3627044995625814]},{"name":"pottedplant","coordinates":[0.1600196361541748,0.6155765533447266,0.11658992767333984,0.27464431126912436]},{"name":"chair","coordinates":[0.034524393081665036,0.641249402364095,0.06763941049575806,0.22235805193583172]},{"name":"vase","coordinates":[0.7186329364776611,0.6593534469604492,0.03193299770355225,0.07891507148742676]}]}
