{"src":"https://a0.muscache.com/im/pictures/de8c7a15-9510-4f21-9e28-515407927f11.jpg?aki_policy=xx_large","name":"Amazing loft with garden","listingId":16095223,"photoId":"380-7","tags":[{"name":"diningtable","coordinates":[0.4471614360809326,0.7273478825887044,0.47677435874938967,0.2218777656555176]},{"name":"sofa","coordinates":[0.2988963842391968,0.6259862899780273,0.26805868148803713,0.24747614860534667]},{"name":"sofa","coordinates":[0.05808812379837036,0.74876283009847,0.1074065923690796,0.4483558019002279]},{"name":"chair","coordinates":[0.7341811656951904,0.6359068552652994,0.16035397052764894,0.2653392473856608]},{"name":"chair","coordinates":[0.8360960960388184,0.5905950546264649,0.0828157126903534,0.18524425824483234]},{"name":"pottedplant","coordinates":[0.8723564147949219,0.45323108037312826,0.03907527029514313,0.09289007981618246]},{"name":"vase","coordinates":[0.4383270263671875,0.6548677444458008,0.04184840023517609,0.07650980949401856]}]}
