{"src":"https://a0.muscache.com/im/pictures/197348c0-e563-4793-be6f-a412a6fa2d26.jpg?aki_policy=xx_large","name":"Amazing loft with garden","listingId":16095223,"photoId":"380-4","tags":[{"name":"diningtable","coordinates":[0.5702526516384548,0.8282001495361329,0.9736592610677083,0.27325356801350914]},{"name":"sofa","coordinates":[0.34081575605604386,0.6834258397420248,0.6818383110894097,0.26704613367716473]},{"name":"chair","coordinates":[0.9437308417426216,0.6796090443929036,0.24019393920898438,0.26637512842814126]},{"name":"pottedplant","coordinates":[1.4519127739800348,0.6091985702514648,0.1635273297627767,0.18233607610066732]},{"name":"vase","coordinates":[0.6095890892876519,0.6997224807739257,0.06109255684746636,0.07441779772440592]},{"name":"vase","coordinates":[0.7790035671657987,0.6855218887329102,0.042699739668104385,0.06758223374684652]}]}
