{"src":"https://a0.muscache.com/im/pictures/1338f62e-f0b8-4af5-8d94-4f9f2ccd8478.jpg?aki_policy=xx_large","name":"Amazing loft with garden","listingId":16095223,"photoId":"380-5","tags":[{"name":"sofa","coordinates":[0.16502214670181276,0.668574333190918,0.34726920127868655,0.35004281997680664]},{"name":"pottedplant","coordinates":[0.8753045082092286,0.5590324401855469,0.12199132442474366,0.18505314191182454]},{"name":"pottedplant","coordinates":[0.43281965255737304,0.5622742335001628,0.08951621055603028,0.22801661491394043]},{"name":"refrigerator","coordinates":[0.744761848449707,0.45537055333455406,0.07221760749816894,0.26421093940734863]},{"name":"vase","coordinates":[0.26716158390045164,0.7224902470906576,0.0408494234085083,0.08181836605072021]}]}
