{"src":"https://a0.muscache.com/im/pictures/1389217c-1097-40ee-b877-d19fc9555174.jpg?aki_policy=xx_large","name":"Amazing loft with garden","listingId":16095223,"photoId":"380-0","tags":[{"name":"chair","coordinates":[0.1365278819250682,0.6749617258707682,0.2624576386951265,0.38706801732381185]},{"name":"sofa","coordinates":[0.1365278819250682,0.6749617258707682,0.2624576386951265,0.38706801732381185]},{"name":"sofa","coordinates":[0.5701775444878472,0.5442295710245768,0.3952685885959201,0.20009660720825195]},{"name":"chair","coordinates":[0.9143134223090278,0.5821326573689779,0.16369693090045262,0.2887637456258138]},{"name":"pottedplant","coordinates":[0.5823654417007689,0.5664050420125325,0.06960394117567274,0.16505064964294433]},{"name":"pottedplant","coordinates":[0.24199882386222718,0.4692561149597168,0.07377667502751425,0.0754834493001302]},{"name":"vase","coordinates":[0.5853043329148065,0.5955535252888997,0.03974026876782614,0.10298767884572348]}]}
