{"src":"https://a0.muscache.com/im/pictures/1e8fdad4-13f2-4bc2-b76f-b07d6cd6fe12.jpg?aki_policy=xx_large","name":"Satvam 1, Well Equipped 2BR Vacation Home-Vadodara","listingId":15738963,"photoId":"382-6","tags":[{"name":"diningtable","coordinates":[0.5948617458343506,0.8064629236857096,0.4390546798706055,0.2848625183105469]},{"name":"sofa","coordinates":[0.23942713737487792,0.6661706288655599,0.38184247016906736,0.2563256581624349]},{"name":"chair","coordinates":[0.6315962791442871,0.8646769841512044,0.1493924856185913,0.26239000956217445]},{"name":"chair","coordinates":[0.8271959304809571,0.7991558710734049,0.10314900875091552,0.37286526362101235]},{"name":"chair","coordinates":[0.7530445575714111,0.8521619160970052,0.13264110088348388,0.28378337224324546]},{"name":"chair","coordinates":[0.39636228084564207,0.8514942804972331,0.11781480312347412,0.26159637769063315]},{"name":"tvmonitor","coordinates":[0.6224839687347412,0.47667226791381834,0.12264705896377563,0.12914489110310873]},{"name":"chair","coordinates":[0.5074702262878418,0.7124779383341472,0.10931136608123779,0.139853032430013]},{"name":"chair","coordinates":[0.439775276184082,0.6205704371134441,0.08897197246551514,0.16532100041707357]},{"name":"chair","coordinates":[0.6060935020446777,0.670379638671875,0.09430387020111083,0.07749458948771158]}]}
