{"src":"https://a0.muscache.com/im/pictures/1e8fdad4-13f2-4bc2-b76f-b07d6cd6fe12.jpg?aki_policy=xx_large","name":"Satvam 1, Well Equipped 2BR Vacation Home-Vadodara","listingId":15738963,"photoId":"382-6","tags":[{"name":"diningtable","coordinates":[0.3753344058990479,0.6640316645304362,0.4390546798706055,0.2848625183105469]},{"name":"sofa","coordinates":[0.04850590229034424,0.5380077997843424,0.38184247016906736,0.2563256581624349]},{"name":"chair","coordinates":[0.5569000363349914,0.7334819793701172,0.1493924856185913,0.26239000956217445]},{"name":"chair","coordinates":[0.7756214261054993,0.6127232392628987,0.10314900875091552,0.37286526362101235]},{"name":"chair","coordinates":[0.6867240071296692,0.7102702299753825,0.13264110088348388,0.28378337224324546]},{"name":"chair","coordinates":[0.337454879283905,0.7206960916519165,0.11781480312347412,0.26159637769063315]},{"name":"tvmonitor","coordinates":[0.5611604392528534,0.41209982236226395,0.12264705896377563,0.12914489110310873]},{"name":"chair","coordinates":[0.45281454324722287,0.6425514221191406,0.10931136608123779,0.139853032430013]},{"name":"chair","coordinates":[0.39528928995132445,0.5379099369049073,0.08897197246551514,0.16532100041707357]},{"name":"chair","coordinates":[0.5589415669441223,0.6316323439280193,0.09430387020111083,0.07749458948771158]}]}
