{"src":"https://a0.muscache.com/im/pictures/612eb7cd-38ab-459b-b602-c723264aa6b6.jpg?aki_policy=xx_large","name":"Satvam 1, Well Equipped 2BR Vacation Home-Vadodara","listingId":15738963,"photoId":"382-4","tags":[{"name":"diningtable","coordinates":[-0.016087937355041493,0.7181922992070515,0.32666265964508057,0.25275483131408694]},{"name":"refrigerator","coordinates":[0.8174161672592163,0.5552806695302328,0.17997174263000487,0.43111486434936525]},{"name":"chair","coordinates":[0.2569947451353073,0.6781649430592855,0.06719451546669006,0.3147388140360514]},{"name":"microwave","coordinates":[0.2029607057571411,0.3778742353121439,0.14915943145751953,0.09263041019439697]},{"name":"bowl","coordinates":[0.28928549289703365,0.5995743890603383,0.05018072128295899,0.02636506160100301]},{"name":"bottle","coordinates":[0.8003039270639419,0.5449093580245972,0.021243494749069215,0.0570918877919515]},{"name":"orange","coordinates":[0.0803261362016201,0.7534624874591828,0.024607093632221223,0.04017992417017619]}]}
