{"src":"https://a0.muscache.com/im/pictures/38f7c6be-44d4-4200-8685-f2aa91c412b3.jpg?aki_policy=xx_large","name":"Charming Canal Apartment","listingId":16154840,"photoId":"385-13","tags":[{"name":"diningtable","coordinates":[1.426446533203125,0.8738510767618816,0.6783659193250868,0.22010571161905926]},{"name":"oven","coordinates":[0.2474954605102539,0.788602638244629,0.38110148111979164,0.31015326182047526]},{"name":"chair","coordinates":[1.5446131388346354,0.9505156834920248,0.26222860548231336,0.08383484681447347]},{"name":"chair","coordinates":[1.6950190226236979,0.9543256759643555,0.16717856725056965,0.10387941201527913]},{"name":"clock","coordinates":[0.21448480818006727,0.26107206344604494,0.15385040707058376,0.10664780139923095]},{"name":"bowl","coordinates":[1.4765168931749133,0.8036368052164714,0.18340958489312065,0.059318041801452635]}]}
