{"src":"https://a0.muscache.com/im/pictures/858e4f24-1d87-4482-a7af-3c095d59e509.jpg?aki_policy=xx_large","name":"Volvo Ocean Race/beach apartment in Statenkwartier","listingId":16186751,"photoId":"387-4","tags":[{"name":"diningtable","coordinates":[0.43774237632751467,0.6034301122029623,0.5400567531585694,0.6346144358317057]},{"name":"chair","coordinates":[0.44815545082092284,0.7276337305704753,0.23997626304626465,0.49125022888183595]},{"name":"pottedplant","coordinates":[0.8651241302490235,0.5356672286987305,0.25669350624084475,0.4498521169026693]},{"name":"chair","coordinates":[0.2600374460220337,0.6173720677693685,0.17943403720855713,0.3690439224243164]},{"name":"bottle","coordinates":[0.35469629764556887,0.3066982905069987,0.033906930685043336,0.12449477513631185]},{"name":"bowl","coordinates":[0.38227291107177735,0.20548617045084636,0.06493449211120605,0.0430082639058431]}]}
