{"src":"https://a0.muscache.com/im/pictures/e5ca4c3c-5a46-45b1-99c7-ac2bb9029bad.jpg?aki_policy=xx_large","name":"Volvo Ocean Race/beach apartment in Statenkwartier","listingId":16186751,"photoId":"387-5","tags":[{"name":"diningtable","coordinates":[0.9752113342285156,0.8101650873819987,1.6657591078016494,0.35868686040242515]},{"name":"sofa","coordinates":[0.2075511720445421,0.7744407653808594,0.40640288458930124,0.41051705678304035]},{"name":"chair","coordinates":[0.2075511720445421,0.7744407653808594,0.40640288458930124,0.41051705678304035]},{"name":"tvmonitor","coordinates":[0.8949252658420139,0.43143752415974934,0.24220816294352213,0.14100748697916668]},{"name":"pottedplant","coordinates":[1.6266003078884548,0.3360175132751465,0.2322691175672743,0.13064281940460204]},{"name":"chair","coordinates":[1.682230461968316,0.683749262491862,0.17962803310818143,0.14315632184346516]},{"name":"book","coordinates":[1.7267810397677952,0.5131550470987956,0.038363440831502275,0.11600333054860433]},{"name":"book","coordinates":[1.7567114935980903,0.5144474983215332,0.03261819945441352,0.10616464614868164]}]}
