{"src":"https://a0.muscache.com/im/pictures/c52710ad-4830-48a3-bfaa-d9bfdbf65f4c.jpg?aki_policy=xx_large","name":"兰州市中心—温馨小窝/无线/广场西口/张掖路/黄河边/闹中取静宽敞明亮阳光房/生活/交通购物便利","listingId":15808782,"photoId":"389-1","tags":[{"name":"sofa","coordinates":[0.1386786937713623,0.6785029729207357,0.28653626441955565,0.3493332544962565]},{"name":"tvmonitor","coordinates":[0.7741227626800538,0.6885859171549479,0.20801179409027098,0.3456087112426758]},{"name":"chair","coordinates":[0.39395871162414553,0.6353688557942708,0.1777750015258789,0.26546692848205566]},{"name":"pottedplant","coordinates":[0.8736334800720215,0.6185860315958659,0.14080963134765626,0.2888257662455241]},{"name":"chair","coordinates":[0.5989531993865966,0.6086268107096354,0.0771979808807373,0.20589874585469564]},{"name":"chair","coordinates":[0.628732967376709,0.612008539835612,0.0687853991985321,0.20350101788838704]},{"name":"chair","coordinates":[0.5557905197143554,0.5936526616414388,0.06360970735549927,0.20212281545003255]}]}
