{"src":"https://a0.muscache.com/im/pictures/2cf82bd5-fda9-42c6-ae72-d41146568946.jpg?aki_policy=xx_large","name":"Lovely Apartment in Bezuidenhout","listingId":16216319,"photoId":"389-4","tags":[{"name":"chair","coordinates":[0.2614156934950087,0.8574262619018554,0.3247707578870985,0.2806625048319499]},{"name":"bottle","coordinates":[0.969500732421875,0.40955015818277996,0.05611386299133301,0.3207040786743164]},{"name":"bottle","coordinates":[0.9373202006022135,0.4292048772176107,0.06431493229336209,0.24270733197530112]},{"name":"vase","coordinates":[0.08180168999565972,0.6251799901326497,0.11848746405707465,0.11923381487528482]},{"name":"sink","coordinates":[0.7000968509250217,0.6583503087361654,0.056767045127020944,0.040759793917338055]}]}
