{"src":"https://a0.muscache.com/im/pictures/c52710ad-4830-48a3-bfaa-d9bfdbf65f4c.jpg?aki_policy=xx_large","name":"兰州市中心—温馨小窝/无线/广场西口/张掖路/黄河边/闹中取静宽敞明亮阳光房/生活/交通购物便利","listingId":15808782,"photoId":"389-1","tags":[{"name":"sofa","coordinates":[-0.004589438438415527,0.5038363456726074,0.28653626441955565,0.3493332544962565]},{"name":"tvmonitor","coordinates":[0.6701168656349182,0.51578156153361,0.20801179409027098,0.3456087112426758]},{"name":"chair","coordinates":[0.3050712108612061,0.502635391553243,0.1777750015258789,0.26546692848205566]},{"name":"pottedplant","coordinates":[0.8032286643981933,0.4741731484731039,0.14080963134765626,0.2888257662455241]},{"name":"chair","coordinates":[0.560354208946228,0.5056774377822876,0.0771979808807373,0.20589874585469564]},{"name":"chair","coordinates":[0.594340267777443,0.5102580308914184,0.0687853991985321,0.20350101788838704]},{"name":"chair","coordinates":[0.5239856660366058,0.49259125391642256,0.06360970735549927,0.20212281545003255]}]}
