{"src":"https://a0.muscache.com/im/pictures/efb7bf9d-77fa-4758-9eb0-f4ccaf1ed827.jpg?aki_policy=xx_large","name":"Lovely Apartment in Bezuidenhout","listingId":16216319,"photoId":"389-1","tags":[{"name":"diningtable","coordinates":[0.363594651222229,0.7193209330240885,0.6302988052368164,0.48648141225179037]},{"name":"chair","coordinates":[0.195860755443573,0.8217868169148763,0.275270414352417,0.33068017959594725]},{"name":"chair","coordinates":[0.13894773721694947,0.7986092885335286,0.11659709215164185,0.3586916287740072]},{"name":"chair","coordinates":[0.051502186059951785,0.7780912399291993,0.09685364365577698,0.3804713249206543]},{"name":"vase","coordinates":[0.19800775051116942,0.512515131632487,0.0427843302488327,0.10198520024617513]},{"name":"wine-glass","coordinates":[0.44100089073181153,0.6486046473185222,0.030855146050453187,0.10791498025258382]},{"name":"wine-glass","coordinates":[0.4775275707244873,0.5936375300089518,0.03174732923507691,0.08750914732615153]},{"name":"wine-glass","coordinates":[0.32560391426086427,0.5822151184082032,0.027128306031227113,0.09896033604939779]}]}
