{"src":"https://a0.muscache.com/im/pictures/41bcfd01-d349-4b71-ae1f-d45a96350579.jpg?aki_policy=xx_large","name":"Комната в уютной и просторной квартире около парка","listingId":15809809,"photoId":"390-1","tags":[{"name":"chair","coordinates":[0.8558844672309027,0.6553996404012045,0.16134694417317708,0.33017028172810875]},{"name":"refrigerator","coordinates":[0.663202624850803,0.37720556259155275,0.10809681150648329,0.4124755541483561]},{"name":"chair","coordinates":[0.5267031351725261,0.5964438120524088,0.09214451048109266,0.3104612986246745]},{"name":"pottedplant","coordinates":[0.816078864203559,0.27764937082926433,0.09725446701049804,0.24735830624898275]},{"name":"tvmonitor","coordinates":[0.9091879102918837,0.29525782267252604,0.06720423168606228,0.06864364147186279]},{"name":"microwave","coordinates":[0.7526083204481336,0.37107998530069985,0.06833167605929905,0.06300374666849771]},{"name":"bottle","coordinates":[0.46630566914876304,0.11792732874552408,0.014022796683841281,0.05989530881245931]}]}
