{"src":"https://a0.muscache.com/im/pictures/41bcfd01-d349-4b71-ae1f-d45a96350579.jpg?aki_policy=xx_large","name":"Комната в уютной и просторной квартире около парка","listingId":15809809,"photoId":"390-1","tags":[{"name":"chair","coordinates":[0.7752109951443142,0.4903144995371501,0.16134694417317708,0.33017028172810875]},{"name":"refrigerator","coordinates":[0.6091542190975613,0.17096778551737468,0.10809681150648329,0.4124755541483561]},{"name":"chair","coordinates":[0.4806308799319798,0.4412131627400716,0.09214451048109266,0.3104612986246745]},{"name":"pottedplant","coordinates":[0.76745163069831,0.15397021770477295,0.09725446701049804,0.24735830624898275]},{"name":"tvmonitor","coordinates":[0.8755857944488525,0.26093600193659466,0.06720423168606228,0.06864364147186279]},{"name":"microwave","coordinates":[0.7184424824184841,0.339578111966451,0.06833167605929905,0.06300374666849771]},{"name":"bottle","coordinates":[0.4592942708068424,0.08797967433929443,0.014022796683841281,0.05989530881245931]}]}
