{"src":"https://a0.muscache.com/im/pictures/ad634575-fcf6-4bcb-ad9b-24009e9b95c0.jpg?aki_policy=xx_large","name":"3 minutes walk from Nampo-dong Busan","listingId":15816832,"photoId":"391-7","tags":[{"name":"chair","coordinates":[0.37050416734483516,0.6831551710764567,0.2835785759819878,0.31417112350463866]},{"name":"book","coordinates":[0.39598699940575494,0.4845040003458659,0.07514170010884604,0.15910758972167968]},{"name":"pottedplant","coordinates":[0.14862145450380115,0.6154828270276387,0.04057441022660997,0.09361002445220948]},{"name":"book","coordinates":[0.45734629895952017,0.5157065987586975,0.02901450792948405,0.1140276034673055]},{"name":"book","coordinates":[0.49666273858812116,0.5251588106155396,0.030344973670111762,0.10562580426534017]},{"name":"book","coordinates":[0.47400967677434286,0.5175402879714965,0.026593157980177137,0.11422235171000163]},{"name":"pottedplant","coordinates":[0.22869168784883287,0.6155792117118836,0.038813032044304745,0.06947646935780843]},{"name":"pottedplant","coordinates":[0.18794154591030543,0.6320359408855438,0.039232858022054035,0.06550677220026652]},{"name":"vase","coordinates":[0.15072652366426256,0.6610492924849193,0.03525171544816759,0.04468608299891154]}]}
