{"src":"https://a0.muscache.com/im/pictures/ee14dfbf-841f-4ca3-8cfd-8b181c2252f6.jpg?aki_policy=xx_large","name":"3 minutes walk from Nampo-dong Busan","listingId":15816832,"photoId":"391-9","tags":[{"name":"sofa","coordinates":[0.6522729237874348,0.6661691029866537,0.24393948449028863,0.35171550114949546]},{"name":"tvmonitor","coordinates":[0.12152112325032552,0.7356832504272461,0.09193916320800781,0.49496227900187173]},{"name":"microwave","coordinates":[0.8377048916286892,0.21370522181193033,0.10102559195624458,0.2897727330525716]},{"name":"chair","coordinates":[0.2599702623155382,0.5912228266398112,0.09275028440687391,0.2245966116587321]},{"name":"clock","coordinates":[0.4155147128634983,0.034730990727742515,0.047108703189426,0.07250475883483887]},{"name":"bottle","coordinates":[0.5374061160617405,0.48931074142456055,0.024910269843207464,0.09060877164204915]}]}
