{"src":"https://a0.muscache.com/im/pictures/ad634575-fcf6-4bcb-ad9b-24009e9b95c0.jpg?aki_policy=xx_large","name":"3 minutes walk from Nampo-dong Busan","listingId":15816832,"photoId":"391-7","tags":[{"name":"chair","coordinates":[0.512293455335829,0.8402407328287761,0.2835785759819878,0.31417112350463866]},{"name":"book","coordinates":[0.43355784946017795,0.5640577952067057,0.07514170010884604,0.15910758972167968]},{"name":"pottedplant","coordinates":[0.16890865961710613,0.6622878392537435,0.04057441022660997,0.09361002445220948]},{"name":"book","coordinates":[0.4718535529242622,0.5727204004923503,0.02901450792948405,0.1140276034673055]},{"name":"book","coordinates":[0.511835225423177,0.5779717127482097,0.030344973670111762,0.10562580426534017]},{"name":"book","coordinates":[0.48730625576443143,0.5746514638264973,0.026593157980177137,0.11422235171000163]},{"name":"pottedplant","coordinates":[0.24809820387098525,0.6503174463907878,0.038813032044304745,0.06947646935780843]},{"name":"pottedplant","coordinates":[0.20755797492133246,0.664789326985677,0.039232858022054035,0.06550677220026652]},{"name":"vase","coordinates":[0.16835238138834635,0.683392333984375,0.03525171544816759,0.04468608299891154]}]}
