{"src":"https://a0.muscache.com/im/pictures/ee14dfbf-841f-4ca3-8cfd-8b181c2252f6.jpg?aki_policy=xx_large","name":"3 minutes walk from Nampo-dong Busan","listingId":15816832,"photoId":"391-9","tags":[{"name":"sofa","coordinates":[0.7338070392608642,0.6661691029866537,0.2744319200515747,0.35171550114949546]},{"name":"tvmonitor","coordinates":[0.1367112636566162,0.7356832504272461,0.1034315586090088,0.49496227900187173]},{"name":"microwave","coordinates":[0.9424180030822754,0.21370522181193033,0.11365379095077514,0.2897727330525716]},{"name":"chair","coordinates":[0.2924665451049805,0.5912228266398112,0.10434406995773315,0.2245966116587321]},{"name":"clock","coordinates":[0.4674540519714355,0.034730990727742515,0.05299729108810425,0.07250475883483887]},{"name":"bottle","coordinates":[0.604581880569458,0.48931074142456055,0.028024053573608397,0.09060877164204915]}]}
