{"src":"https://a0.muscache.com/im/pictures/f25ced02-9d05-47cf-943b-cc47f1ffcd85.jpg?aki_policy=xx_large","name":"Bright loft in Monreale - (Pa) Lecasedelduomo","listingId":15823396,"photoId":"392-5","tags":[{"name":"bed","coordinates":[0.23794867992401122,0.6632755915323894,0.46912326812744143,0.4714170455932617]},{"name":"chair","coordinates":[0.03264784812927246,0.47132784525553384,0.0765566885471344,0.18262704213460287]},{"name":"microwave","coordinates":[0.07060309052467346,0.29539674123128257,0.06841369867324829,0.04502429962158203]},{"name":"sink","coordinates":[0.17245960235595703,0.3204769770304362,0.09605516195297241,0.012952763835589092]},{"name":"bottle","coordinates":[0.23465514183044434,0.30199848810831703,0.011486118286848068,0.034412566820780435]}]}
