{"src":"https://a0.muscache.com/im/pictures/6bf783e6-25ec-4406-b0dc-f8cc2f130d3b.jpg?aki_policy=xx_large","name":"Modern Villa At The Beach + Free Parking","listingId":16294577,"photoId":"394-1","tags":[{"name":"sofa","coordinates":[0.8599967675637427,0.7294034322102865,0.25637673559174795,0.43607168197631835]},{"name":"chair","coordinates":[0.18019026473976552,0.6903491973876953,0.2299349395796898,0.3072761217753092]},{"name":"sofa","coordinates":[0.030069570302612123,0.8038548151652019,0.06277889987681505,0.35106074015299477]},{"name":"vase","coordinates":[0.6872876354099549,0.6876605987548828,0.08060556448260885,0.1496729850769043]},{"name":"cup","coordinates":[0.294914751235445,0.24609645207722983,0.02011604758530899,0.026569581031799315]}]}
