{"src":"https://a0.muscache.com/im/pictures/49899510/a65593f4_original.jpg?aki_policy=xx_large","name":"Hidden villa Den Haag city center","listingId":1631477,"photoId":"396-0","tags":[{"name":"diningtable","coordinates":[0.5161953396267361,0.8938093821207682,1.0915248446994357,0.19555629094441732]},{"name":"wine-glass","coordinates":[0.6150129530164931,0.7189633687337239,0.19562979804144964,0.48797814051310223]},{"name":"vase","coordinates":[0.423079342312283,0.7011513392130534,0.21533351474338108,0.2751895904541016]},{"name":"cup","coordinates":[0.13293575710720487,0.6956688563028971,0.2124537573920356,0.2250463326772054]},{"name":"bottle","coordinates":[0.13081323835584852,0.5234712282816569,0.08184249136182997,0.12116552193959554]}]}
