{"src":"https://a0.muscache.com/im/pictures/e5b34d77-c2bb-451c-be06-e5a22ed6be20.jpg?aki_policy=xx_large","name":"Charming Apartment in City Center","listingId":10092926,"photoId":"4-1","tags":[{"name":"diningtable","coordinates":[0.4985285864935981,0.8729386647542318,0.932043711344401,0.2753416697184245]},{"name":"chair","coordinates":[0.8232145521375868,0.8313647588094075,0.30200746324327254,0.30202821095784504]},{"name":"chair","coordinates":[0.16253015730116102,0.8207176844278972,0.28164630466037327,0.30499951044718426]},{"name":"vase","coordinates":[0.48709322611490885,0.763719113667806,0.07656942473517524,0.19701722462972004]},{"name":"cup","coordinates":[0.23845354715983072,0.6408640543619791,0.05911488533020019,0.06360995769500732]}]}
