{"src":"https://a0.muscache.com/im/pictures/8eaa94e3-b528-41c1-99d6-c15aa1e00d86.jpg?aki_policy=xx_large","name":"Ikebukuro 20 min by train 13 min to a station WIFI","listingId":11004461,"photoId":"40-2","tags":[{"name":"laptop","coordinates":[0.2838185548782349,0.6339075088500976,0.20408437252044678,0.20284288724263508]},{"name":"oven","coordinates":[0.8159500122070312,0.5975408554077148,0.12187961339950562,0.1881372292836507]},{"name":"refrigerator","coordinates":[1.0699381828308105,0.5298748652140299,0.04288010001182556,0.5194835662841797]},{"name":"chair","coordinates":[0.4691905498504639,0.5597726821899414,0.09223631620407105,0.0971834421157837]},{"name":"cell-phone","coordinates":[0.3333479881286621,0.7634826024373372,0.0826345443725586,0.07129775683085124]},{"name":"book","coordinates":[0.43756918907165526,0.7648298263549804,0.07873072624206542,0.07108147144317627]}]}
