{"src":"https://a0.muscache.com/im/pictures/e70f6176-cc63-41f1-ba52-280419d1bfc6.jpg?aki_policy=xx_large","name":"Bright house The Hague: February 17-27","listingId":10936380,"photoId":"40-2","tags":[{"name":"diningtable","coordinates":[0.35926954481336804,0.8089191436767578,0.26891362931993273,0.42702744801839193]},{"name":"chair","coordinates":[0.43100513882107205,0.7988985061645508,0.1345614963107639,0.3995360374450684]},{"name":"chair","coordinates":[0.2596092859903971,0.797583262125651,0.1330476548936632,0.4006311098734538]},{"name":"pottedplant","coordinates":[0.33644193013509116,0.5433502833048502,0.11408019595675999,0.17385066350301107]},{"name":"chair","coordinates":[0.2208802964952257,0.695483652750651,0.061082580354478624,0.22747206687927246]},{"name":"pottedplant","coordinates":[0.1109408696492513,0.5435089747111003,0.06447410583496094,0.16862408320109049]},{"name":"chair","coordinates":[0.4779155731201172,0.6832039515177409,0.04961351288689508,0.12750637531280518]},{"name":"chair","coordinates":[0.452046881781684,0.6275449752807617,0.03775147332085504,0.09752891858418783]},{"name":"vase","coordinates":[0.33752661810980905,0.6030927658081054,0.035979199409484866,0.08752105236053467]}]}
