{"src":"https://a0.muscache.com/im/pictures/8eaa94e3-b528-41c1-99d6-c15aa1e00d86.jpg?aki_policy=xx_large","name":"Ikebukuro 20 min by train 13 min to a station WIFI","listingId":11004461,"photoId":"40-2","tags":[{"name":"laptop","coordinates":[0.2602347781118486,0.6339075088500976,0.18712607222505148,0.20284288724263508]},{"name":"oven","coordinates":[0.7481490083273639,0.5975408554077148,0.11175208105398796,0.1881372292836507]},{"name":"refrigerator","coordinates":[0.9810321447159295,0.5298748652140299,0.039316997145513406,0.5194835662841797]},{"name":"chair","coordinates":[0.43020336949039667,0.5597726821899414,0.08457198047364681,0.0971834421157837]},{"name":"cell-phone","coordinates":[0.30564858510364434,0.7634826024373372,0.07576806360807664,0.07129775683085124]},{"name":"book","coordinates":[0.40120957164163235,0.7648298263549804,0.0721886315113494,0.07108147144317627]}]}
