{"src":"https://a0.muscache.com/im/pictures/ef6dd1a0-3fc0-493c-a30b-b7ea142cd555.jpg?aki_policy=xx_large","name":"Bright house The Hague: February 17-27","listingId":10936380,"photoId":"40-8","tags":[{"name":"diningtable","coordinates":[0.5817110979998553,0.7163046518961589,0.9323116726345486,0.5261350313822428]},{"name":"chair","coordinates":[1.1148494014033565,0.6340398152669271,0.3010526869032118,0.26016062100728354]},{"name":"pottedplant","coordinates":[0.852471019603588,0.3311100641886393,0.3164770903410735,0.2090267499287923]},{"name":"chair","coordinates":[0.24106193825050637,0.5284932772318522,0.27766319557472513,0.14866711298624674]},{"name":"pottedplant","coordinates":[0.5213168674045139,0.35645860036214194,0.15098400822392216,0.12206998666127523]},{"name":"chair","coordinates":[0.5061721801757812,0.44722795486450195,0.1498735922354239,0.10706671873728434]},{"name":"book","coordinates":[0.7182498508029513,0.5155166943868001,0.2755562111183449,0.03474856615066528]}]}
