{"src":"https://a0.muscache.com/im/pictures/85a679e8-c978-4430-a31c-abe01e600b66.jpg?aki_policy=xx_large","name":"Appartement F2 Meublé à Odza Gendarmerie Yaoundé","listingId":15911184,"photoId":"404-1","tags":[{"name":"sofa","coordinates":[0.4470463037490845,0.49765609105428066,0.5389886379241944,0.4896632512410482]},{"name":"chair","coordinates":[0.0016790509223937877,0.38966480890909827,0.39379062652587893,0.5586957931518555]},{"name":"diningtable","coordinates":[0.5670857071876525,0.33438560167948406,0.2106022596359253,0.296462345123291]},{"name":"chair","coordinates":[0.4851166129112244,0.2919805526733399,0.15254662036895753,0.36749350229899086]},{"name":"chair","coordinates":[0.7140093803405761,0.26567028363545736,0.16005353927612304,0.31851154963175454]},{"name":"vase","coordinates":[0.664118766784668,0.3247611959775289,0.025563144683837892,0.06041470368703206]}]}
