{"src":"https://a0.muscache.com/im/pictures/85a679e8-c978-4430-a31c-abe01e600b66.jpg?aki_policy=xx_large","name":"Appartement F2 Meublé à Odza Gendarmerie Yaoundé","listingId":15911184,"photoId":"404-1","tags":[{"name":"sofa","coordinates":[0.7165406227111817,0.7424877166748047,0.5389886379241944,0.4896632512410482]},{"name":"chair","coordinates":[0.19857436418533325,0.669012705485026,0.39379062652587893,0.5586957931518555]},{"name":"diningtable","coordinates":[0.6723868370056152,0.48261677424112953,0.2106022596359253,0.296462345123291]},{"name":"chair","coordinates":[0.5613899230957031,0.4757273038228353,0.15254662036895753,0.36749350229899086]},{"name":"chair","coordinates":[0.7940361499786377,0.42492605845133463,0.16005353927612304,0.31851154963175454]},{"name":"vase","coordinates":[0.6769003391265869,0.3549685478210449,0.025563144683837892,0.06041470368703206]}]}
