{"src":"https://a0.muscache.com/im/pictures/67100091-8c15-4786-af61-4c54bce3f5b9.jpg?aki_policy=xx_large","name":"Bizstay Frederik 673","listingId":16446399,"photoId":"405-1","tags":[{"name":"diningtable","coordinates":[0.5241315841674805,0.8035402297973633,0.9321727752685547,0.31977319717407227]},{"name":"sofa","coordinates":[0.7246313571929932,0.6897708892822265,0.313062047958374,0.21744101842244465]},{"name":"chair","coordinates":[0.16963177919387817,0.8929316838582356,0.3051591396331787,0.18243908882141113]},{"name":"chair","coordinates":[0.7512879848480225,0.7484135945638021,0.19329276084899902,0.1284086545308431]},{"name":"bottle","coordinates":[0.5158729553222656,0.6959836959838868,0.0768046498298645,0.2946365674336751]},{"name":"sofa","coordinates":[0.9553169250488281,0.6768246332804362,0.09590137004852295,0.20267359415690103]},{"name":"chair","coordinates":[0.23540403842926025,0.6115423838297526,0.07807031869888306,0.15964371363321941]},{"name":"bottle","coordinates":[0.45482711791992186,0.7121331532796223,0.052523833513259885,0.2086100419362386]},{"name":"chair","coordinates":[0.28320443630218506,0.6705113093058268,0.14100301265716553,0.05541704495747884]}]}
