{"src":"https://a0.muscache.com/im/pictures/b6c8f6f2-116e-490f-a753-5008eccbc3fc.jpg?aki_policy=xx_large","name":"Bizstay Frederik 673","listingId":16446399,"photoId":"405-0","tags":[{"name":"diningtable","coordinates":[0.7162684917449951,0.808323351542155,0.574531364440918,0.30390869776407875]},{"name":"sofa","coordinates":[0.17644140720367432,0.7868848164876302,0.27858929634094237,0.36651426951090493]},{"name":"chair","coordinates":[0.17644140720367432,0.7868848164876302,0.27858929634094237,0.36651426951090493]},{"name":"chair","coordinates":[0.8716945648193359,0.829109001159668,0.23341825008392333,0.34412844975789386]},{"name":"sofa","coordinates":[0.258347487449646,0.6335789362589518,0.286811089515686,0.18331061999003093]},{"name":"chair","coordinates":[0.8610298156738281,0.9363295873006184,0.28226394653320314,0.1051260232925415]},{"name":"tvmonitor","coordinates":[0.5354852199554443,0.5471911112467448,0.10127397775650024,0.1174731731414795]},{"name":"vase","coordinates":[0.8517833709716797,0.6255190531412761,0.05037767887115478,0.16723047892252604]},{"name":"chair","coordinates":[0.569484281539917,0.6711463928222656,0.10655059814453124,0.07242634296417236]},{"name":"bottle","coordinates":[0.8026800155639648,0.6436786651611328,0.03473445773124695,0.1449036916097005]}]}
