{"src":"https://a0.muscache.com/im/pictures/1beccfc9-70cd-46e6-9701-5a61bfa4324a.jpg?aki_policy=xx_large","name":"HABITACIONES FUNCIONALES CON AMBIENTE HOSPITALARIO","listingId":15919253,"photoId":"405-0","tags":[{"name":"pottedplant","coordinates":[-0.0056130585847077585,0.22867365678151447,0.2665211147732205,0.18348132769266765]},{"name":"diningtable","coordinates":[0.6329250900833695,0.42300666173299156,0.2427218684443721,0.12648868560791016]},{"name":"chair","coordinates":[0.6131363056324146,0.43529316584269206,0.10883300216109665,0.11269874572753906]},{"name":"chair","coordinates":[0.8153614150153266,0.423513396581014,0.0856838720816153,0.12963012059529622]},{"name":"vase","coordinates":[0.09346621124832719,0.35337931513786314,0.06549646589491102,0.05238659779230754]}]}
