{"src":"https://a0.muscache.com/im/pictures/1beccfc9-70cd-46e6-9701-5a61bfa4324a.jpg?aki_policy=xx_large","name":"HABITACIONES FUNCIONALES CON AMBIENTE HOSPITALARIO","listingId":15919253,"photoId":"405-0","tags":[{"name":"pottedplant","coordinates":[0.1276474988019025,0.3204143206278483,0.2665211147732205,0.18348132769266765]},{"name":"diningtable","coordinates":[0.7542860243055556,0.48625100453694664,0.2427218684443721,0.12648868560791016]},{"name":"chair","coordinates":[0.6675528067129629,0.4916425387064616,0.10883300216109665,0.11269874572753906]},{"name":"chair","coordinates":[0.8582033510561342,0.4883284568786621,0.0856838720816153,0.12963012059529622]},{"name":"vase","coordinates":[0.1262144441957827,0.37957261403401693,0.06549646589491102,0.05238659779230754]}]}
