{"src":"https://z0.muscache.cn/im/pictures/11451644/26138ea4_original.jpg?aki_policy=xx_large","name":"Welcome to my house ☺☺☺★★★★★","listingId":159356,"photoId":"407-11","tags":[{"name":"bench","coordinates":[0.07266387939453123,0.27005615234374997,0.6975940704345703,0.6607023874918619]},{"name":"person","coordinates":[0.1661895751953125,0.09163462320963545,0.3441327095031738,0.8912364959716796]},{"name":"person","coordinates":[0.43447272777557366,0.0744470914204916,0.26100735664367675,0.9221141179402669]},{"name":"bicycle","coordinates":[0.681261682510376,0.35184488296508787,0.14014701843261718,0.14715696970621744]},{"name":"sports-ball","coordinates":[0.038869130611419674,0.6102897355953852,0.027281689643859863,0.030053641398747763]}]}
