{"src":"https://z0.muscache.cn/im/pictures/11452259/2ada65ec_original.jpg?aki_policy=xx_large","name":"Welcome to my house ☺☺☺★★★★★","listingId":159356,"photoId":"407-28","tags":[{"name":"person","coordinates":[0.4099401950836182,0.6005393981933593,0.3290218114852905,0.7310665130615235]},{"name":"person","coordinates":[0.6184197425842285,0.6494603474934896,0.1631076455116272,0.6971942901611328]},{"name":"backpack","coordinates":[0.3258488893508911,0.7088647842407226,0.12260839939117432,0.5241605758666992]},{"name":"person","coordinates":[0.052314591407775876,0.6482491175333659,0.10767616033554077,0.533177661895752]},{"name":"chair","coordinates":[0.162189257144928,0.5816284815470377,0.185011625289917,0.16525626182556152]},{"name":"handbag","coordinates":[0.058583575487136844,0.634991709391276,0.0829254686832428,0.17616483370463054]}]}
