{"src":"https://z0.muscache.cn/im/pictures/11451644/26138ea4_original.jpg?aki_policy=xx_large","name":"Welcome to my house ☺☺☺★★★★★","listingId":159356,"photoId":"407-11","tags":[{"name":"bench","coordinates":[0.4214609146118164,0.6004073460896809,0.6975940704345703,0.6607023874918619]},{"name":"person","coordinates":[0.3382559299468994,0.5372528711954753,0.3441327095031738,0.8912364959716796]},{"name":"person","coordinates":[0.5649764060974121,0.535504150390625,0.26100735664367675,0.9221141179402669]},{"name":"bicycle","coordinates":[0.7513351917266846,0.4254233678181966,0.14014701843261718,0.14715696970621744]},{"name":"sports-ball","coordinates":[0.05250997543334961,0.6253165562947591,0.027281689643859863,0.030053641398747763]}]}
