{"src":"https://z0.muscache.cn/im/pictures/11452259/2ada65ec_original.jpg?aki_policy=xx_large","name":"Welcome to my house ☺☺☺★★★★★","listingId":159356,"photoId":"407-28","tags":[{"name":"person","coordinates":[0.3643912845187717,0.6005393981933593,0.29246383243136936,0.7310665130615235]},{"name":"person","coordinates":[0.5497064378526476,0.6494603474934896,0.14498457378811305,0.6971942901611328]},{"name":"backpack","coordinates":[0.2896434572007921,0.7088647842407226,0.10898524390326605,0.5241605758666992]},{"name":"person","coordinates":[0.04650185902913411,0.6482491175333659,0.09571214252048069,0.533177661895752]},{"name":"chair","coordinates":[0.1441682285732693,0.5816284815470377,0.16445477803548178,0.16525626182556152]},{"name":"handbag","coordinates":[0.05207428932189941,0.634991709391276,0.07371152771843804,0.17616483370463054]}]}
