{"src":"https://z0.muscache.cn/im/pictures/11452233/a95b002e_original.jpg?aki_policy=xx_large","name":"Welcome to my house ☺☺☺★★★★★","listingId":159356,"photoId":"407-28","tags":[{"name":"person","coordinates":[0.6000914255777995,0.4093989372253418,0.3848443773057726,0.5816431045532227]},{"name":"person","coordinates":[0.006016180250379782,0.45137640635172527,0.35670623779296873,0.5399646759033203]},{"name":"diningtable","coordinates":[0.3077250586615668,0.6371365229288737,0.5069626702202691,0.3534648895263672]},{"name":"person","coordinates":[0.540774408976237,0.2952239195505778,0.16792687310112847,0.49093173344930013]},{"name":"chair","coordinates":[0.6481223318311903,0.20012706915537518,0.21442818111843534,0.16498850186665853]},{"name":"chair","coordinates":[0.9029369566175672,0.012350368499755862,0.10222986009385851,0.21408390998840332]},{"name":"cup","coordinates":[0.6700798961851332,0.8260134855906169,0.048017358779907225,0.08544619878133138]}]}
