{"src":"https://a0.muscache.com/im/pictures/c1dd0461-c22f-49ab-a0aa-0b0eeada9dc9.jpg?aki_policy=xx_large","name":"郑州南三环连云路高品质浪漫温馨舒适Sweethome 黄科大二号地铁站马屯","listingId":15946518,"photoId":"408-8","tags":[{"name":"pottedplant","coordinates":[0.6032428920269012,0.5458305120468139,0.1174009919166565,0.15610114733378092]},{"name":"pottedplant","coordinates":[0.4595743596553802,0.6028858343760173,0.12638722658157348,0.14409125645955403]},{"name":"bottle","coordinates":[0.38212430775165557,0.5858603795369466,0.02955455183982849,0.15140711466471354]},{"name":"wine-glass","coordinates":[0.4211518093943596,0.6235754370689393,0.037768974900245667,0.08085307280222574]},{"name":"vase","coordinates":[0.6438348725438118,0.6346197068691254,0.029195985198020934,0.05823950370152791]}]}
