{"src":"https://a0.muscache.com/im/pictures/49e83713-c240-4e1b-ba40-bd666c9adc3b.jpg?aki_policy=xx_large","name":"Amazing SkyStudio on 29th floor 731","listingId":16460625,"photoId":"409-2","tags":[{"name":"sofa","coordinates":[0.418244383070204,0.6989658355712891,0.8361829121907552,0.5874409993489583]},{"name":"chair","coordinates":[0.253071657816569,0.4730840682983398,0.17456491258409287,0.3072535832722982]},{"name":"chair","coordinates":[0.41802402072482636,0.4250999768575033,0.15340566635131836,0.25680038134257]},{"name":"tvmonitor","coordinates":[0.7122323777940538,0.36386725107828777,0.17153750525580513,0.1946390469868978]},{"name":"person","coordinates":[0.755412122938368,0.37282323837280273,0.07150932947794596,0.1613786220550537]},{"name":"person","coordinates":[0.6650619082980685,0.37075818379720055,0.0516897095574273,0.111647097269694]}]}
