{"src":"https://a0.muscache.com/im/pictures/edce8c31-ba69-40c5-b368-fb3a52dc2040.jpg?aki_policy=xx_large","name":"Ipoh Tiara Lake Park Home Stay小西湖民宿","listingId":11023869,"photoId":"41-10","tags":[{"name":"diningtable","coordinates":[0.3503456327650282,0.7179754892985026,0.5408306121826172,0.49170252482096355]},{"name":"chair","coordinates":[0.12968262566460503,0.7116157531738281,0.2413667254977756,0.5108916282653808]},{"name":"chair","coordinates":[0.6398507436116536,0.7423209508260091,0.18380779690212673,0.48805230458577475]},{"name":"refrigerator","coordinates":[0.7811136033799914,0.31676146189371746,0.14630985260009766,0.3359580357869466]},{"name":"chair","coordinates":[0.357065667046441,0.9133693059285481,0.2670831044514974,0.1432448705037435]},{"name":"chair","coordinates":[0.24199059804280598,0.47283751169840493,0.14446822272406684,0.20933685302734376]},{"name":"chair","coordinates":[0.20006735059950087,0.5452969868977865,0.08924023310343425,0.2293219248453776]},{"name":"chair","coordinates":[0.4162346733940972,0.459363047281901,0.12037821875678169,0.16549905141194662]},{"name":"chair","coordinates":[0.5048951466878255,0.4680554707845052,0.08058417638142903,0.16042297681172688]},{"name":"microwave","coordinates":[0.6293696933322482,0.28294703165690105,0.09400877422756619,0.07283279101053873]}]}
