{"src":"https://a0.muscache.com/im/pictures/26cf04a6-64e4-4893-a893-0b67b18d4857.jpg?aki_policy=xx_large","name":"Ipoh Tiara Lake Park Home Stay小西湖民宿","listingId":11023869,"photoId":"41-15","tags":[{"name":"chair","coordinates":[0.16945399178398984,0.44816125233968096,0.24151405758327907,0.5509746551513672]},{"name":"diningtable","coordinates":[0.2999685181511773,0.4785025596618653,0.2639705022176107,0.45551509857177735]},{"name":"chair","coordinates":[0.4596979882982042,0.4532164732615153,0.19899756113688152,0.4796504020690918]},{"name":"chair","coordinates":[0.630694219801161,0.4169081528981527,0.09910494486490885,0.42277040481567385]},{"name":"chair","coordinates":[0.6732206636004978,0.4241039276123047,0.07043048540751139,0.3489985148111979]},{"name":"chair","coordinates":[0.5453418678707547,0.3940572579701741,0.1014476458231608,0.15420509974161783]},{"name":"chair","coordinates":[0.35107748243543835,0.39535152117411293,0.08132570054796007,0.1539024035135905]},{"name":"chair","coordinates":[0.18524573114183213,0.42072818875312806,0.10114859475029839,0.06556457281112671]},{"name":"microwave","coordinates":[0.9180243571599324,0.32652577956517537,0.0785018973880344,0.06827514171600342]},{"name":"bottle","coordinates":[0.7872835642761654,0.3314945499102275,0.019038591119978163,0.06726259390513102]}]}
