{"src":"https://a0.muscache.com/im/pictures/c1171d22-fe39-4d5d-8f21-668c7801af35.jpg?aki_policy=xx_large","name":"Miniappartamento in Monreale (Pa) Lecasedelduomo","listingId":15966830,"photoId":"410-6","tags":[{"name":"bed","coordinates":[0.35054253802345925,0.744183095296224,0.30203919815254476,0.4720233599344889]},{"name":"chair","coordinates":[0.16906230008651882,0.5317419052124024,0.08493864884462742,0.19410104751586915]},{"name":"chair","coordinates":[0.3347789355876217,0.4928813298543294,0.08176650258198236,0.15954472223917643]},{"name":"chair","coordinates":[0.01814500413451639,0.7777865727742513,0.04261910832475389,0.24638789494832355]},{"name":"tvmonitor","coordinates":[0.22325983166860439,0.32909749348958334,0.060169755832210535,0.06652958790461222]},{"name":"sink","coordinates":[0.43725636870871004,0.41582555770874025,0.07709946718600595,0.01081865926583608]}]}
