{"src":"https://a0.muscache.com/im/pictures/c1171d22-fe39-4d5d-8f21-668c7801af35.jpg?aki_policy=xx_large","name":"Miniappartamento in Monreale (Pa) Lecasedelduomo","listingId":15966830,"photoId":"410-6","tags":[{"name":"bed","coordinates":[0.700111346774631,0.744183095296224,0.6032393985324436,0.4720233599344889]},{"name":"chair","coordinates":[0.3376549826727973,0.5317419052124024,0.16964135699801974,0.19410104751586915]},{"name":"chair","coordinates":[0.6686279296875,0.4928813298543294,0.16330587599012586,0.15954472223917643]},{"name":"chair","coordinates":[0.03623960547977024,0.7777865727742513,0.08511983023749457,0.24638789494832355]},{"name":"tvmonitor","coordinates":[0.4458994971381293,0.32909749348958334,0.12017237345377604,0.06652958790461222]},{"name":"sink","coordinates":[0.8732981363932292,0.41582555770874025,0.15398476918538412,0.01081865926583608]}]}
