{"src":"https://a0.muscache.com/im/pictures/967ae247-2b40-4f90-a345-df1fa29b7358.jpg?aki_policy=xx_large","name":"Studio/Casita on the El Camino Real","listingId":15974672,"photoId":"411-4","tags":[{"name":"bed","coordinates":[0.5081740061442057,0.7274318059285482,0.969288804796007,0.5868312835693359]},{"name":"sofa","coordinates":[0.8764019436306424,0.6138849258422852,0.2401582717895508,0.2776424090067546]},{"name":"tvmonitor","coordinates":[0.08648061752319336,0.1191964864730835,0.17490531073676216,0.22208456993103026]},{"name":"chair","coordinates":[0.43953047858344185,0.5091969490051269,0.06440523995293511,0.29089523951212565]},{"name":"clock","coordinates":[0.5993859608968098,0.1566567103068034,0.04845547146267361,0.07759067217508951]}]}
