{"src":"https://a0.muscache.com/im/pictures/967ae247-2b40-4f90-a345-df1fa29b7358.jpg?aki_policy=xx_large","name":"Studio/Casita on the El Camino Real","listingId":15974672,"photoId":"411-4","tags":[{"name":"bed","coordinates":[0.02352960374620222,0.4340161641438802,0.969288804796007,0.5868312835693359]},{"name":"sofa","coordinates":[0.756322807735867,0.47506372133890784,0.2401582717895508,0.2776424090067546]},{"name":"tvmonitor","coordinates":[-0.0009720378451877204,0.008154201507568362,0.17490531073676216,0.22208456993103026]},{"name":"chair","coordinates":[0.4073278586069743,0.3637493292490641,0.06440523995293511,0.29089523951212565]},{"name":"clock","coordinates":[0.575158225165473,0.11786137421925863,0.04845547146267361,0.07759067217508951]}]}
