{"src":"https://a0.muscache.com/im/pictures/54b42cc1-bf60-4114-b1e7-751de06d05a0.jpg?aki_policy=xx_large","name":"Solid Rock Lodge &amp; Restaurant","listingId":15994368,"photoId":"413-8","tags":[{"name":"person","coordinates":[0.6000738859176635,0.358010737101237,0.3102709293365479,0.5286303202311198]},{"name":"person","coordinates":[0.45791079998016354,0.4193781693776448,0.13956294059753419,0.3936322212219238]},{"name":"person","coordinates":[0.03406869173049927,0.3990747928619385,0.10679969787597657,0.4536471366882324]},{"name":"person","coordinates":[0.31058529615402225,0.37184832890828445,0.09041006565093994,0.33389275868733725]},{"name":"chair","coordinates":[0.7500328719615936,0.7143537839253743,0.15682245492935182,0.13885936737060547]},{"name":"person","coordinates":[0.2671665340662003,0.34037499427795415,0.056816643476486205,0.37219953536987305]},{"name":"diningtable","coordinates":[0.7965282917022705,0.5862425963083903,0.20084218978881835,0.10061864852905274]},{"name":"person","coordinates":[0.6250754594802856,0.4272651712099711,0.07683205604553223,0.10611584186553955]},{"name":"person","coordinates":[0.5862982764840127,0.4471317052841186,0.043695923686027524,0.07885746955871582]},{"name":"cup","coordinates":[0.822174233198166,0.5940570692221324,0.04191347360610962,0.03966423273086548]}]}
