{"src":"https://a0.muscache.com/im/pictures/0ec1b481-7222-4d5d-a292-fc929e3ad53e.jpg?aki_policy=xx_large","name":"Solid Rock Lodge &amp; Restaurant","listingId":15994368,"photoId":"413-5","tags":[{"name":"umbrella","coordinates":[0.7410882737901475,0.40729780197143556,0.5132305569118923,0.5382989247639974]},{"name":"person","coordinates":[0.5944674173990886,0.7245353062947592,0.2553038067287869,0.44454723993937173]},{"name":"diningtable","coordinates":[0.7309904310438368,0.7572673161824545,0.2230648464626736,0.2706720987955729]},{"name":"chair","coordinates":[0.5636724683973524,0.8277800877888998,0.15137550565931532,0.32458152770996096]},{"name":"bench","coordinates":[0.5636724683973524,0.8277800877888998,0.15137550565931532,0.32458152770996096]},{"name":"chair","coordinates":[0.8641999138726129,0.6959677378336588,0.1251124593946669,0.38557392756144204]},{"name":"chair","coordinates":[0.9394542270236546,0.862041982014974,0.11727035310533311,0.21705950101216634]},{"name":"cup","coordinates":[0.7594829983181424,0.6298667907714843,0.017394367853800455,0.0327816903591156]}]}
