{"src":"https://a0.muscache.com/im/pictures/54b42cc1-bf60-4114-b1e7-751de06d05a0.jpg?aki_policy=xx_large","name":"Solid Rock Lodge &amp; Restaurant","listingId":15994368,"photoId":"413-8","tags":[{"name":"person","coordinates":[0.7552093505859375,0.6223258972167969,0.3102709293365479,0.5286303202311198]},{"name":"person","coordinates":[0.5276922702789306,0.6161942799886068,0.13956294059753419,0.3936322212219238]},{"name":"person","coordinates":[0.08746854066848755,0.6258983612060547,0.10679969787597657,0.4536471366882324]},{"name":"person","coordinates":[0.3557903289794922,0.5387947082519531,0.09041006565093994,0.33389275868733725]},{"name":"chair","coordinates":[0.8284440994262695,0.7837834676106771,0.15682245492935182,0.13885936737060547]},{"name":"person","coordinates":[0.29557485580444337,0.5264747619628907,0.056816643476486205,0.37219953536987305]},{"name":"diningtable","coordinates":[0.8969493865966797,0.6365519205729167,0.20084218978881835,0.10061864852905274]},{"name":"person","coordinates":[0.6634914875030518,0.4803230921427409,0.07683205604553223,0.10611584186553955]},{"name":"person","coordinates":[0.6081462383270264,0.48656044006347654,0.043695923686027524,0.07885746955871582]},{"name":"cup","coordinates":[0.8431309700012207,0.6138891855875651,0.04191347360610962,0.03966423273086548]}]}
