{"src":"https://a0.muscache.com/im/pictures/9d633820-ce7f-4135-bf4d-0a54701aa5b6.jpg?aki_policy=xx_large","name":"Bright apartment 10 minutes walk from the beach","listingId":16509702,"photoId":"413-3","tags":[{"name":"chair","coordinates":[0.16739280801982334,0.8748123804728191,0.3402712733324052,0.23478129704793294]},{"name":"sofa","coordinates":[0.8390061480444182,0.8416170756022135,0.2957584959572633,0.256833553314209]},{"name":"chair","coordinates":[0.5918451998302106,0.6948710123697917,0.16950106937347134,0.3150679588317871]},{"name":"chair","coordinates":[0.5324425100863688,0.8696470260620117,0.1559049764935742,0.26830329895019533]},{"name":"chair","coordinates":[0.39532248912200824,0.8852367401123047,0.11343523474692632,0.23886547088623047]},{"name":"tvmonitor","coordinates":[0.16611025934865806,0.4761911074320475,0.15868822866849014,0.16820969581604003]},{"name":"oven","coordinates":[0.4824526698167802,0.48588717778523766,0.11136942289660312,0.1510947863260905]},{"name":"refrigerator","coordinates":[0.5600736072894829,0.365976079305013,0.08307126816297061,0.1822521209716797]},{"name":"chair","coordinates":[0.706612704934814,0.5768433888753255,0.05485928666749924,0.22217496236165366]},{"name":"chair","coordinates":[0.5691576517186409,0.5286390304565429,0.07055165032920598,0.1484779675801595]},{"name":"chair","coordinates":[0.5630113560365347,0.5659402211507162,0.0500370668082034,0.0919409434000651]},{"name":"chair","coordinates":[0.5534494374699729,0.47692639032999673,0.045708592999323026,0.050385010242462155]}]}
