{"src":"https://a0.muscache.com/im/pictures/2a9d9ca7-0ca0-4931-99d8-b76be55fafae.jpg?aki_policy=xx_large","name":"Bright apartment 10 minutes walk from the beach","listingId":16509702,"photoId":"413-2","tags":[{"name":"chair","coordinates":[0.3337328768876114,0.6901462554931641,0.3054434018564924,0.25817635854085286]},{"name":"sofa","coordinates":[0.3337328768876114,0.6901462554931641,0.3054434018564924,0.25817635854085286]},{"name":"chair","coordinates":[0.37893713012098185,0.8373831431070964,0.22424587247090103,0.3169076919555664]},{"name":"pottedplant","coordinates":[0.09734802459354254,0.6589513142903646,0.18774507897121767,0.37220738728841146]},{"name":"chair","coordinates":[0.5881644514871593,0.6514701207478841,0.16199243360262164,0.2850458780924479]},{"name":"chair","coordinates":[0.7347430876299353,0.6778594970703125,0.15925066059573725,0.2843866030375163]},{"name":"diningtable","coordinates":[0.1666332380826618,0.944638188680013,0.30514251261137315,0.10412864685058594]},{"name":"chair","coordinates":[0.05414951838953857,0.9097098032633464,0.10789876813908543,0.17029983202616375]}]}
