{"src":"https://a0.muscache.com/im/pictures/0ec1b481-7222-4d5d-a292-fc929e3ad53e.jpg?aki_policy=xx_large","name":"Solid Rock Lodge &amp; Restaurant","listingId":15994368,"photoId":"413-5","tags":[{"name":"umbrella","coordinates":[0.8337243080139161,0.40729780197143556,0.5773843765258789,0.5382989247639974]},{"name":"person","coordinates":[0.6687758445739747,0.7245353062947592,0.28721678256988525,0.44454723993937173]},{"name":"diningtable","coordinates":[0.8223642349243164,0.7572673161824545,0.2509479522705078,0.2706720987955729]},{"name":"chair","coordinates":[0.6341315269470215,0.8277800877888998,0.17029744386672974,0.32458152770996096]},{"name":"bench","coordinates":[0.6341315269470215,0.8277800877888998,0.17029744386672974,0.32458152770996096]},{"name":"chair","coordinates":[0.9722249031066894,0.6959677378336588,0.14075151681900025,0.38557392756144204]},{"name":"chair","coordinates":[1.0568860054016114,0.862041982014974,0.13192914724349974,0.21705950101216634]},{"name":"cup","coordinates":[0.8544183731079101,0.6298667907714843,0.019568663835525513,0.0327816903591156]}]}
