{"src":"https://a0.muscache.com/im/pictures/57fac474-5db0-4ef1-9544-04a851bc21eb.jpg?aki_policy=xx_large","name":"Haveli Lal Darwaza-100 Year old Manor, Sohna","listingId":15996828,"photoId":"414-18","tags":[{"name":"bed","coordinates":[-0.001516532897949216,0.6650553067525228,0.23221770392523872,0.33929335276285805]},{"name":"sofa","coordinates":[-0.001516532897949216,0.6650553067525228,0.23221770392523872,0.33929335276285805]},{"name":"diningtable","coordinates":[0.7244086371527778,0.5895212570826213,0.13663262261284723,0.1960478941599528]},{"name":"chair","coordinates":[0.7892688088946873,0.5939879814783732,0.08888435893588596,0.21285640398661296]},{"name":"chair","coordinates":[0.8260307921303643,0.5816259622573853,0.07145373556349012,0.20993088086446127]},{"name":"chair","coordinates":[0.7099319007661608,0.5974049409230551,0.0730434046851264,0.17375548680623373]},{"name":"chair","coordinates":[0.7003263327810499,0.5742839733759562,0.04312140941619873,0.1688809871673584]},{"name":"vase","coordinates":[0.7922905464967092,0.5800732990105947,0.012322898705800374,0.02461775541305542]}]}
