{"src":"https://a0.muscache.com/im/pictures/57fac474-5db0-4ef1-9544-04a851bc21eb.jpg?aki_policy=xx_large","name":"Haveli Lal Darwaza-100 Year old Manor, Sohna","listingId":15996828,"photoId":"414-18","tags":[{"name":"bed","coordinates":[0.11459231906467014,0.8347019831339518,0.23221770392523872,0.33929335276285805]},{"name":"sofa","coordinates":[0.11459231906467014,0.8347019831339518,0.23221770392523872,0.33929335276285805]},{"name":"diningtable","coordinates":[0.7927249484592014,0.6875452041625977,0.13663262261284723,0.1960478941599528]},{"name":"chair","coordinates":[0.8337109883626302,0.7004161834716797,0.08888435893588596,0.21285640398661296]},{"name":"chair","coordinates":[0.8617576599121094,0.6865914026896159,0.07145373556349012,0.20993088086446127]},{"name":"chair","coordinates":[0.746453603108724,0.6842826843261719,0.0730434046851264,0.17375548680623373]},{"name":"chair","coordinates":[0.7218870374891493,0.6587244669596354,0.04312140941619873,0.1688809871673584]},{"name":"vase","coordinates":[0.7984519958496094,0.5923821767171223,0.012322898705800374,0.02461775541305542]}]}
