{"src":"https://a0.muscache.com/im/pictures/6a969f71-7d28-4cc7-a255-3d224fa9b72a.jpg?aki_policy=xx_large","name":"Квартира в Гааге / Room Den Haag Kijkduin","listingId":16526575,"photoId":"416-6","tags":[{"name":"diningtable","coordinates":[0.17988298204210068,0.6659526824951172,0.35922330220540366,0.566906229654948]},{"name":"sofa","coordinates":[0.3945553249782986,0.5079710960388184,0.20625076293945313,0.8439586639404297]},{"name":"vase","coordinates":[0.07464479870266384,0.39425328572591145,0.0894486321343316,0.14788878758748372]},{"name":"cup","coordinates":[0.18429768880208333,0.5151576995849609,0.05451372994316949,0.08996797402699788]},{"name":"orange","coordinates":[0.2545788023206923,0.400383726755778,0.04484773741828071,0.06806689898173014]},{"name":"apple","coordinates":[0.21522212558322482,0.3554297765096029,0.04509001308017307,0.056856052080790205]},{"name":"orange","coordinates":[0.21394248538547092,0.4120692571004232,0.04189603063795302,0.058350757757822676]},{"name":"apple","coordinates":[0.17735810809665256,0.401117197672526,0.041789195272657606,0.05668350458145142]}]}
