{"src":"https://a0.muscache.com/im/pictures/1be393e5-717b-43ae-85ee-537d214357ca.jpg?aki_policy=xx_large","name":"New cozy studio near Delft city center","listingId":16539758,"photoId":"419-0","tags":[{"name":"diningtable","coordinates":[0.41439931735634555,0.714842160542806,0.24219093561338167,0.44215399424235025]},{"name":"chair","coordinates":[0.513737066824292,0.6558208465576172,0.17051139020356476,0.5405278523763021]},{"name":"chair","coordinates":[0.28795313619755475,0.6318390528361003,0.16641001008797884,0.526669438680013]},{"name":"pottedplant","coordinates":[0.07009581247081849,0.5392730077107747,0.1473351982917282,0.5019612948099772]},{"name":"pottedplant","coordinates":[0.42705475977512597,0.38894856770833336,0.1658581487829276,0.24215685526529948]},{"name":"refrigerator","coordinates":[0.7624420102393155,0.6457883834838867,0.09017901920957479,0.43086026509602865]}]}
