{"src":"https://a0.muscache.com/im/pictures/09cac504-5174-4270-93f6-57721e243247.jpg?aki_policy=xx_large","name":"Comfortable and spacious apartment","listingId":16576982,"photoId":"422-1","tags":[{"name":"diningtable","coordinates":[0.9792512638276798,0.7647835413614908,1.0349861862313035,0.4166052500406901]},{"name":"pottedplant","coordinates":[1.646362478576834,0.3609688440958659,0.29587967918808983,0.5664726893107096]},{"name":"sofa","coordinates":[1.8208696414262822,0.6444650014241536,0.47970559318520745,0.31840922037760416]},{"name":"chair","coordinates":[0.5837359740863158,0.8053799311319987,0.3551087338700254,0.3645917574564616]},{"name":"chair","coordinates":[1.3834235471198362,0.8082452138264974,0.25747406788361377,0.3761367162068685]},{"name":"chair","coordinates":[1.2182673701533564,0.6254291534423828,0.16780159887764867,0.12025206883748372]},{"name":"chair","coordinates":[1.091945202601941,0.579243278503418,0.12187646936487269,0.10889593760172527]}]}
