{"src":"https://a0.muscache.com/im/pictures/7ed57510-8425-4d22-b9a7-a9152528fb67.jpg?aki_policy=xx_large","name":"Comfortable and cosy apartment in city centre.","listingId":16631677,"photoId":"424-1","tags":[{"name":"sofa","coordinates":[0.2887230157852173,0.7081940333048503,0.5592392921447754,0.6005071640014649]},{"name":"pottedplant","coordinates":[0.7360551357269287,0.31854187647501625,0.0837565541267395,0.1556182861328125]},{"name":"wine-glass","coordinates":[0.6904115676879883,0.6853343963623046,0.03772519528865814,0.11974702676137289]},{"name":"clock","coordinates":[0.8775202751159668,0.30358076095581055,0.029180279374122618,0.04337764978408813]},{"name":"cup","coordinates":[0.524852180480957,0.6212731043497721,0.025657591223716737,0.04498790105183919]}]}
