{"src":"https://a0.muscache.com/im/pictures/56e9e9a1-9c0a-4b6d-b369-352b0aba2db0.jpg?aki_policy=xx_large","name":"Historic B&amp;B in the city center of The Hague 1+2","listingId":16644257,"photoId":"426-4","tags":[{"name":"bed","coordinates":[0.6478210873074002,0.7640193939208985,0.4964271545410156,0.355338986714681]},{"name":"diningtable","coordinates":[0.25939625634087454,0.9131519953409831,0.4901626163058811,0.15536901156107585]},{"name":"pottedplant","coordinates":[0.1380411254035102,0.875720723470052,0.24117842780219184,0.28454297383626304]},{"name":"chair","coordinates":[0.44656817118326825,0.8643486658732097,0.12356265385945638,0.2134196917215983]},{"name":"vase","coordinates":[0.1490947617424859,0.968653678894043,0.08381172286139595,0.07066191037495931]}]}
