{"src":"https://a0.muscache.com/im/pictures/b4488573-b6f8-4046-9ab5-5bcfc4be4b9c.jpg?aki_policy=xx_large","name":"Хостел Пирс","listingId":16075355,"photoId":"426-0","tags":[{"name":"bed","coordinates":[0.7418797473424307,0.6765849431355794,0.4907070845545273,0.6300137201944987]},{"name":"person","coordinates":[0.746311017486241,0.4192740122477214,0.4677720386242838,0.11018685499827068]},{"name":"backpack","coordinates":[0.5352206350954651,0.946015739440918,0.16565942706762665,0.1081988255182902]},{"name":"backpack","coordinates":[0.172160554708704,0.7806707382202148,0.11053312184295838,0.16141411463419597]},{"name":"handbag","coordinates":[0.37696530994373867,0.549681282043457,0.14263929820319568,0.05634371439615885]},{"name":"sports-ball","coordinates":[0.2026206868980417,0.5876608530680338,0.04389551896669321,0.04351205825805664]}]}
