{"src":"https://a0.muscache.com/im/pictures/b4488573-b6f8-4046-9ab5-5bcfc4be4b9c.jpg?aki_policy=xx_large","name":"Хостел Пирс","listingId":16075355,"photoId":"426-0","tags":[{"name":"bed","coordinates":[0.4804830551147461,0.6765849431355794,0.31780951023101806,0.6300137201944987]},{"name":"person","coordinates":[0.4833529949188232,0.4192740122477214,0.30295548439025877,0.11018685499827068]},{"name":"backpack","coordinates":[0.3466389894485474,0.946015739440918,0.10729036331176758,0.1081988255182902]},{"name":"backpack","coordinates":[0.11150085926055908,0.7806707382202148,0.07158746719360351,0.16141411463419597]},{"name":"handbag","coordinates":[0.24414393901824952,0.549681282043457,0.09238123297691345,0.05634371439615885]},{"name":"sports-ball","coordinates":[0.1312285542488098,0.5876608530680338,0.0284292072057724,0.04351205825805664]}]}
