{"src":"https://a0.muscache.com/im/pictures/7e543a33-a1e3-4d34-bf1b-b846aaac9f2b.jpg?aki_policy=xx_large","name":"Historic B&amp;B in the city center of The Hague 1+2","listingId":16644257,"photoId":"426-0","tags":[{"name":"bicycle","coordinates":[0.17916009691026474,0.7365662892659505,0.13487704594930014,0.1289779265721639]},{"name":"bench","coordinates":[0.6830526987711588,0.7243365605672201,0.04361332522498237,0.09023389021555582]},{"name":"chair","coordinates":[0.31498896280924477,0.7217866897583007,0.04855169190300836,0.08043990929921468]},{"name":"person","coordinates":[0.5139073265923394,0.6595685958862305,0.02008372147878011,0.11908294359842936]},{"name":"person","coordinates":[0.720249515109592,0.6513582865397135,0.02187447018093533,0.10315984884897868]},{"name":"person","coordinates":[0.6647564358181424,0.6493760426839192,0.016733686129252117,0.05990809202194214]},{"name":"bicycle","coordinates":[0.6025995466444227,0.6509854634602864,0.02024688720703125,0.043571305274963376]},{"name":"person","coordinates":[0.6014254252115886,0.6346343994140625,0.01523245308134291,0.05041717290878296]}]}
