{"src":"https://a0.muscache.com/im/pictures/b4488573-b6f8-4046-9ab5-5bcfc4be4b9c.jpg?aki_policy=xx_large","name":"Хостел Пирс","listingId":16075355,"photoId":"426-0","tags":[{"name":"bed","coordinates":[0.49652620506516704,0.36157808303833,0.4907070845545273,0.6300137201944987]},{"name":"person","coordinates":[0.512424998174099,0.36418058474858606,0.4677720386242838,0.11018685499827068]},{"name":"backpack","coordinates":[0.45239092156165184,0.8919163266817729,0.16565942706762665,0.1081988255182902]},{"name":"backpack","coordinates":[0.11689399378722481,0.6999636809031169,0.11053312184295838,0.16141411463419597]},{"name":"handbag","coordinates":[0.30564566084214084,0.5215094248453775,0.14263929820319568,0.05634371439615885]},{"name":"sports-ball","coordinates":[0.1806729274146951,0.5659048239390055,0.04389551896669321,0.04351205825805664]}]}
