{"src":"https://a0.muscache.com/im/pictures/3ef61eb4-a624-40bc-8109-a3d1f1981607.jpg?aki_policy=xx_large","name":"Geräumiges Haus mit Garten in der Nähe von Strand","listingId":16667981,"photoId":"429-10","tags":[{"name":"diningtable","coordinates":[0.2864565236275191,0.8842798868815104,0.6439165296945578,0.2377828598022461]},{"name":"diningtable","coordinates":[0.7434695351861101,0.8377548853556315,0.24402288101546213,0.30227069854736327]},{"name":"chair","coordinates":[0.7515444990824791,0.857959493001302,0.11782512439465341,0.29523948033650715]},{"name":"chair","coordinates":[0.3368841811465753,0.8068136215209961,0.15010982722851698,0.16989212036132811]},{"name":"refrigerator","coordinates":[0.8930049893589298,0.6049799601236979,0.14153976387410963,0.17668944994608562]},{"name":"chair","coordinates":[0.6625966382904795,0.8297316869099934,0.08348031537743225,0.2867887814839681]},{"name":"chair","coordinates":[0.953875745146369,0.8758354822794596,0.09325163458850004,0.24922135670979817]},{"name":"vase","coordinates":[0.17534371827359493,0.8982815424601237,0.0881766610215156,0.15121231079101563]},{"name":"bottle","coordinates":[0.4912430456398758,0.5995716730753581,0.01148229046278815,0.0435711145401001]}]}
