{"src":"https://a0.muscache.com/im/pictures/7b7af980-a23b-4972-9de3-5c5387c9b522.jpg?aki_policy=xx_large","name":"Geräumiges Haus mit Garten in der Nähe von Strand","listingId":16667981,"photoId":"429-2","tags":[{"name":"bed","coordinates":[0.5203158423004256,0.7749355951944987,0.6635928389262291,0.38683109283447265]},{"name":"chair","coordinates":[0.9517505849874045,0.6278903325398763,0.09453766738647715,0.2372309366861979]},{"name":"chair","coordinates":[0.8614343321099722,0.5973263422648112,0.06094250602801696,0.21973002751668294]},{"name":"chair","coordinates":[0.8357466325899062,0.5818124135335286,0.05301990204175534,0.21452781359354656]},{"name":"pottedplant","coordinates":[0.37168238509272933,0.525057856241862,0.035048219045886904,0.0760490338007609]},{"name":"vase","coordinates":[0.37106338087430507,0.5436206817626953,0.021053731731443957,0.038968777656555174]}]}
