{"src":"https://a0.muscache.com/im/pictures/420b21a7-49cf-41f6-814c-10267805f510.jpg?aki_policy=xx_large","name":"Cosy Room in The Hague Center (Pink)","listingId":11097757,"photoId":"43-0","tags":[{"name":"diningtable","coordinates":[0.6366359710693359,0.7666116078694661,0.6286383152008057,0.4405763308207194]},{"name":"chair","coordinates":[0.9202747344970703,0.7493525822957356,0.3148193836212158,0.4791139920552572]},{"name":"chair","coordinates":[0.45023655891418457,0.6987297058105468,0.1593015193939209,0.39140682220458983]},{"name":"chair","coordinates":[0.588585615158081,0.5903838475545248,0.09764997959136963,0.11567768255869547]},{"name":"chair","coordinates":[0.6854321956634521,0.5546072642008464,0.08636528849601746,0.12543027400970458]},{"name":"clock","coordinates":[1.0857721328735352,0.11581151485443116,0.06743411421775818,0.15189380645751954]},{"name":"vase","coordinates":[0.8179754257202149,0.5661085764567058,0.054811155796051024,0.09112171332041423]},{"name":"book","coordinates":[0.40307464599609377,0.32425975799560547,0.014713640511035918,0.08929651578267415]},{"name":"book","coordinates":[0.31358046531677247,0.3413665453592936,0.01688314080238342,0.06971437136332194]},{"name":"book","coordinates":[0.48481459617614747,0.4263650894165039,0.015341418981552123,0.07647662162780762]},{"name":"book","coordinates":[0.46619405746459963,0.43095305760701497,0.01419256180524826,0.07877719402313232]},{"name":"book","coordinates":[0.42273316383361814,0.31808945337931316,0.012571543455123901,0.0854272206624349]}]}
