{"src":"https://a0.muscache.com/im/pictures/50e3a577-b4d9-480e-9cd2-cd56337e9fd6.jpg?aki_policy=xx_large","name":"Nice little house in Scheveningen","listingId":16670356,"photoId":"431-4","tags":[{"name":"diningtable","coordinates":[0.7462044609917535,0.7096031188964844,0.4060964796278212,0.3145049413045247]},{"name":"chair","coordinates":[0.7762218899197049,0.8369116465250651,0.16487335628933378,0.14706287384033204]},{"name":"chair","coordinates":[0.741221449110243,0.5382198969523112,0.07813754611545139,0.09286704063415527]},{"name":"sink","coordinates":[0.7571322970920139,0.4355180104573568,0.10339077843560113,0.03849041064580282]},{"name":"bottle","coordinates":[0.8557454427083333,0.4256320317586263,0.015058277712927923,0.047463305791219074]}]}
