{"src":"https://a0.muscache.com/im/pictures/4489cdd5-790d-4826-95c2-067f0073938e.jpg?aki_policy=xx_large","name":"Airport Free Pick Up Or Drop/BF/AC/Super Fast Wifi","listingId":16137080,"photoId":"434-6","tags":[{"name":"car","coordinates":[0.6400261636106124,0.7484196980794271,0.4088650342100155,0.1543739954630534]},{"name":"truck","coordinates":[0.4168799264090402,0.7088733037312825,0.25967821867569635,0.10943914254506429]},{"name":"person","coordinates":[0.9633458297445167,0.8212841669718425,0.05141832813713121,0.40950533548990886]},{"name":"car","coordinates":[0.09254081797155535,0.7176779429117839,0.19692896019597972,0.06858497460683187]},{"name":"person","coordinates":[0.2583320807225956,0.7239041010538737,0.08072257782361522,0.12337911128997803]},{"name":"person","coordinates":[0.430137160401907,0.3935343106587728,0.08637386819590694,0.11511867841084798]},{"name":"truck","coordinates":[0.9143091995523583,0.6873468399047852,0.10888863794551873,0.06775415738423665]},{"name":"bus","coordinates":[0.9143091995523583,0.6873468399047852,0.10888863794551873,0.06775415738423665]},{"name":"person","coordinates":[0.22181692182647517,0.4266324043273926,0.06290681613898426,0.0782928705215454]},{"name":"person","coordinates":[0.2944710062157293,0.41411717732747394,0.04858015783084846,0.06324177185694377]}]}
