{"src":"https://a0.muscache.com/im/pictures/4489cdd5-790d-4826-95c2-067f0073938e.jpg?aki_policy=xx_large","name":"Airport Free Pick Up Or Drop/BF/AC/Super Fast Wifi","listingId":16137080,"photoId":"434-6","tags":[{"name":"car","coordinates":[0.2882355589966674,0.7484196980794271,0.18413222519667832,0.1543739954630534]},{"name":"truck","coordinates":[0.1877417290960992,0.7088733037312825,0.11694599498401989,0.10943914254506429]},{"name":"person","coordinates":[0.4338424575912369,0.8212841669718425,0.023156226098120628,0.40950533548990886]},{"name":"car","coordinates":[0.04167572501656059,0.7176779429117839,0.08868688836797968,0.06858497460683187]},{"name":"person","coordinates":[0.11633976222751857,0.7239041010538737,0.03635338469818755,0.12337911128997803]},{"name":"person","coordinates":[0.1937121197893903,0.3935343106587728,0.03889844134137347,0.11511867841084798]},{"name":"truck","coordinates":[0.41175882832987326,0.6873468399047852,0.04903796002581403,0.06775415738423665]},{"name":"bus","coordinates":[0.41175882832987326,0.6873468399047852,0.04903796002581403,0.06775415738423665]},{"name":"person","coordinates":[0.0998951731861888,0.4266324043273926,0.0283300626528013,0.0782928705215454]},{"name":"person","coordinates":[0.13261491468736342,0.41411717732747394,0.021878057093053432,0.06324177185694377]}]}
