{"src":"https://a0.muscache.com/im/pictures/4489cdd5-790d-4826-95c2-067f0073938e.jpg?aki_policy=xx_large","name":"Airport Free Pick Up Or Drop/BF/AC/Super Fast Wifi","listingId":16137080,"photoId":"434-6","tags":[{"name":"car","coordinates":[0.4355936465056046,0.6712327003479004,0.4088650342100155,0.1543739954630534]},{"name":"truck","coordinates":[0.287040817071192,0.6541537324587504,0.25967821867569635,0.10943914254506429]},{"name":"person","coordinates":[0.937636665675951,0.616531499226888,0.05141832813713121,0.40950533548990886]},{"name":"car","coordinates":[-0.005923662126434512,0.6833854556083679,0.19692896019597972,0.06858497460683187]},{"name":"person","coordinates":[0.217970791810788,0.6622145454088847,0.08072257782361522,0.12337911128997803]},{"name":"person","coordinates":[0.38695022630395354,0.3359749714533488,0.08637386819590694,0.11511867841084798]},{"name":"truck","coordinates":[0.859864880579599,0.6534697612126669,0.10888863794551873,0.06775415738423665]},{"name":"bus","coordinates":[0.859864880579599,0.6534697612126669,0.10888863794551873,0.06775415738423665]},{"name":"person","coordinates":[0.19036351375698304,0.38748596906661986,0.06290681613898426,0.0782928705215454]},{"name":"person","coordinates":[0.2701809273003051,0.38249629139900204,0.04858015783084846,0.06324177185694377]}]}
