{"src":"https://a0.muscache.com/im/pictures/35dfda8f-3d4a-4f5c-9d7b-a9bd10705253.jpg?aki_policy=xx_large","name":"Room in traditional population of Santiago","listingId":16153926,"photoId":"436-4","tags":[{"name":"sink","coordinates":[0.5720386928982205,0.749226188659668,0.4445653703477648,0.4285877227783203]},{"name":"pottedplant","coordinates":[0.14071461359659831,0.737049674987793,0.113734679751926,0.18982184727986653]},{"name":"bottle","coordinates":[0.5983499315049913,0.24840917587280273,0.033895481957329644,0.18305927912394207]},{"name":"bottle","coordinates":[0.6654316796196832,0.2593454996744792,0.03555784755282932,0.16897137959798178]},{"name":"vase","coordinates":[0.14094569947984484,0.7824540456136068,0.07101949055989583,0.07665545145670573]}]}
