{"src":"https://a0.muscache.com/im/pictures/7e9720d8-3b70-4fec-b4e3-497e72523cd3.jpg?aki_policy=xx_large","name":"Room in traditional population of Santiago","listingId":16153926,"photoId":"436-11","tags":[{"name":"refrigerator","coordinates":[0.8751456530413916,0.60096861521403,0.23433273347240924,0.8247343699137369]},{"name":"oven","coordinates":[0.17745080965107063,0.8776281992594401,0.3080029093283096,0.23877102533976238]},{"name":"chair","coordinates":[0.6447424341855238,0.8578667958577474,0.16876065888447925,0.28982502619425454]},{"name":"bowl","coordinates":[0.9166736510000434,0.12819579442342122,0.13423307311460325,0.13674995104471843]},{"name":"bottle","coordinates":[0.3338566210801772,0.5235138575236002,0.016067662613519454,0.07898146311442057]}]}
