{"src":"https://a0.muscache.com/im/pictures/fc075c61-5c1b-49d7-9a7f-57144cc61eb5.jpg?aki_policy=xx_large","name":"Chambre double calme, centre-ville, vue mer, wifi","listingId":16158737,"photoId":"437-3","tags":[{"name":"pottedplant","coordinates":[0.5326948642730713,0.5885632197062175,0.14411346912384032,0.23095706303914387]},{"name":"tvmonitor","coordinates":[0.37946999073028564,0.5466878890991211,0.14778811931610109,0.1490311622619629]},{"name":"book","coordinates":[0.4347426414489746,0.9679799397786458,0.12137672901153565,0.05890458822250366]},{"name":"book","coordinates":[0.6459016323089599,0.7956986745198568,0.0963115394115448,0.058998596668243405]},{"name":"bottle","coordinates":[0.8097078323364257,0.7599758783976237,0.03809961378574371,0.144325590133667]},{"name":"remote","coordinates":[0.5437204360961914,0.9284885406494141,0.05563779473304749,0.05255348285039266]},{"name":"remote","coordinates":[0.5173615932464599,0.9661807378133138,0.03452631235122681,0.03675629297892253]}]}
