{"src":"https://a0.muscache.com/im/pictures/fc075c61-5c1b-49d7-9a7f-57144cc61eb5.jpg?aki_policy=xx_large","name":"Chambre double calme, centre-ville, vue mer, wifi","listingId":16158737,"photoId":"437-3","tags":[{"name":"pottedplant","coordinates":[0.46063812971115115,0.47308468818664556,0.14411346912384032,0.23095706303914387]},{"name":"tvmonitor","coordinates":[0.30557593107223513,0.4721723079681397,0.14778811931610109,0.1490311622619629]},{"name":"book","coordinates":[0.3740542769432068,0.938527645667394,0.12137672901153565,0.05890458822250366]},{"name":"book","coordinates":[0.5977458626031875,0.7661993761857351,0.0963115394115448,0.058998596668243405]},{"name":"bottle","coordinates":[0.7906580254435539,0.6878130833307902,0.03809961378574371,0.144325590133667]},{"name":"remote","coordinates":[0.5159015387296676,0.9022117992242178,0.05563779473304749,0.05255348285039266]},{"name":"remote","coordinates":[0.5000984370708466,0.9478025913238526,0.03452631235122681,0.03675629297892253]}]}
