{"src":"https://a0.muscache.com/im/pictures/7ef87f83-11d3-4f1e-9c84-2f41bd475eb2.jpg?aki_policy=xx_large","name":"Luxury Apartments Delft Family House","listingId":16747226,"photoId":"437-3","tags":[{"name":"sofa","coordinates":[0.7590126037597656,0.8274836222330729,0.4843731350368924,0.34871066411336266]},{"name":"diningtable","coordinates":[0.3624097612169054,0.7403191884358724,0.25276101430257164,0.283599058787028]},{"name":"chair","coordinates":[0.1742852316962348,0.8847818374633789,0.29765796661376953,0.19559024175008138]},{"name":"chair","coordinates":[0.3928087446424696,0.7571151097615559,0.11714871724446614,0.3097009023030599]},{"name":"bottle","coordinates":[0.6075683169894748,0.9458196640014649,0.02802680598364936,0.12087484200795491]},{"name":"chair","coordinates":[0.410004636976454,0.5976802825927734,0.027115244335598417,0.03976072867711385]}]}
