{"src":"https://a0.muscache.com/im/pictures/06b605e5-bd5c-40c8-a103-5d0f48887efd.jpg?aki_policy=xx_large","name":"Quiet suburban modern family home in The Hague.","listingId":16820739,"photoId":"439-10","tags":[{"name":"sofa","coordinates":[0.7889386777524595,0.7313260396321615,1.5160264756944444,0.5486852010091146]},{"name":"sofa","coordinates":[0.40495003594292533,0.5568811416625976,0.8190101340964988,0.19481666882832846]},{"name":"chair","coordinates":[1.2032132749204283,0.4699594497680664,0.25480996591073496,0.15895471572875977]},{"name":"tvmonitor","coordinates":[0.5224789089626736,0.37445977528889973,0.24800643920898438,0.11133704980214437]},{"name":"pottedplant","coordinates":[1.0537631564670138,0.5102714856465658,0.13954556783040364,0.11064493656158447]},{"name":"clock","coordinates":[0.5140623869719328,0.2084023316701253,0.0650910977964048,0.05180134375890096]},{"name":"vase","coordinates":[1.051093433521412,0.5278028806050619,0.04455546273125543,0.040012617905934654]}]}
