{"src":"https://a0.muscache.com/im/pictures/a5234cf3-525b-4150-956e-d8bbef8dc5ba.jpg?aki_policy=xx_large","name":"Large bedroom Lets be surprized","listingId":11108069,"photoId":"44-3","tags":[{"name":"pottedplant","coordinates":[0.6558163166046143,0.4598564545313517,0.2563300132751465,0.24727648099263508]},{"name":"sofa","coordinates":[0.8701344966888428,0.4418076674143474,0.12654638290405273,0.2825210889180501]},{"name":"spoon","coordinates":[0.05655333399772644,0.7640586217244466,0.0896781325340271,0.10060017903645833]},{"name":"vase","coordinates":[0.38952604532241825,0.3432718276977539,0.040302824974060056,0.1291317621866862]},{"name":"vase","coordinates":[0.7538396432995796,0.5992074251174927,0.04428499639034271,0.07108168601989746]},{"name":"pottedplant","coordinates":[0.3258303299546242,0.2657523413499196,0.029273387789726258,0.03939356406529745]},{"name":"pottedplant","coordinates":[0.2913202628493309,0.26100472410519915,0.025454261898994447,0.044398454825083415]}]}
