{"src":"https://a0.muscache.com/im/pictures/a5234cf3-525b-4150-956e-d8bbef8dc5ba.jpg?aki_policy=xx_large","name":"Large bedroom Lets be surprized","listingId":11108069,"photoId":"44-3","tags":[{"name":"pottedplant","coordinates":[0.7839813232421875,0.5834946950276693,0.2563300132751465,0.24727648099263508]},{"name":"sofa","coordinates":[0.9334076881408692,0.5830682118733724,0.12654638290405273,0.2825210889180501]},{"name":"spoon","coordinates":[0.10139240026473999,0.8143587112426758,0.0896781325340271,0.10060017903645833]},{"name":"vase","coordinates":[0.40967745780944825,0.407837708791097,0.040302824974060056,0.1291317621866862]},{"name":"vase","coordinates":[0.775982141494751,0.6347482681274415,0.04428499639034271,0.07108168601989746]},{"name":"pottedplant","coordinates":[0.3404670238494873,0.28544912338256834,0.029273387789726258,0.03939356406529745]},{"name":"pottedplant","coordinates":[0.3040473937988281,0.28320395151774086,0.025454261898994447,0.044398454825083415]}]}
