{"src":"https://a0.muscache.com/im/pictures/c72cd52a-d10f-4fcb-bcce-e50ec506f43b.jpg?aki_policy=xx_large","name":"Canal house in historic center","listingId":11116829,"photoId":"44-3","tags":[{"name":"refrigerator","coordinates":[0.46514344215393066,0.508797041575114,0.15554797649383545,0.7428389231363932]},{"name":"oven","coordinates":[0.1408785343170166,0.622912851969401,0.10876041650772095,0.2568318843841553]},{"name":"refrigerator","coordinates":[0.34295814037322997,0.44290908177693683,0.0706226646900177,0.27029714584350584]},{"name":"bottle","coordinates":[0.45705275535583495,0.12934199174245198,0.036366048455238345,0.0813571294148763]},{"name":"bowl","coordinates":[0.02249167412519455,0.5634528477986653,0.0516472339630127,0.04615774154663086]}]}
