{"src":"https://a0.muscache.com/im/pictures/2fbf1a41-b11c-4b79-907c-85f2361b40e6.jpg?aki_policy=xx_large","name":"Corner Terrace House at The Hague's Suburbs","listingId":16880340,"photoId":"442-3","tags":[{"name":"chair","coordinates":[0.44431245591905383,0.6410383860270182,0.2791855706108941,0.42896394729614257]},{"name":"sofa","coordinates":[0.44431245591905383,0.6410383860270182,0.2791855706108941,0.42896394729614257]},{"name":"sofa","coordinates":[0.30814168718126084,0.5668432235717773,0.2691335678100586,0.3309086799621582]},{"name":"pottedplant","coordinates":[0.6214073605007595,0.5840325673421224,0.10330984327528211,0.15603624979654948]},{"name":"pottedplant","coordinates":[0.6931864420572916,0.6201829274495443,0.07882993486192491,0.16207300821940104]},{"name":"pottedplant","coordinates":[0.7827731662326389,0.6633996963500977,0.07831302748786079,0.14253400166829427]},{"name":"clock","coordinates":[0.33070174323187934,0.058145503203074135,0.04113436804877387,0.0978833278020223]}]}
