{"src":"https://a0.muscache.com/im/pictures/4524ced3-bede-4672-81f0-0d43f108dadf.jpg?aki_policy=xx_large","name":"近清园，带暖气停车位麻将机欧式三房。旅安居","listingId":16231840,"photoId":"443-10","tags":[{"name":"oven","coordinates":[0.6340860578748915,0.6256137212117513,0.2859148449367947,0.09874020417531332]},{"name":"bowl","coordinates":[0.5712929195827908,0.5396100362141927,0.13776863945855033,0.06624234517415364]},{"name":"sink","coordinates":[0.06819552315606012,0.680316162109375,0.14710511101616752,0.051700667540232344]},{"name":"bottle","coordinates":[0.2590107811821832,0.4862406094868978,0.025580885675218372,0.10894671281178793]},{"name":"bottle","coordinates":[0.31715238359239367,0.48274110158284506,0.02108831140730116,0.11128281752268473]}]}
