{"src":"https://a0.muscache.com/im/pictures/83a1a37c-cc87-496c-afe8-d554d49a6a22.jpg?aki_policy=xx_large","name":"Apartamento Lindo na Zona Oeste","listingId":16234025,"photoId":"445-9","tags":[{"name":"sofa","coordinates":[0.008831130133734821,0.5243789990743001,0.5016300201416015,0.4715534845987956]},{"name":"tvmonitor","coordinates":[0.6526816685994467,0.19295660654703775,0.21881116231282552,0.19959564208984376]},{"name":"chair","coordinates":[0.2803028874927097,0.4539032777150472,0.08130202293395997,0.18579276402791342]},{"name":"chair","coordinates":[0.340787230597602,0.4483024994532267,0.06365682813856337,0.16644730567932128]},{"name":"chair","coordinates":[0.37225280072953965,0.44103229045867925,0.04555482334560818,0.15775373776753743]},{"name":"remote","coordinates":[0.6981805059644911,0.4924755205710729,0.055414941575792104,0.020722240209579468]}]}
