{"src":"https://a0.muscache.com/im/pictures/a62c0d8f-ddfa-4f08-9d31-17c5d526356d.jpg?aki_policy=xx_large","name":"Apartamento Lindo na Zona Oeste","listingId":16234025,"photoId":"445-20","tags":[{"name":"diningtable","coordinates":[0.27479845682779946,0.46733913421630857,0.23646596272786458,0.3202245076497396]},{"name":"chair","coordinates":[0.2874560621049669,0.5414534568786621,0.1483440505133735,0.28846441904703773]},{"name":"sofa","coordinates":[0.6429743819766573,0.3854116042455037,0.13831864462958443,0.2612101395924886]},{"name":"chair","coordinates":[0.42609055042266847,0.5238373359044393,0.0798756652408176,0.22010690371195477]},{"name":"tvmonitor","coordinates":[0.508117397626241,0.26489981015523273,0.048674652311537,0.10040407180786133]}]}
