{"src":"https://a0.muscache.com/im/pictures/a62c0d8f-ddfa-4f08-9d31-17c5d526356d.jpg?aki_policy=xx_large","name":"Apartamento Lindo na Zona Oeste","listingId":16234025,"photoId":"445-20","tags":[{"name":"diningtable","coordinates":[0.39303143819173175,0.6274513880411784,0.23646596272786458,0.3202245076497396]},{"name":"chair","coordinates":[0.36162808736165364,0.685685666402181,0.1483440505133735,0.28846441904703773]},{"name":"sofa","coordinates":[0.7121337042914496,0.516016674041748,0.13831864462958443,0.2612101395924886]},{"name":"chair","coordinates":[0.46602838304307725,0.6338907877604166,0.0798756652408176,0.22010690371195477]},{"name":"tvmonitor","coordinates":[0.5324547237820095,0.3151018460591634,0.048674652311537,0.10040407180786133]}]}
