{"src":"https://a0.muscache.com/im/pictures/d75e0661-11d2-4639-8e56-c59baeb81aef.jpg?aki_policy=xx_large","name":"Spacious apartment near the beach and city center","listingId":16953260,"photoId":"446-11","tags":[{"name":"oven","coordinates":[0.4320710923936632,0.8401315053304036,0.34153885311550564,0.3128633499145508]},{"name":"sink","coordinates":[0.7513451470269097,0.6460327784220378,0.23911497328016493,0.07756782372792562]},{"name":"pottedplant","coordinates":[0.8797659979926216,0.3628534952799479,0.05709834098815918,0.11969106992085775]},{"name":"pottedplant","coordinates":[0.808133782280816,0.4965360959370931,0.054336150487264,0.1198880434036255]},{"name":"spoon","coordinates":[0.3160085890028212,0.45681845347086586,0.024591003523932564,0.23054973284403482]},{"name":"bottle","coordinates":[0.028150624699062772,0.6290053685506185,0.038513180944654675,0.13766059875488282]},{"name":"spoon","coordinates":[0.2394571304321289,0.3946539560953776,0.030197615093655057,0.15627045631408693]},{"name":"spoon","coordinates":[0.5077999962700738,0.45535484949747723,0.023939771122402614,0.16350809733072916]},{"name":"pottedplant","coordinates":[0.8166998969184027,0.3866554260253906,0.0441156095928616,0.06754470666249593]}]}
