{"src":"https://a0.muscache.com/im/pictures/e5d6cc65-3c2f-4229-8ab9-1144532f5d8d.jpg?aki_policy=xx_large","name":"02【Nazar Boncuğu蓝眼睛】Cosy,Duplex APT复式民宿觅踪大床房 近江南万达","listingId":16247015,"photoId":"447-11","tags":[{"name":"diningtable","coordinates":[0.13719816086484482,0.5975985209147135,0.5688601309035759,0.4067785898844401]},{"name":"refrigerator","coordinates":[0.7869522440045692,0.02025442123413085,0.21919151209031337,0.9329242070515951]},{"name":"chair","coordinates":[0.3013660263644249,0.6728177706400553,0.29992023991391886,0.3562702814737956]},{"name":"chair","coordinates":[0.06600211870552292,0.6589594682057699,0.2642574930798046,0.3521799405415853]},{"name":"chair","coordinates":[0.5546386265518642,0.6702190876007079,0.211057865299295,0.3283778190612793]},{"name":"chair","coordinates":[0.167436985517661,0.5960952460765838,0.07305272600101109,0.05671303669611613]},{"name":"vase","coordinates":[0.3789573032751447,0.6057467023531596,0.04339869389945412,0.09382886091868083]},{"name":"chair","coordinates":[0.33601853398993464,0.5950762112935385,0.048181056301866934,0.07401701609293619]}]}
