{"src":"https://a0.muscache.com/im/pictures/e2e10ac6-2fb1-48e5-8445-5220388df236.jpg?aki_policy=xx_large","name":"Great mansion, 500m distance beach/boulevard/dunes","listingId":16994112,"photoId":"449-3","tags":[{"name":"chair","coordinates":[0.5323502434624566,0.8168544133504232,0.3181182861328125,0.28095916112263997]},{"name":"diningtable","coordinates":[1.2514435662163628,0.6611895243326823,0.21659295823838975,0.1864546775817871]},{"name":"chair","coordinates":[1.1250481499565972,0.6329783757527669,0.13921532101101344,0.20365602175394695]},{"name":"chair","coordinates":[1.0859622531467015,0.6179155985514323,0.08996708128187392,0.20334356625874836]},{"name":"vase","coordinates":[0.9503149244520399,0.5073614120483398,0.02724618117014567,0.05183650652567546]},{"name":"bowl","coordinates":[1.2456011454264322,0.5702038447062174,0.053336477279663085,0.02554863691329956]}]}
