{"src":"https://a0.muscache.com/im/pictures/c8853622-5e3f-4073-90bb-74ac3daeeecf.jpg?aki_policy=xx_large","name":"Great mansion, 500m distance beach/boulevard/dunes","listingId":16994112,"photoId":"449-8","tags":[{"name":"bed","coordinates":[0.15866336822509766,0.8948291142781576,0.2796250581741333,0.2269906202952067]},{"name":"diningtable","coordinates":[0.15866336822509766,0.8948291142781576,0.2796250581741333,0.2269906202952067]},{"name":"chair","coordinates":[0.8192303657531739,0.7447132746378581,0.1300627589225769,0.2147469202677409]},{"name":"teddy-bear","coordinates":[0.08779270052909852,0.8210348765055339,0.1745764970779419,0.1373470942179362]},{"name":"chair","coordinates":[0.31960651874542234,0.8209097544352214,0.11581985950469971,0.16998407046000164]},{"name":"tvmonitor","coordinates":[0.8785883903503418,0.5736536661783854,0.10215953588485718,0.08738814194997152]}]}
