{"src":"https://z0.muscache.cn/im/pictures/4fca6d05-4610-4d1e-b1ec-832cc9f0b062.jpg?aki_policy=xx_large","name":"U-Residence 2 Best for Sunset Golf View by Owner","listingId":11128374,"photoId":"45-5","tags":[{"name":"bed","coordinates":[0.6589974880218505,0.7655166625976563,0.9435990333557129,0.4105396588643392]},{"name":"chair","coordinates":[0.14182820320129394,0.49721012115478513,0.279559326171875,0.8985678354899088]},{"name":"chair","coordinates":[0.5792999744415284,0.6196040471394857,0.1600325345993042,0.1874858538309733]},{"name":"pottedplant","coordinates":[0.37823028564453126,0.6230110804239909,0.08275070190429687,0.10620183944702148]},{"name":"pottedplant","coordinates":[0.7449368953704834,0.5332324028015136,0.05323552489280701,0.08681410153706869]},{"name":"vase","coordinates":[0.3782901048660278,0.6533137639363606,0.03682370483875275,0.04319085280100505]}]}
