{"src":"https://z0.muscache.cn/im/pictures/4fca6d05-4610-4d1e-b1ec-832cc9f0b062.jpg?aki_policy=xx_large","name":"U-Residence 2 Best for Sunset Golf View by Owner","listingId":11128374,"photoId":"45-5","tags":[{"name":"bed","coordinates":[0.609037389651963,0.7655166625976563,0.872062644545352,0.4105396588643392]},{"name":"chair","coordinates":[0.13107588454704422,0.49721012115478513,0.258365297833935,0.8985678354899088]},{"name":"chair","coordinates":[0.535381925837658,0.6196040471394857,0.1479001041784183,0.1874858538309733]},{"name":"pottedplant","coordinates":[0.34955578745487365,0.6230110804239909,0.07647718298736463,0.10620183944702148]},{"name":"pottedplant","coordinates":[0.6884615350716381,0.5332324028015136,0.04919961867349673,0.08681410153706869]},{"name":"vase","coordinates":[0.34961107164513766,0.6533137639363606,0.034032016024262465,0.04319085280100505]}]}
