{"src":"https://a0.muscache.com/im/pictures/c060ab3e-6d9b-490d-9a2f-b1a7b090c7fe.jpg?aki_policy=xx_large","name":"Mel's Crib@Urbaneeze : The Getaway Home","listingId":16274146,"photoId":"450-2","tags":[{"name":"chair","coordinates":[0.43445849948459203,0.7011274337768555,0.25481978522406684,0.40455557505289713]},{"name":"chair","coordinates":[0.8371615091959635,0.7827271779378255,0.24428024291992187,0.323109499613444]},{"name":"refrigerator","coordinates":[0.08033183945549859,0.4110180219014486,0.16917669508192273,0.2845854123433431]},{"name":"microwave","coordinates":[0.14991134007771809,0.2835336367289225,0.08995584911770291,0.06214445034662883]},{"name":"bottle","coordinates":[0.3869231753879123,0.379112974802653,0.012386630641089545,0.030069281657536823]},{"name":"bottle","coordinates":[0.4084998236762153,0.3801034291585286,0.011092234320110745,0.030267016092936198]}]}
