{"src":"https://a0.muscache.com/im/pictures/c060ab3e-6d9b-490d-9a2f-b1a7b090c7fe.jpg?aki_policy=xx_large","name":"Mel's Crib@Urbaneeze : The Getaway Home","listingId":16274146,"photoId":"450-2","tags":[{"name":"chair","coordinates":[0.244382905960083,0.7011274337768555,0.1433361291885376,0.40455557505289713]},{"name":"chair","coordinates":[0.4709033489227295,0.7827271779378255,0.13740763664245606,0.323109499613444]},{"name":"refrigerator","coordinates":[0.045186659693717955,0.4110180219014486,0.09516189098358155,0.2845854123433431]},{"name":"microwave","coordinates":[0.08432512879371643,0.2835336367289225,0.05060016512870789,0.06214445034662883]},{"name":"bottle","coordinates":[0.2176442861557007,0.379112974802653,0.00696747973561287,0.030069281657536823]},{"name":"bottle","coordinates":[0.2297811508178711,0.3801034291585286,0.006239381805062294,0.030267016092936198]}]}
