{"src":"https://a0.muscache.com/im/pictures/14763b94-b184-4363-b17f-ab51e84a1663.jpg?aki_policy=xx_large","name":"2 Chbs individuelles dans Villa urbaine, Cotonou","listingId":16298121,"photoId":"452-0","tags":[{"name":"chair","coordinates":[0.162778115272522,0.5972426573435465,0.5576042652130127,0.38384504318237306]},{"name":"chair","coordinates":[0.7009778499603271,0.5357935746510823,0.23874483108520508,0.2754424730936686]},{"name":"sofa","coordinates":[0.7009778499603271,0.5357935746510823,0.23874483108520508,0.2754424730936686]},{"name":"sofa","coordinates":[0.31929044723510747,0.532746688524882,0.3332932472229004,0.1874253749847412]},{"name":"sofa","coordinates":[0.8855068981647491,0.5590662002563477,0.11323627233505248,0.3382790883382161]},{"name":"vase","coordinates":[0.6112102329730987,0.6393072128295898,0.09073585271835327,0.10277837117513021]},{"name":"chair","coordinates":[0.4252782046794891,0.45776285926500954,0.08660780191421509,0.060348419348398845]},{"name":"chair","coordinates":[0.30793547928333287,0.4865911384423574,0.06071071028709411,0.045617059866587324]},{"name":"chair","coordinates":[0.37675620913505553,0.4920790513356527,0.06518703699111938,0.039348634084065755]},{"name":"clock","coordinates":[0.217088320851326,0.24245093266169226,0.0387572705745697,0.05012487570444743]}]}
