{"src":"https://a0.muscache.com/im/pictures/14763b94-b184-4363-b17f-ab51e84a1663.jpg?aki_policy=xx_large","name":"2 Chbs individuelles dans Villa urbaine, Cotonou","listingId":16298121,"photoId":"452-0","tags":[{"name":"chair","coordinates":[0.44158024787902833,0.789165178934733,0.5576042652130127,0.38384504318237306]},{"name":"chair","coordinates":[0.8203502655029297,0.6735148111979167,0.23874483108520508,0.2754424730936686]},{"name":"sofa","coordinates":[0.8203502655029297,0.6735148111979167,0.23874483108520508,0.2754424730936686]},{"name":"sofa","coordinates":[0.48593707084655763,0.6264593760172527,0.3332932472229004,0.1874253749847412]},{"name":"sofa","coordinates":[0.9421250343322753,0.7282057444254557,0.11323627233505248,0.3382790883382161]},{"name":"vase","coordinates":[0.6565781593322754,0.6906963984171549,0.09073585271835327,0.10277837117513021]},{"name":"chair","coordinates":[0.4685821056365967,0.48793706893920896,0.08660780191421509,0.060348419348398845]},{"name":"chair","coordinates":[0.3382908344268799,0.5093996683756511,0.06071071028709411,0.045617059866587324]},{"name":"chair","coordinates":[0.4093497276306152,0.5117533683776856,0.06518703699111938,0.039348634084065755]},{"name":"clock","coordinates":[0.23646695613861085,0.267513370513916,0.0387572705745697,0.05012487570444743]}]}
