{"src":"https://a0.muscache.com/im/pictures/80b115c1-e501-48ff-b4e1-6fe3aa709ac7.jpg?aki_policy=xx_large","name":"Vibrant private room right at Da Nang center","listingId":16321401,"photoId":"454-7","tags":[{"name":"person","coordinates":[0.006846618652343761,0.4698507785797119,0.6378575642903646,0.5297015190124512]},{"name":"person","coordinates":[0.5010398864746094,0.07734966278076172,0.49642918904622396,0.6788649241129557]},{"name":"person","coordinates":[0.020213874181111674,0.05055786768595377,0.4957922299702962,0.5661448796590169]},{"name":"person","coordinates":[0.6426087061564127,0.27387676239013675,0.3599187215169271,0.745260747273763]},{"name":"diningtable","coordinates":[0.2624169826507568,0.5549898624420165,0.4520458539326986,0.39346049626668295]},{"name":"person","coordinates":[0.013771708806355809,0.3513510545094808,0.3593419075012207,0.42784865697224933]},{"name":"bowl","coordinates":[0.4316346009572347,0.5622400760650634,0.22971480687459309,0.17885808944702147]},{"name":"bowl","coordinates":[0.4035715977350871,0.7523398160934448,0.10909310976664226,0.09893924395243327]},{"name":"spoon","coordinates":[0.5241117676099142,0.5409460107485453,0.052730647722880046,0.1285905122756958]},{"name":"sports-ball","coordinates":[0.5379223624865215,0.19086759289105734,0.047210288047790525,0.025055547555287678]}]}
