{"src":"https://a0.muscache.com/im/pictures/7133984b-ad28-4c46-a5d2-213e838e7f4f.jpg?aki_policy=xx_large","name":"Renovated fishermans cottage near sea","listingId":17170977,"photoId":"456-0","tags":[{"name":"diningtable","coordinates":[0.4492022196451823,0.7277088801066081,0.5113350338406033,0.43905769983927406]},{"name":"chair","coordinates":[0.5318133036295573,0.8642845153808594,0.18775738610161674,0.2600489616394043]},{"name":"chair","coordinates":[0.6637935638427734,0.7102736790974935,0.09273476070827907,0.24529647827148438]},{"name":"microwave","coordinates":[0.6376542409261068,0.3894087791442871,0.1065004136827257,0.11014563242594401]},{"name":"bowl","coordinates":[0.5061832851833767,0.6563593546549479,0.049589210086398654,0.03931520779927571]},{"name":"wine-glass","coordinates":[0.5710667504204644,0.5418116887410481,0.022031243642171225,0.05008667310078939]},{"name":"wine-glass","coordinates":[0.5822547064887152,0.5401371002197266,0.020671440495385066,0.052992820739746094]}]}
