{"src":"https://a0.muscache.com/im/pictures/4a235d7c-3080-41da-9503-e4144f7bdbd0.jpg?aki_policy=xx_large","name":"Renovated fishermans cottage near sea","listingId":17170977,"photoId":"456-5","tags":[{"name":"diningtable","coordinates":[0.21764725579155816,0.8072558720906575,0.3975639343261719,0.39409329096476237]},{"name":"oven","coordinates":[0.873673078748915,0.8309182484944662,0.22275513543023004,0.3018381118774414]},{"name":"chair","coordinates":[0.5435626135932075,0.7576981862386067,0.08794147173563639,0.3160436948140462]},{"name":"sink","coordinates":[0.7584901597764757,0.6334814071655274,0.18406071133083768,0.053231871128082274]},{"name":"bowl","coordinates":[0.30030379825168185,0.6233325322469075,0.10339654286702474,0.061361300945281985]},{"name":"banana","coordinates":[0.332860353257921,0.5955638885498047,0.03719600306616889,0.02350895603497823]},{"name":"apple","coordinates":[0.2771919462415907,0.5961379369099935,0.02865360312991672,0.027196445067723594]}]}
