{"src":"https://a0.muscache.com/im/pictures/e86f3ea1-7f3a-4313-81e3-0f2cbc42ffc4.jpg?aki_policy=xx_large","name":"Sweet Spot 1: Calm, Clean, &amp; Accessible/Manhattan","listingId":16331974,"photoId":"456-5","tags":[{"name":"refrigerator","coordinates":[0.5928734995152829,0.3788391749064128,0.3961350935218978,0.5930182139078776]},{"name":"oven","coordinates":[0.1904401347584968,0.5701438109079997,0.41849369689495897,0.4264736493428548]},{"name":"microwave","coordinates":[0.6363484514890796,0.20795875390370688,0.20235424180970574,0.15295399030049642]},{"name":"microwave","coordinates":[0.6588730359599538,0.09366649389266968,0.17240472501211793,0.13037909666697184]},{"name":"wine-glass","coordinates":[0.6685445604533174,0.5250247478485107,0.0503698919811388,0.08220427831013997]},{"name":"wine-glass","coordinates":[0.6227622999762097,0.5156593441963196,0.046562481622626314,0.07311704158782958]},{"name":"wine-glass","coordinates":[0.5810054486685425,0.5086465597152711,0.037356119086272524,0.08036287625630696]}]}
