{"src":"https://a0.muscache.com/im/pictures/4d5e54c0-734c-4a63-9856-03b464a165b0.jpg?aki_policy=xx_large","name":"Sweet Spot 1: Calm, Clean, &amp; Accessible/Manhattan","listingId":16331974,"photoId":"456-5","tags":[{"name":"chair","coordinates":[1.2433553286581651,0.743414560953776,0.2982286118531294,0.5548816680908203]},{"name":"chair","coordinates":[0.9241118789715355,0.7663142522176106,0.27280175254205474,0.4535708427429199]},{"name":"microwave","coordinates":[1.1827966376599495,0.280335807800293,0.21640061402387273,0.14941557248433432]},{"name":"sink","coordinates":[0.39632426397382053,0.5299053827921549,0.19952658225566897,0.019794382651646934]},{"name":"cup","coordinates":[1.0321545614173486,0.45572805404663086,0.05328806927609244,0.03206029534339905]},{"name":"bottle","coordinates":[0.5368228157914781,0.5058879852294922,0.03002773752451607,0.04450885057449341]},{"name":"apple","coordinates":[1.2826720851377524,0.43711646397908527,0.03515128239283655,0.022880584001541138]},{"name":"apple","coordinates":[1.2492030576743123,0.4377829233805339,0.03364167439240267,0.019846826791763306]},{"name":"apple","coordinates":[1.2271881528551531,0.43382142384847006,0.03005621493028731,0.016637980937957764]}]}
