{"src":"https://a0.muscache.com/im/pictures/f6c89175-83c7-49fb-a4a9-b0d1a5a196e5.jpg?aki_policy=xx_large","name":"Sweet Spot 1: Calm, Clean, &amp; Accessible/Manhattan","listingId":16331974,"photoId":"456-0","tags":[{"name":"bed","coordinates":[0.5202955205914277,0.9107398986816406,0.9429294666296446,0.16600348154703776]},{"name":"vase","coordinates":[0.6094959363798718,0.48608439763387046,0.08334254448171194,0.06303091446558634]},{"name":"book","coordinates":[0.2992692001416726,0.793267567952474,0.0309422882770298,0.12838789621988933]},{"name":"book","coordinates":[0.26189460816021304,0.7935737609863281,0.028500478371664858,0.1309902826944987]},{"name":"book","coordinates":[0.2756332126303135,0.7932210286458333,0.02883439687996958,0.1294298807779948]},{"name":"pottedplant","coordinates":[0.24857363600723192,0.4814720153808594,0.053322362206479075,0.06345552206039429]},{"name":"book","coordinates":[0.3337602014495406,0.7932923634847006,0.02314129861760794,0.1220640738805135]}]}
