{"src":"https://a0.muscache.com/im/pictures/f6c89175-83c7-49fb-a4a9-b0d1a5a196e5.jpg?aki_policy=xx_large","name":"Sweet Spot 1: Calm, Clean, &amp; Accessible/Manhattan","listingId":16331974,"photoId":"456-0","tags":[{"name":"bed","coordinates":[0.04883078727660539,0.8277381579081218,0.9429294666296446,0.16600348154703776]},{"name":"vase","coordinates":[0.5678246641390158,0.4545689404010773,0.08334254448171194,0.06303091446558634]},{"name":"book","coordinates":[0.28379805600315766,0.7290736198425294,0.0309422882770298,0.12838789621988933]},{"name":"book","coordinates":[0.2476443689743806,0.7280786196390788,0.028500478371664858,0.1309902826944987]},{"name":"book","coordinates":[0.2612160141903287,0.7285060882568359,0.02883439687996958,0.1294298807779948]},{"name":"pottedplant","coordinates":[0.2219124549039924,0.44974425435066223,0.053322362206479075,0.06345552206039429]},{"name":"book","coordinates":[0.32218955214073663,0.7322603265444438,0.02314129861760794,0.1220640738805135]}]}
