{"src":"https://a0.muscache.com/im/pictures/f6c89175-83c7-49fb-a4a9-b0d1a5a196e5.jpg?aki_policy=xx_large","name":"Sweet Spot 1: Calm, Clean, &amp; Accessible/Manhattan","listingId":16331974,"photoId":"456-0","tags":[{"name":"bed","coordinates":[0.5032233238220215,0.9107398986816406,0.9119895935058594,0.16600348154703776]},{"name":"vase","coordinates":[0.5894968509674072,0.48608439763387046,0.08060786724090577,0.06303091446558634]},{"name":"book","coordinates":[0.2894494295120239,0.793267567952474,0.02992699444293976,0.12838789621988933]},{"name":"book","coordinates":[0.25330119132995604,0.7935737609863281,0.027565306425094603,0.1309902826944987]},{"name":"book","coordinates":[0.26658899784088136,0.7932210286458333,0.02788826823234558,0.1294298807779948]},{"name":"pottedplant","coordinates":[0.24041731357574464,0.4814720153808594,0.05157272219657898,0.06345552206039429]},{"name":"book","coordinates":[0.32280869483947755,0.7932923634847006,0.02238197475671768,0.1220640738805135]}]}
