{"src":"https://a0.muscache.com/im/pictures/c42c8b7e-6349-4d48-9031-550bc339f332.jpg?aki_policy=xx_large","name":"- COCHIN - COVE - A - HOMESTAY","listingId":16339969,"photoId":"457-15","tags":[{"name":"chair","coordinates":[0.11963808271620009,0.7540353139241537,0.18235045539008246,0.4008215586344401]},{"name":"sofa","coordinates":[0.9132648044162326,0.8540992101033529,0.17386150360107422,0.27659066518147785]},{"name":"pottedplant","coordinates":[0.9404419793023003,0.5735301335652669,0.11060171127319336,0.33599185943603516]},{"name":"chair","coordinates":[0.26374829610188805,0.6884237289428711,0.14033133188883465,0.23605349858601887]},{"name":"tvmonitor","coordinates":[0.6642051272922092,0.5087546030680339,0.13641841676500108,0.14515727361043293]},{"name":"chair","coordinates":[0.3521995332505968,0.5670813242594401,0.03796238899230957,0.112362273534139]},{"name":"remote","coordinates":[0.377036624484592,0.9173449198404948,0.051713254716661244,0.039847179253896074]},{"name":"clock","coordinates":[0.681258561876085,0.33549006779988605,0.029840432273017036,0.046268860499064125]}]}
