{"src":"https://a0.muscache.com/im/pictures/40925432-06d0-4c6c-8614-bef9442fc71a.jpg?aki_policy=xx_large","name":"Cozy apartment in Den Haag city center!","listingId":17307130,"photoId":"463-2","tags":[{"name":"refrigerator","coordinates":[0.13771542443169488,0.8300628662109375,0.2839561038547092,0.32326927185058596]},{"name":"microwave","coordinates":[0.09643515480889214,0.5177797635396322,0.1804428948296441,0.31346184412638345]},{"name":"bottle","coordinates":[0.4134817335340712,0.19894142150878907,0.023418116569519042,0.10238575140635173]},{"name":"bottle","coordinates":[0.3552558686998155,0.1650450865427653,0.01543711158964369,0.13570952415466309]},{"name":"bottle","coordinates":[0.394298341539171,0.1879084904988607,0.018717645274268255,0.10797863801320394]},{"name":"vase","coordinates":[0.7139266120062934,0.5188606262207032,0.017883163028293184,0.087808092435201]},{"name":"bottle","coordinates":[0.4694515652126736,0.23007706006368,0.014575347635481092,0.07537360191345215]}]}
