{"src":"https://a0.muscache.com/im/pictures/09b3c823-3336-404c-9f3e-700add8ef500.jpg?aki_policy=xx_large","name":"Hostel TangaTable【Female dormitory】","listingId":16407402,"photoId":"464-2","tags":[{"name":"chair","coordinates":[0.3586413065592448,0.8115575790405274,0.12204617394341363,0.3307246208190918]},{"name":"diningtable","coordinates":[0.2835322697957357,0.7136182149251302,0.1997213363647461,0.11287151177724203]},{"name":"chair","coordinates":[0.4032549540201823,0.7609428405761719,0.05161165131462945,0.3190177917480469]},{"name":"pottedplant","coordinates":[0.6229544321695963,0.6333417892456055,0.07090248001946343,0.2204382101694743]},{"name":"bottle","coordinates":[0.9668824937608507,0.4277036984761556,0.020908901426527234,0.07944097518920898]},{"name":"bottle","coordinates":[0.9368384467230902,0.4271315256754557,0.01998092730840047,0.07896080017089843]}]}
