{"src":"https://a0.muscache.com/im/pictures/09b3c823-3336-404c-9f3e-700add8ef500.jpg?aki_policy=xx_large","name":"Hostel TangaTable【Female dormitory】","listingId":16407402,"photoId":"464-2","tags":[{"name":"chair","coordinates":[0.297618219587538,0.6461952686309815,0.12204617394341363,0.3307246208190918]},{"name":"diningtable","coordinates":[0.18367160161336266,0.6571824590365092,0.1997213363647461,0.11287151177724203]},{"name":"chair","coordinates":[0.3774491283628676,0.6014339447021484,0.05161165131462945,0.3190177917480469]},{"name":"pottedplant","coordinates":[0.5875031921598646,0.5231226841608683,0.07090248001946343,0.2204382101694743]},{"name":"bottle","coordinates":[0.9564280430475871,0.3879832108815511,0.020908901426527234,0.07944097518920898]},{"name":"bottle","coordinates":[0.92684798306889,0.3876511255900065,0.01998092730840047,0.07896080017089843]}]}
