{"src":"https://a0.muscache.com/im/pictures/8972ee15-a987-4eaa-acd6-bcccc8528c65.jpg?aki_policy=xx_large","name":"Hostel TangaTable【Female dormitory】","listingId":16407402,"photoId":"464-7","tags":[{"name":"person","coordinates":[0.357414984703064,0.2990658442179362,0.258707857131958,0.677135976155599]},{"name":"person","coordinates":[0.5176051378250123,0.25505361557006834,0.24974436759948732,0.6926659266153972]},{"name":"person","coordinates":[0.0011544704437255887,0.3873284339904785,0.16892588138580322,0.5851214726765951]},{"name":"bench","coordinates":[0.11634221076965334,0.7577742497126261,0.43309760093688965,0.22720751762390137]},{"name":"person","coordinates":[0.6819674789905549,0.20707352956136066,0.10914195775985717,0.5565446217854818]},{"name":"chair","coordinates":[-0.001295328140258789,0.7591419061024983,0.09105120897293091,0.24518524805704753]},{"name":"person","coordinates":[0.28375864028930664,0.2983243147532145,0.09247117042541504,0.17027769088745118]},{"name":"bicycle","coordinates":[0.849403116106987,0.3688466429710388,0.09153476357460022,0.08027667204538981]},{"name":"person","coordinates":[0.955815851688385,0.30973341862360637,0.04193370342254639,0.11814703146616617]}]}
