{"src":"https://a0.muscache.com/im/pictures/8972ee15-a987-4eaa-acd6-bcccc8528c65.jpg?aki_policy=xx_large","name":"Hostel TangaTable【Female dormitory】","listingId":16407402,"photoId":"464-7","tags":[{"name":"person","coordinates":[0.486768913269043,0.6376338322957357,0.258707857131958,0.677135976155599]},{"name":"person","coordinates":[0.6424773216247559,0.6013865788777669,0.24974436759948732,0.6926659266153972]},{"name":"person","coordinates":[0.0856174111366272,0.679889170328776,0.16892588138580322,0.5851214726765951]},{"name":"bench","coordinates":[0.33289101123809817,0.8713780085245768,0.43309760093688965,0.22720751762390137]},{"name":"person","coordinates":[0.7365384578704834,0.48534584045410156,0.10914195775985717,0.5565446217854818]},{"name":"chair","coordinates":[0.044230276346206666,0.8817345301310221,0.09105120897293091,0.24518524805704753]},{"name":"person","coordinates":[0.3299942255020142,0.3834631601969401,0.09247117042541504,0.17027769088745118]},{"name":"bicycle","coordinates":[0.8951704978942872,0.4089849789937337,0.09153476357460022,0.08027667204538981]},{"name":"person","coordinates":[0.9767827033996582,0.36880693435668943,0.04193370342254639,0.11814703146616617]}]}
