{"src":"https://a0.muscache.com/im/pictures/cd1bdf81-b9a2-4df9-abfc-371826ea7711.jpg?aki_policy=xx_large","name":"Villa avec piscine privée sans vis à vis","listingId":16424130,"photoId":"466-19","tags":[{"name":"chair","coordinates":[0.6127540058559842,0.40798942248026526,0.3394664552476671,0.22693026860555013]},{"name":"chair","coordinates":[0.20807142257690428,0.404696249961853,0.3349982579549154,0.21002742449442546]},{"name":"bowl","coordinates":[0.3055544323391385,0.6283801356951396,0.3732094234890408,0.0728340228398641]},{"name":"sofa","coordinates":[0.4433610174391005,0.39517218271891275,0.2820328818427192,0.09464524586995443]},{"name":"remote","coordinates":[0.19094139205084906,0.6346964180469512,0.08868076536390516,0.04175815979639689]},{"name":"pottedplant","coordinates":[0.00011902650197347098,0.3512408415476481,0.04743326505025228,0.07494681676228841]}]}
