{"src":"https://a0.muscache.com/im/pictures/cd1bdf81-b9a2-4df9-abfc-371826ea7711.jpg?aki_policy=xx_large","name":"Villa avec piscine privée sans vis à vis","listingId":16424130,"photoId":"466-18","tags":[{"name":"chair","coordinates":[0.7824872334798177,0.5214545567830403,0.3394664552476671,0.22693026860555013]},{"name":"chair","coordinates":[0.375570551554362,0.5097099622090657,0.3349982579549154,0.21002742449442546]},{"name":"bowl","coordinates":[0.49215914408365885,0.6647971471150717,0.3732094234890408,0.0728340228398641]},{"name":"sofa","coordinates":[0.5843774583604601,0.44249480565389,0.2820328818427192,0.09464524586995443]},{"name":"remote","coordinates":[0.23528177473280165,0.6555754979451497,0.08868076536390516,0.04175815979639689]},{"name":"pottedplant","coordinates":[0.02383565902709961,0.38871424992879233,0.04743326505025228,0.07494681676228841]}]}
