{"src":"https://a0.muscache.com/im/pictures/fb94ef9c-7551-4397-a1c0-6b8c7bcc6467.jpg?aki_policy=xx_large","name":"Villa avec piscine privée sans vis à vis","listingId":16424130,"photoId":"466-36","tags":[{"name":"diningtable","coordinates":[0.8108874850802952,0.7294226328531901,0.35715484619140625,0.31732517878214517]},{"name":"chair","coordinates":[0.6672552320692274,0.6034655253092448,0.17555439207288953,0.21030553181966147]},{"name":"refrigerator","coordinates":[0.638510004679362,0.4472408612569173,0.14682000478108723,0.16194807688395182]},{"name":"clock","coordinates":[0.41584896511501734,0.21325618426005047,0.04348265329996745,0.04990710814793905]},{"name":"bowl","coordinates":[0.46385858323838974,0.4749482790629069,0.03986382484436035,0.018578392267227174]}]}
