{"src":"https://a0.muscache.com/im/pictures/cd1bdf81-b9a2-4df9-abfc-371826ea7711.jpg?aki_policy=xx_large","name":"Villa avec piscine privée sans vis à vis","listingId":16424130,"photoId":"466-18","tags":[{"name":"chair","coordinates":[0.44014906883239746,0.5214545567830403,0.19094988107681274,0.22693026860555013]},{"name":"chair","coordinates":[0.2112584352493286,0.5097099622090657,0.1884365200996399,0.21002742449442546]},{"name":"bowl","coordinates":[0.2768395185470581,0.6647971471150717,0.20993030071258545,0.0728340228398641]},{"name":"sofa","coordinates":[0.32871232032775877,0.44249480565389,0.15864349603652955,0.09464524586995443]},{"name":"remote","coordinates":[0.13234599828720092,0.6555754979451497,0.04988293051719665,0.04175815979639689]},{"name":"pottedplant","coordinates":[0.01340755820274353,0.38871424992879233,0.026681211590766907,0.07494681676228841]}]}
