{"src":"https://a0.muscache.com/im/pictures/515c34d9-e633-4233-bec6-6648a07746c4.jpg?aki_policy=xx_large","name":"Villa avec piscine privée sans vis à vis","listingId":16424130,"photoId":"466-31","tags":[{"name":"sink","coordinates":[0.15594359503852,0.6269804159800212,0.619312032063802,0.32137854894002277]},{"name":"pottedplant","coordinates":[0.4601817025078667,0.487174940109253,0.19794451395670573,0.1615740140279134]},{"name":"bottle","coordinates":[0.21141199005974662,0.6438082853953043,0.09770455890231662,0.13008921941121418]},{"name":"bottle","coordinates":[0.39419033262464737,0.5778479099273682,0.10067318810356987,0.12462580998738607]},{"name":"bottle","coordinates":[0.28679111533694795,0.5466787934303283,0.08426659372117784,0.1150068998336792]},{"name":"cup","coordinates":[0.620041569073995,0.5791211048762004,0.07490590943230523,0.07827169100443522]},{"name":"vase","coordinates":[0.4894831736882527,0.5777472774187724,0.07980203098720974,0.07125728130340576]}]}
