{"src":"https://a0.muscache.com/im/pictures/3ddd3541-7787-42b2-9e40-d082c0dc9d20.jpg?aki_policy=xx_large","name":"Villa avec piscine privée sans vis à vis","listingId":16424130,"photoId":"466-22","tags":[{"name":"diningtable","coordinates":[0.5234884474012587,0.8168368021647135,0.9461890326605903,0.3444760004679362]},{"name":"vase","coordinates":[0.6920302073160808,0.6600773493448894,0.2212993409898546,0.35310389200846354]},{"name":"sofa","coordinates":[0.6985529157850477,0.48269351323445636,0.3638637542724609,0.1660118261973063]},{"name":"chair","coordinates":[0.2291300243801541,0.5623557408650716,0.28440064324273,0.19717928568522136]},{"name":"chair","coordinates":[0.5148055606418186,0.658206049601237,0.23189705742730035,0.1512667973836263]},{"name":"chair","coordinates":[0.4091986762152778,0.7172040303548177,0.2841475380791558,0.11038885116577149]},{"name":"chair","coordinates":[0.22485455407036675,0.5137936909993489,0.22478699154324003,0.13363275527954102]},{"name":"chair","coordinates":[0.9060756259494358,0.6246519724527995,0.20102452172173393,0.1160075823465983]},{"name":"chair","coordinates":[0.5195223490397135,0.480843194325765,0.16021430757310656,0.12098572254180909]},{"name":"pottedplant","coordinates":[0.9470943874782987,0.39437592824300133,0.10544185638427735,0.1371916135152181]}]}
