{"src":"https://a0.muscache.com/im/pictures/fb94ef9c-7551-4397-a1c0-6b8c7bcc6467.jpg?aki_policy=xx_large","name":"Villa avec piscine privée sans vis à vis","listingId":16424130,"photoId":"466-36","tags":[{"name":"diningtable","coordinates":[0.632310061984592,0.5707600434621175,0.35715484619140625,0.31732517878214517]},{"name":"chair","coordinates":[0.5794780360327827,0.49831275939941405,0.17555439207288953,0.21030553181966147]},{"name":"refrigerator","coordinates":[0.5651000022888184,0.3662668228149414,0.14682000478108723,0.16194807688395182]},{"name":"clock","coordinates":[0.3941076384650336,0.18830263018608095,0.04348265329996745,0.04990710814793905]},{"name":"bowl","coordinates":[0.44392667081620957,0.4656590829292933,0.03986382484436035,0.018578392267227174]}]}
