{"src":"https://a0.muscache.com/im/pictures/72748346-060e-44a2-9e2e-1bb2100f19fc.jpg?aki_policy=xx_large","name":"Vrijstaand vakantiehuis aan zee voor zes personen","listingId":17374876,"photoId":"467-7","tags":[{"name":"diningtable","coordinates":[0.5557936350504558,0.8302527109781901,0.7357889811197916,0.2855536142985026]},{"name":"chair","coordinates":[0.7477954440646701,0.8812108357747396,0.2212986840142144,0.1886537233988444]},{"name":"chair","coordinates":[0.42804544236924913,0.910938580830892,0.23711869981553818,0.16706631978352865]},{"name":"pottedplant","coordinates":[0.5126283009847005,0.7554101308186849,0.12322492599487304,0.14277283350626627]},{"name":"chair","coordinates":[0.6108902825249566,0.6682672500610352,0.1290481991238064,0.1157965342203776]},{"name":"chair","coordinates":[0.4086527930365668,0.6834061304728191,0.13862451977199977,0.10667287508646647]},{"name":"bowl","coordinates":[0.6691102769639757,0.7523622512817383,0.09862545861138237,0.08703751564025879]},{"name":"pottedplant","coordinates":[0.5333555857340495,0.263971201578776,0.09101272159152561,0.0805654525756836]}]}
