{"src":"https://a0.muscache.com/im/pictures/24895511/0db335e6_original.jpg?aki_policy=xx_large","name":"Ocean View Taro's Accommodation","listingId":1643698,"photoId":"468-18","tags":[{"name":"tvmonitor","coordinates":[0.6681799537117524,0.38795814514160154,0.4313242014326539,0.6937269846598307]},{"name":"chair","coordinates":[0.23416670373484222,0.5988590876261394,0.23472932648426634,0.540624491373698]},{"name":"diningtable","coordinates":[0.15774462916091686,0.8741903940836588,0.3023436523777056,0.23813012440999348]},{"name":"person","coordinates":[0.8418228510192107,0.4567296346028646,0.09264750474019906,0.30401455561319984]},{"name":"person","coordinates":[0.5710882152403511,0.28371286392211914,0.09504532051351704,0.22908425331115723]},{"name":"person","coordinates":[0.7807505982973314,0.3166883150736491,0.07677611986353931,0.24451889991760253]},{"name":"person","coordinates":[0.6574224013115003,0.28583863576253254,0.07328582572671734,0.21681025822957356]},{"name":"remote","coordinates":[0.578660479507128,0.6967927932739257,0.0594066200733848,0.053408511479695636]}]}
