{"src":"https://a0.muscache.com/im/pictures/37272814/25e1059d_original.jpg?aki_policy=xx_large","name":"Ocean View Taro's Accommodation","listingId":1643698,"photoId":"468-31","tags":[{"name":"bed","coordinates":[0.20527504814995662,0.3200735727945963,0.7117224799262153,0.6691393534342448]},{"name":"bed","coordinates":[-0.0047209421793619755,0.29149074554443355,0.6017154269748264,0.6234149932861328]},{"name":"chair","coordinates":[0.724742709265815,0.50567520459493,0.2704281489054362,0.45381110509236655]},{"name":"pottedplant","coordinates":[0.9061910523308648,0.26572031974792476,0.0975084728664822,0.29899911880493163]},{"name":"bottle","coordinates":[0.5864375485314264,0.4102368195851644,0.03138015535142687,0.0776500384012858]}]}
