{"src":"https://a0.muscache.com/im/pictures/075d59b0-05d6-4792-a304-31a4e8e8f8bb.jpg?aki_policy=xx_large","name":"Sleep on the boat near The Hague and beach","listingId":17383294,"photoId":"469-11","tags":[{"name":"umbrella","coordinates":[0.5391460842556424,0.3202529271443685,0.4908485836452908,0.5669960021972656]},{"name":"pottedplant","coordinates":[0.8333602057562934,0.5920498530069987,0.11492083867390951,0.2301653544108073]},{"name":"chair","coordinates":[0.5939023335774739,0.5303767204284668,0.12559964921739367,0.20331021944681804]},{"name":"diningtable","coordinates":[0.5263966454399956,0.5314088503519694,0.1403414832221137,0.17858692804972331]},{"name":"pottedplant","coordinates":[0.2881930669148763,0.648693593343099,0.11830342610677083,0.16792759895324708]},{"name":"chair","coordinates":[0.43193028767903646,0.5204629262288412,0.11019425921969944,0.1661851406097412]},{"name":"chair","coordinates":[0.6694935692681206,0.5277006149291992,0.051851971944173174,0.17712780634562175]},{"name":"chair","coordinates":[0.27954733106825086,0.49163567225138344,0.0683443546295166,0.13261443773905437]},{"name":"pottedplant","coordinates":[0.35218840705023874,0.5416682561238607,0.05081940756903754,0.05873806079228719]},{"name":"pottedplant","coordinates":[0.1727877934773763,0.5429642359415691,0.035266931851704916,0.07442479928334554]}]}
