{"src":"https://a0.muscache.com/im/pictures/1a0d731f-26ff-469c-ae22-cb162e6e35bc.jpg?aki_policy=xx_large","name":"Sleep on the boat near The Hague and beach","listingId":17383294,"photoId":"469-2","tags":[{"name":"diningtable","coordinates":[0.6444259219699435,0.7198970158894856,0.578558603922526,0.49473902384440105]},{"name":"sofa","coordinates":[0.819376966688368,0.7105754216512045,0.3548371209038628,0.5170854250590007]},{"name":"vase","coordinates":[0.6026273515489367,0.6909205118815104,0.06445983780754937,0.2000479539235433]},{"name":"pottedplant","coordinates":[0.44500045776367186,0.4055951436360677,0.05118880801730686,0.11165922482808431]},{"name":"cup","coordinates":[0.5457857767740886,0.711033312479655,0.04701262580023872,0.08634694417317708]},{"name":"clock","coordinates":[0.4704832288953993,0.26526104609171547,0.0323096858130561,0.0440706213315328]}]}
