{"src":"https://a0.muscache.com/im/pictures/ed71918b-0a00-4b04-b919-403ac6d7e5f6.jpg?aki_policy=xx_large","name":"Topfloor apartement close to all amenities","listingId":17391082,"photoId":"470-2","tags":[{"name":"diningtable","coordinates":[0.24912921057807075,0.7284386952718099,0.24996630350748697,0.35135265986124675]},{"name":"chair","coordinates":[0.16898339589436848,0.7759922663370769,0.14562567604912652,0.3474156697591146]},{"name":"sofa","coordinates":[0.7557030571831598,0.5360139846801758,0.27737549675835504,0.16042249997456867]},{"name":"chair","coordinates":[0.0831065919664171,0.6931854883829752,0.07814514372083876,0.32056601842244464]},{"name":"chair","coordinates":[0.5035604688856337,0.6040104548136394,0.12051454120212131,0.18434050877888997]},{"name":"pottedplant","coordinates":[0.36288405524359807,0.5201917330423991,0.08558638360765246,0.1983434836069743]},{"name":"pottedplant","coordinates":[0.14161622789171008,0.5112380981445312,0.08923797607421875,0.12186416784922281]},{"name":"tvmonitor","coordinates":[0.5973572625054253,0.433397102355957,0.06563314861721463,0.06368228594462076]},{"name":"chair","coordinates":[0.26626313527425133,0.5353639602661133,0.04823446803622776,0.08076087633768718]},{"name":"vase","coordinates":[0.14154609044392905,0.5469136555989583,0.025960310300191244,0.05010512669881185]}]}
