{"src":"https://a0.muscache.com/im/pictures/5afed4d5-29af-441b-9299-f3417bee785e.jpg?aki_policy=xx_large","name":"En-suite room on the Berea","listingId":16447771,"photoId":"470-3","tags":[{"name":"bed","coordinates":[0.5894147660997179,0.6699329376220703,0.7075722164577908,0.3141918182373047]},{"name":"bed","coordinates":[0.7802522447374132,0.8923334121704102,0.4157853020562066,0.21239415804545084]},{"name":"sink","coordinates":[0.06311706437004937,0.6870392481486003,0.13942523532443576,0.09738438129425049]},{"name":"vase","coordinates":[0.05971131854587131,0.5867684046427409,0.08426373269822862,0.10873476664225261]},{"name":"tvmonitor","coordinates":[0.9654541863335504,0.6202390034993489,0.06630648507012261,0.12792658805847168]},{"name":"remote","coordinates":[0.09934655295477973,0.717823855082194,0.10832331975301107,0.054219357172648114]}]}
