{"src":"https://a0.muscache.com/im/pictures/5afed4d5-29af-441b-9299-f3417bee785e.jpg?aki_policy=xx_large","name":"En-suite room on the Berea","listingId":16447771,"photoId":"470-3","tags":[{"name":"bed","coordinates":[0.2356286578708225,0.512837028503418,0.7075722164577908,0.3141918182373047]},{"name":"bed","coordinates":[0.5723595937093099,0.7861363331476847,0.4157853020562066,0.21239415804545084]},{"name":"sink","coordinates":[-0.006595553292168516,0.638347057501475,0.13942523532443576,0.09738438129425049]},{"name":"vase","coordinates":[0.017579452196757002,0.5324010213216146,0.08426373269822862,0.10873476664225261]},{"name":"tvmonitor","coordinates":[0.932300943798489,0.5562757094701131,0.06630648507012261,0.12792658805847168]},{"name":"remote","coordinates":[0.045184893078274196,0.69071417649587,0.10832331975301107,0.054219357172648114]}]}
