{"src":"https://a0.muscache.com/im/pictures/1d73692e-806a-46d6-b72b-9cf07027a738.jpg?aki_policy=xx_large","name":"Traveler's Rest","listingId":16476130,"photoId":"472-0","tags":[{"name":"diningtable","coordinates":[0.5661340713500976,0.7626920064290365,1.1244239807128906,0.41698716481526693]},{"name":"person","coordinates":[0.21053152084350585,0.4014850298563639,0.36069478988647463,0.6373998006184896]},{"name":"person","coordinates":[0.7348877906799316,0.39071343739827474,0.27950003147125246,0.47819744745890297]},{"name":"apple","coordinates":[0.7890287876129151,0.8191353480021158,0.12695488929748536,0.17280004819234213]},{"name":"apple","coordinates":[1.0519487380981445,0.7400417327880859,0.12756839990615845,0.15261611938476563]},{"name":"bottle","coordinates":[0.5491454601287842,0.6630205790201823,0.06693001389503479,0.179491917292277]},{"name":"spoon","coordinates":[0.2264711856842041,0.40172316233317057,0.09024760127067566,0.08097863992055257]},{"name":"orange","coordinates":[0.7068644523620605,0.6905561447143554,0.08561692237854004,0.08292073408762614]},{"name":"orange","coordinates":[0.8246569633483887,0.6978443781534831,0.08755499720573426,0.07889800866444906]},{"name":"orange","coordinates":[0.8778799057006836,0.6615435282389323,0.07306321263313294,0.07447543938954672]}]}
