{"src":"https://a0.muscache.com/im/pictures/492fe78e-8450-4822-a41d-2d37c4597851.jpg?aki_policy=xx_large","name":"Beautiful large apartment (106 m2) with sea view.","listingId":17479132,"photoId":"473-5","tags":[{"name":"diningtable","coordinates":[0.5998141394721137,0.7717225392659505,0.3224112616644965,0.4324788729349772]},{"name":"sofa","coordinates":[0.7611994425455729,0.7047219594319661,0.23871381547715928,0.562618637084961]},{"name":"tvmonitor","coordinates":[0.12419356240166558,0.41196759541829425,0.17179368336995443,0.3863202095031738]},{"name":"pottedplant","coordinates":[0.03011258973015679,0.6258220036824544,0.06436894204881456,0.6017141977945963]},{"name":"chair","coordinates":[0.5094397650824652,0.5082428932189942,0.06439197328355577,0.15305557250976562]},{"name":"vase","coordinates":[0.28468729654947916,0.3811384518941244,0.02679289976755778,0.07751100858052572]},{"name":"vase","coordinates":[0.5704886118570963,0.5909509023030599,0.026648481686909992,0.04016208251317342]}]}
