{"src":"https://a0.muscache.com/im/pictures/a9019b9f-1ae8-4211-9642-cfa8a1d95d82.jpg?aki_policy=xx_large","name":"Lovely apartment close to the town with terrace","listingId":17519621,"photoId":"474-0","tags":[{"name":"sofa","coordinates":[0.1494411786397298,0.7670294443766276,0.3041567908393012,0.44572502772013345]},{"name":"pottedplant","coordinates":[0.21597942776150172,0.30750083923339844,0.24677675035264757,0.5214190483093262]},{"name":"chair","coordinates":[0.5016072591145834,0.6116385142008464,0.21399834950764973,0.31942822138468424]},{"name":"tvmonitor","coordinates":[0.8930191040039063,0.3712685267130534,0.10477862887912326,0.2735191663106283]},{"name":"book","coordinates":[0.44749747382269967,0.9751457214355469,0.1056791729397244,0.05605034033457438]}]}
