{"src":"https://a0.muscache.com/im/pictures/6804f878-9290-47ae-b79d-841f67188407.jpg?aki_policy=xx_large","name":"Courtyard Cottage 50m from Patan Durbar Square!","listingId":16534891,"photoId":"477-21","tags":[{"name":"umbrella","coordinates":[0.4894041692753702,0.4285840670267741,0.36703153071918554,0.6068799336751302]},{"name":"pottedplant","coordinates":[0.33887990492976916,0.7423176447550456,0.23960330976426394,0.49171854654947916]},{"name":"bench","coordinates":[0.5920806140434451,0.8686061223347982,0.15738425437581663,0.25223964055379233]},{"name":"person","coordinates":[0.18906126653691202,0.4680940310160319,0.08255021896096472,0.3960268020629883]},{"name":"pottedplant","coordinates":[0.54688108224902,0.5262643178304036,0.07486251139890027,0.2381752649943034]},{"name":"pottedplant","coordinates":[0.3112465250367487,0.45303274790445963,0.05884537646994774,0.14363694190979004]},{"name":"book","coordinates":[0.23825553867459712,0.47348477045694987,0.006858031508814582,0.06162489652633667]},{"name":"book","coordinates":[0.2503318441038763,0.4732248624165853,0.006546572110378784,0.06296625932057699]}]}
