{"src":"https://a0.muscache.com/im/pictures/411dd73f-a960-41db-b25e-5cbf4bb29f7f.jpg?aki_policy=xx_large","name":"Charming boutique flat near the sea in The Hague","listingId":17549369,"photoId":"477-6","tags":[{"name":"sofa","coordinates":[1.514036899142795,0.6323410034179687,0.7576581319173177,0.3214138348897298]},{"name":"chair","coordinates":[0.48248638576931424,0.5954304377237956,0.20309812757703993,0.13001840909322102]},{"name":"chair","coordinates":[0.7203419155544705,0.5767867406209309,0.1687874476114909,0.1103423039118449]},{"name":"pottedplant","coordinates":[0.9712732950846354,0.48928194046020507,0.16983196470472547,0.09930846691131592]},{"name":"vase","coordinates":[0.9730130513509114,0.5476456960042317,0.05215402709113227,0.04727007150650024]}]}
