{"src":"https://a0.muscache.com/im/pictures/6804f878-9290-47ae-b79d-841f67188407.jpg?aki_policy=xx_large","name":"Courtyard Cottage 50m from Patan Durbar Square!","listingId":16534891,"photoId":"477-21","tags":[{"name":"umbrella","coordinates":[0.7315572738647461,0.4285840670267741,0.5486356735229492,0.6068799336751302]},{"name":"pottedplant","coordinates":[0.5065548578898112,0.7423176447550456,0.35815703074137367,0.49171854654947916]},{"name":"bench","coordinates":[0.8850371678670247,0.8686061223347982,0.23525667190551758,0.25223964055379233]},{"name":"person","coordinates":[0.28260720570882164,0.4680940310160319,0.12339537938435872,0.3960268020629883]},{"name":"pottedplant","coordinates":[0.8174732844034831,0.5262643178304036,0.11190385818481445,0.2381752649943034]},{"name":"pottedplant","coordinates":[0.46524871190389,0.45303274790445963,0.08796157836914062,0.14363694190979004]},{"name":"book","coordinates":[0.35614239374796547,0.47348477045694987,0.010251328349113464,0.06162489652633667]},{"name":"book","coordinates":[0.3741939544677734,0.4732248624165853,0.00978576143582662,0.06296625932057699]}]}
