{"src":"https://a0.muscache.com/im/pictures/923e4bd9-39f1-452e-b743-887216dcee46.jpg?aki_policy=xx_large","name":"Courtyard Cottage 50m from Patan Durbar Square!","listingId":16534891,"photoId":"477-10","tags":[{"name":"diningtable","coordinates":[0.13421717749701606,0.5262031873067221,0.5908219655354817,0.448472531636556]},{"name":"bowl","coordinates":[0.3665724966261122,0.6430002768834432,0.15420953962537978,0.11255482037862143]},{"name":"bottle","coordinates":[0.31682503753238256,0.552110743522644,0.06462229092915853,0.1757100264231364]},{"name":"cup","coordinates":[0.2606452676984999,0.6668402830759684,0.07461663352118598,0.09959758122762044]},{"name":"apple","coordinates":[0.4020599418216282,0.6372915665308634,0.09259133868747288,0.05921470324198405]},{"name":"orange","coordinates":[0.4062234481175741,0.5925044814745585,0.06418206426832411,0.0725473165512085]},{"name":"bowl","coordinates":[0.5170176532533434,0.6478395322958629,0.06523981624179416,0.06324058771133423]},{"name":"orange","coordinates":[0.3876860512627495,0.6446378846963247,0.0407403310139974,0.04803692897160848]},{"name":"apple","coordinates":[0.4708578705787658,0.6437356253465017,0.03086328241560194,0.036051952838897706]}]}
