{"src":"https://a0.muscache.com/im/pictures/3c8c4fb3-371c-48cf-9a1e-070d991ec6af.jpg?aki_policy=xx_large","name":"Aptm. op 10 min lopen naar het strand (Kijkduin)","listingId":17554429,"photoId":"478-2","tags":[{"name":"diningtable","coordinates":[0.4997367435031467,0.7670770645141601,0.265732553270128,0.40370480219523114]},{"name":"chair","coordinates":[0.43650241427951386,0.809365717569987,0.15051134957207574,0.33464091618855796]},{"name":"chair","coordinates":[0.5840686374240451,0.7695004781087239,0.1174330923292372,0.39700927734375]},{"name":"tvmonitor","coordinates":[0.07157726817660862,0.8345528920491536,0.13884279463026258,0.30139408111572263]},{"name":"vase","coordinates":[0.5281359354654948,0.5950583775838216,0.02032789389292399,0.0501516064008077]}]}
