{"src":"https://a0.muscache.com/im/pictures/2550f625-bbad-4b3e-9b4b-b4a007be384d.jpg?aki_policy=xx_large","name":"Luxurious City Centre apartment","listingId":17562472,"photoId":"480-1","tags":[{"name":"sofa","coordinates":[0.3467130700802438,0.622032356262207,0.4873791775550895,0.19988346099853516]},{"name":"horse","coordinates":[0.8412304959144645,0.34323612848917645,0.19788552656956276,0.46099522908528645]},{"name":"pottedplant","coordinates":[0.3676895332601704,0.5692700703938802,0.14142802826055068,0.2084451675415039]},{"name":"pottedplant","coordinates":[0.025336701946232016,0.6370022455851237,0.04801823665104257,0.17932143211364746]},{"name":"book","coordinates":[0.292695641020243,0.721033223470052,0.11295079853339056,0.04991243282953898]},{"name":"vase","coordinates":[0.37093373432610394,0.6352265675862631,0.03659832494149454,0.0757668654123942]}]}
