{"src":"https://a0.muscache.com/im/pictures/48588838-f1dd-4b57-9190-9119b462d2ff.jpg?aki_policy=xx_large","name":"Luxurious City Centre apartment","listingId":17562472,"photoId":"480-3","tags":[{"name":"tvmonitor","coordinates":[0.7545216100106484,0.5348172505696615,0.21753014576451668,0.25950806935628257]},{"name":"chair","coordinates":[0.14398577481881303,0.6982056299845377,0.1466061163678123,0.30354525248209635]},{"name":"suitcase","coordinates":[0.6066605059924809,0.8879389444986979,0.21318552921809805,0.19663864771525066]},{"name":"diningtable","coordinates":[0.06083593249155185,0.6916305541992187,0.12032135603988287,0.28741846084594724]},{"name":"book","coordinates":[0.9466101125152121,0.7769233703613281,0.1059076895468424,0.06154376665751139]},{"name":"book","coordinates":[0.9471450826886301,0.8014202753702799,0.10946394239911118,0.054842913150787355]},{"name":"vase","coordinates":[0.9789170648524427,0.6829545338948567,0.042798316860066334,0.08764347235361734]}]}
