{"src":"https://a0.muscache.com/im/pictures/70bb3b05-0b2c-420b-863c-921fb3b39dd3.jpg?aki_policy=xx_large","name":"Luxurious City Centre apartment","listingId":17562472,"photoId":"480-0","tags":[{"name":"chair","coordinates":[0.584009756796549,0.7757851282755533,0.14601223326193608,0.3221172014872233]},{"name":"chair","coordinates":[0.4877104991334536,0.7389753977457683,0.1431455439751934,0.27909539540608724]},{"name":"sofa","coordinates":[0.2860469261031489,0.5660342534383138,0.13678965349688152,0.12586368719736735]},{"name":"pottedplant","coordinates":[0.1821691436130911,0.5158771832784017,0.08547098746054362,0.08647348086039225]},{"name":"vase","coordinates":[0.18497194335258388,0.544476572672526,0.02533891171175515,0.03783101638158162]},{"name":"knife","coordinates":[0.7651396049743567,0.42761090596516926,0.024077257625914086,0.03563877741495768]},{"name":"knife","coordinates":[0.7721990550841011,0.433523686726888,0.018586108349626353,0.03327201207478841]}]}
