{"src":"https://a0.muscache.com/im/pictures/01080ea6-53cd-46c0-9703-8904ad5e21fc.jpg?aki_policy=xx_large","name":"Wuxi style decoration room with e-bicycle/computer","listingId":16588958,"photoId":"483-2","tags":[{"name":"refrigerator","coordinates":[0.271400515238444,0.5399853388468424,0.19992092980278864,0.44609171549479165]},{"name":"chair","coordinates":[0.3400853051079644,0.7033953348795573,0.16983254750569662,0.45037202835083007]},{"name":"bottle","coordinates":[0.5090801239013671,0.3710147857666016,0.02676656511094835,0.13671243985493978]},{"name":"bottle","coordinates":[0.5402135213216146,0.36886638005574546,0.025528960757785372,0.1385846773783366]},{"name":"book","coordinates":[0.5291169908311631,0.10136706034342448,0.03772886064317491,0.09140253067016602]},{"name":"book","coordinates":[0.48938412136501735,0.09277275403340658,0.027419066429138182,0.10523138840993246]},{"name":"book","coordinates":[0.4350864410400391,0.09024835427602132,0.020969896846347386,0.11429557800292969]},{"name":"book","coordinates":[0.45223426818847656,0.09056934515635172,0.018484563297695582,0.11844054063161215]},{"name":"book","coordinates":[0.4697924296061198,0.09107539653778077,0.01826727522744073,0.11622509161631266]}]}
