{"src":"https://a0.muscache.com/im/pictures/01080ea6-53cd-46c0-9703-8904ad5e21fc.jpg?aki_policy=xx_large","name":"Wuxi style decoration room with e-bicycle/computer","listingId":16588958,"photoId":"483-2","tags":[{"name":"refrigerator","coordinates":[0.17144005033704968,0.3169394810994466,0.19992092980278864,0.44609171549479165]},{"name":"chair","coordinates":[0.2551690313551161,0.47820932070414224,0.16983254750569662,0.45037202835083007]},{"name":"bottle","coordinates":[0.495696841345893,0.3026585658391317,0.02676656511094835,0.13671243985493978]},{"name":"bottle","coordinates":[0.5274490409427219,0.29957404136657717,0.025528960757785372,0.1385846773783366]},{"name":"book","coordinates":[0.5102525605095757,0.05566579500834147,0.03772886064317491,0.09140253067016602]},{"name":"book","coordinates":[0.4756745881504483,0.04015705982844035,0.027419066429138182,0.10523138840993246]},{"name":"book","coordinates":[0.42460149261686536,0.03310056527455647,0.020969896846347386,0.11429557800292969]},{"name":"book","coordinates":[0.4429919865396288,0.031349074840545645,0.018484563297695582,0.11844054063161215]},{"name":"book","coordinates":[0.4606587919923994,0.03296285072962444,0.01826727522744073,0.11622509161631266]}]}
