{"src":"https://a0.muscache.com/im/pictures/8d7b367c-3362-4ba4-9dd3-4b067951ff15.jpg?aki_policy=xx_large","name":"Bedroom in Den Haag, 10min from city centre","listingId":17587209,"photoId":"483-2","tags":[{"name":"diningtable","coordinates":[1.708955612607259,0.7547623952229817,0.8732637819421092,0.42509050369262696]},{"name":"chair","coordinates":[1.3978403972562037,0.7427278518676758,0.4265644307039222,0.4400852521260579]},{"name":"chair","coordinates":[2.080676926310297,0.7648691813151042,0.46617310476214635,0.40060418446858725]},{"name":"pottedplant","coordinates":[0.22593125606954428,0.5696957270304362,0.41235379871941674,0.2913777033487956]},{"name":"vase","coordinates":[0.34215818840409035,0.6645161310831705,0.09755647337281859,0.11357988516489664]}]}
