{"src":"https://a0.muscache.com/im/pictures/2624e600-fae2-43dd-94af-a5c4c5c17d6a.jpg?aki_policy=xx_large","name":"Penginapan Keluarga Bandung Selatan","listingId":16604410,"photoId":"484-3","tags":[{"name":"diningtable","coordinates":[-0.010866122775607667,0.515449587504069,0.995157453748915,0.40548299153645834]},{"name":"chair","coordinates":[0.4816693623860677,0.8390672445297241,0.5147881401909722,0.15200530687967936]},{"name":"sofa","coordinates":[0.46160004933675136,0.3724817276000977,0.35637779235839845,0.15790570576985677]},{"name":"chair","coordinates":[0.8686521371205648,0.5042201439539591,0.13005734549628364,0.173434050877889]},{"name":"chair","coordinates":[0.2823234134250217,0.44799286921819054,0.1839972601996528,0.09042809009552003]},{"name":"vase","coordinates":[0.4889772547615899,0.49399422009785965,0.060919629202948675,0.08269166946411133]},{"name":"cup","coordinates":[0.3798881583743625,0.5684302528699239,0.06272319157918295,0.07233100732167562]}]}
