{"src":"https://a0.muscache.com/im/pictures/2624e600-fae2-43dd-94af-a5c4c5c17d6a.jpg?aki_policy=xx_large","name":"Penginapan Keluarga Bandung Selatan","listingId":16604410,"photoId":"484-3","tags":[{"name":"diningtable","coordinates":[0.4867126040988498,0.7181910832722982,0.995157453748915,0.40548299153645834]},{"name":"chair","coordinates":[0.7390634324815538,0.9150698979695638,0.5147881401909722,0.15200530687967936]},{"name":"sofa","coordinates":[0.6397889455159506,0.45143458048502605,0.35637779235839845,0.15790570576985677]},{"name":"chair","coordinates":[0.9336808098687066,0.5909371693929036,0.13005734549628364,0.173434050877889]},{"name":"chair","coordinates":[0.3743220435248481,0.49320691426595054,0.1839972601996528,0.09042809009552003]},{"name":"vase","coordinates":[0.5194370693630642,0.5353400548299153,0.060919629202948675,0.08269166946411133]},{"name":"cup","coordinates":[0.411249754163954,0.6045957565307617,0.06272319157918295,0.07233100732167562]}]}
