{"src":"https://a0.muscache.com/im/pictures/26188264/86b73040_original.jpg?aki_policy=xx_large","name":"Spacious Stylish Beach Apartment","listingId":1760373,"photoId":"485-13","tags":[{"name":"diningtable","coordinates":[0.5687954495447236,0.8058938980102539,0.41589652580080844,0.3732248306274414]},{"name":"chair","coordinates":[0.4398666615280555,0.8044792175292969,0.15055363300944236,0.40909951527913413]},{"name":"chair","coordinates":[0.7157879698094142,0.8162842432657877,0.13793474178818238,0.3539027214050293]},{"name":"chair","coordinates":[0.44861417088621347,0.9129552205403646,0.14482463682808697,0.16675612131754558]},{"name":"teddy-bear","coordinates":[0.2551050729977073,0.8312573750813802,0.08183802682932295,0.19511871337890624]},{"name":"chair","coordinates":[0.7917078944008605,0.7705861409505208,0.04516473698516549,0.33927815755208335]},{"name":"pottedplant","coordinates":[0.8224475420234266,0.5442440032958984,0.059914409865590226,0.20026200612386066]},{"name":"bowl","coordinates":[0.6127022649051417,0.6593947092692057,0.07747894732776371,0.06407501697540283]},{"name":"banana","coordinates":[0.0698524549375489,0.6381000518798828,0.07311377173836274,0.034336896737416585]},{"name":"orange","coordinates":[0.6074256101138734,0.6402494430541992,0.02752306995206151,0.02236823042233785]},{"name":"orange","coordinates":[0.6229240831314108,0.6372521718343099,0.024196868811595423,0.019998333851496377]}]}
