{"src":"https://a0.muscache.com/im/pictures/26188298/9836c582_original.jpg?aki_policy=xx_large","name":"Spacious Stylish Beach Apartment","listingId":1760373,"photoId":"485-15","tags":[{"name":"sink","coordinates":[0.17257848535359985,0.8515190760294596,0.34056169830874045,0.2252489407857259]},{"name":"oven","coordinates":[0.8575592253238005,0.8384038925170898,0.2831393521750587,0.2655048370361328]},{"name":"microwave","coordinates":[0.41552063752281815,0.3636562983194987,0.0969393946365123,0.06584254105885824]},{"name":"chair","coordinates":[0.10824804611099943,0.6362395604451497,0.06249922008275654,0.09607069492340088]},{"name":"chair","coordinates":[0.1628499780477171,0.6247812271118164,0.04853243025353953,0.09708409309387207]},{"name":"bottle","coordinates":[0.7572088546646818,0.6306895573933919,0.0233578211077397,0.12315643628438314]},{"name":"bottle","coordinates":[0.7195100956732441,0.6219704310099284,0.02035159428030128,0.11345872879028321]},{"name":"bottle","coordinates":[0.7788639413464882,0.6518961588541666,0.016652299565300656,0.08738129138946533]},{"name":"bottle","coordinates":[0.801377255329668,0.655817985534668,0.015234111578971853,0.07772099177042643]},{"name":"spoon","coordinates":[0.8770907299906554,0.6291916529337566,0.01751954499139905,0.04975371758143107]}]}
