{"src":"https://a0.muscache.com/im/pictures/ec55add1-0564-4180-a97d-1d9c56660fb3.jpg?aki_policy=xx_large","name":"Stylish STUDIO, walking distance from all hotspots","listingId":17674238,"photoId":"487-0","tags":[{"name":"bed","coordinates":[0.8495948259220567,0.7636007308959961,0.30387184231780295,0.43945357004801433]},{"name":"chair","coordinates":[0.3901883502339208,0.6514183680216471,0.17780027833095816,0.3276183764139811]},{"name":"chair","coordinates":[0.2460193855817928,0.6568494160970052,0.13186213027599247,0.30819161732991535]},{"name":"chair","coordinates":[0.5131390150203261,0.6373285929361979,0.1142102507657783,0.298577086130778]},{"name":"tvmonitor","coordinates":[0.8784736810728561,0.32042175928751626,0.1334846629652866,0.13626203536987305]},{"name":"pottedplant","coordinates":[0.8392032357149346,0.06810118357340494,0.1306832890177882,0.1383707364400228]},{"name":"person","coordinates":[0.8723296232001726,0.3237882932027181,0.07469158394392146,0.10781175295511881]},{"name":"vase","coordinates":[0.39930441213208573,0.4898151079813639,0.0247846758642862,0.04200450976689656]}]}
