{"src":"https://a0.muscache.com/im/pictures/b43bce84-4ed4-4521-b961-12eb5f4f97d6.jpg?aki_policy=xx_large","name":"Spacious, modern, close to beach &amp; city centre","listingId":17676614,"photoId":"488-6","tags":[{"name":"bed","coordinates":[0.19899750946092531,0.6817700703938802,0.3208652442777399,0.22450044949849446]},{"name":"chair","coordinates":[0.8232444727476599,0.8140049616495768,0.25362461703057965,0.20112698872884113]},{"name":"person","coordinates":[0.7556912664690182,0.6648707071940104,0.14265397855904471,0.31729946136474607]},{"name":"person","coordinates":[0.6710160801451589,0.6630534489949544,0.10562668203749634,0.34794222513834633]},{"name":"person","coordinates":[0.16424953323816546,0.5377498626708984,0.11873937359838144,0.3063258488972982]},{"name":"person","coordinates":[0.12787144939166709,0.30961478551228844,0.08104592143280458,0.23965752919514974]},{"name":"vase","coordinates":[0.8530662881788709,0.5886912027994792,0.030593312660729087,0.04423170884450277]}]}
