{"src":"https://a0.muscache.com/im/pictures/0a07fbc6-65e1-4d64-9506-9d60edbec641.jpg?aki_policy=xx_large","name":"Cottage by the sea","listingId":11190489,"photoId":"49-6","tags":[{"name":"person","coordinates":[0.4327267646789551,0.7449170430501302,0.21540625095367433,0.45681546529134115]},{"name":"person","coordinates":[0.1547443985939026,0.7433234532674153,0.17769137620925904,0.4445476214090983]},{"name":"chair","coordinates":[0.49353780746459963,0.8317237218221029,0.1620717763900757,0.3058871587117513]},{"name":"car","coordinates":[0.6993237018585206,0.7506150563557943,0.10034433603286744,0.43421144485473634]},{"name":"person","coordinates":[0.3036233186721802,0.6742861429850261,0.13996070623397827,0.30204664866129555]},{"name":"chair","coordinates":[0.3036470413208008,0.8363927205403646,0.11233867406845092,0.26299548149108887]},{"name":"person","coordinates":[0.18460383415222167,0.635835075378418,0.08979329466819763,0.22635897000630698]},{"name":"wine-glass","coordinates":[0.3924065589904785,0.6690711975097656,0.01752983182668686,0.03610628843307495]}]}
