{"src":"https://a0.muscache.com/im/pictures/0c36343b-b721-4a8a-a0a3-2205d20db759.jpg?aki_policy=xx_large","name":"Apartment with terrace view of the Nieuwe Kerk","listingId":17712357,"photoId":"490-8","tags":[{"name":"diningtable","coordinates":[0.6785068511962891,0.8974097569783529,0.5058531761169434,0.22985140482584634]},{"name":"microwave","coordinates":[0.3256726026535034,0.6933386484781902,0.12838454246520997,0.11103490193684896]},{"name":"vase","coordinates":[0.8230050086975098,0.6312093098958333,0.07109256982803344,0.08773749669392904]},{"name":"bowl","coordinates":[0.759350061416626,0.8207786560058594,0.0749218761920929,0.0729142189025879]},{"name":"cup","coordinates":[0.9193017959594727,0.9565138498942057,0.05886570811271667,0.0770123322804769]},{"name":"cup","coordinates":[0.7670716762542724,0.8918083190917969,0.04646956622600555,0.0857982317606608]},{"name":"cup","coordinates":[0.6958148002624511,0.9140650431315104,0.048424309492111205,0.07975809574127198]},{"name":"cup","coordinates":[0.746647834777832,0.965533701578776,0.0485270082950592,0.07632476488749186]},{"name":"bowl","coordinates":[0.6628992557525635,0.8785738627115885,0.04619131088256836,0.06924755573272705]}]}
