{"src":"https://a0.muscache.com/im/pictures/30a7e5f7-84a2-4c13-a3b4-2cc3d89091ac.jpg?aki_policy=xx_large","name":"Apartment with terrace view of the Nieuwe Kerk","listingId":17712357,"photoId":"490-9","tags":[{"name":"bed","coordinates":[0.13149778842926024,0.4161646525065104,0.23163371086120604,0.3027348518371582]},{"name":"refrigerator","coordinates":[0.7615312576293946,0.7176935195922851,0.16211190223693847,0.26884543100992836]},{"name":"microwave","coordinates":[0.7748021125793457,0.5736485163370768,0.16513127088546753,0.15788370768229168]},{"name":"chair","coordinates":[0.04344214797019959,0.8738556543986002,0.08638322949409485,0.25486462910970054]},{"name":"sink","coordinates":[0.6394871711730957,0.4019637107849121,0.17846295833587647,0.11461979548136393]},{"name":"sink","coordinates":[0.6455719470977783,0.3861301740010579,0.15941905975341797,0.057142241795857744]},{"name":"cup","coordinates":[0.3211327791213989,0.9788436889648438,0.06079416871070862,0.054486350218455]}]}
