{"src":"https://a0.muscache.com/im/pictures/a450ba4e-e1ba-457b-b78f-ef59e05deb72.jpg?aki_policy=xx_large","name":"3 bedroom house close to centre with nice interior","listingId":17715094,"photoId":"491-2","tags":[{"name":"diningtable","coordinates":[0.51182984246148,0.8144041061401367,1.026296657986111,0.3727270762125651]},{"name":"pottedplant","coordinates":[0.7714947170681423,0.5641103108723958,0.33838844299316406,0.2617598215738932]},{"name":"bowl","coordinates":[0.3307110892401801,0.7958485921223958,0.3184386783175998,0.18468359311421711]},{"name":"vase","coordinates":[0.919917721218533,0.7825094858805338,0.14002903832329644,0.16791117986043294]},{"name":"chair","coordinates":[0.7110279083251954,0.6975030263264974,0.25823930104573567,0.08431281248728434]},{"name":"banana","coordinates":[0.20254285600450303,0.7502957661946614,0.16166821585761176,0.11060804526011149]},{"name":"chair","coordinates":[0.3257965087890625,0.4861024538675944,0.13313626183403862,0.13217069307963053]},{"name":"chair","coordinates":[0.09794771406385634,0.6086451212565104,0.1355724334716797,0.04478989044825236]},{"name":"tvmonitor","coordinates":[0.3541566424899631,0.39057820638020835,0.07611436314053005,0.06656059026718139]},{"name":"chair","coordinates":[0.6093761444091796,0.4594747543334961,0.05985202789306641,0.05714176893234253]}]}
