{"src":"https://a0.muscache.com/im/pictures/dc31c3d3-5f5a-44a8-8574-17a6d8054ac7.jpg?aki_policy=xx_large","name":"Grand Appartement De Standing  F7","listingId":16682281,"photoId":"491-2","tags":[{"name":"sofa","coordinates":[0.01047496089228872,0.6110044797261556,0.8622096874095776,0.38721675872802735]},{"name":"pottedplant","coordinates":[0.8317031295211227,0.38186801274617516,0.11195463957609954,0.17847118377685547]},{"name":"pottedplant","coordinates":[0.06343595716688369,0.37800595760345457,0.11524406715675636,0.15165098508199057]},{"name":"tvmonitor","coordinates":[0.39357010170265483,0.4290597319602966,0.18639755249023438,0.06091269652048747]},{"name":"vase","coordinates":[0.10386472631383825,0.4529139916102092,0.04585983841507523,0.081760835647583]}]}
