{"src":"https://a0.muscache.com/im/pictures/dc31c3d3-5f5a-44a8-8574-17a6d8054ac7.jpg?aki_policy=xx_large","name":"Grand Appartement De Standing  F7","listingId":16682281,"photoId":"491-2","tags":[{"name":"sofa","coordinates":[0.4415798045970775,0.8046128590901692,0.8622096874095776,0.38721675872802735]},{"name":"pottedplant","coordinates":[0.8876804493091724,0.4711036046346029,0.11195463957609954,0.17847118377685547]},{"name":"pottedplant","coordinates":[0.12105799074526187,0.45383145014444987,0.11524406715675636,0.15165098508199057]},{"name":"tvmonitor","coordinates":[0.486768877947772,0.45951608022054036,0.18639755249023438,0.06091269652048747]},{"name":"vase","coordinates":[0.12679464552137587,0.49379440943400066,0.04585983841507523,0.081760835647583]}]}
