{"src":"https://a0.muscache.com/im/pictures/3c906eaa-048f-4821-8604-958b320fdd13.jpg?aki_policy=xx_large","name":"A room for those who roam :)","listingId":16712954,"photoId":"496-2","tags":[{"name":"person","coordinates":[0.4312005169098707,0.49009930292765297,0.7993667151657271,0.9716571807861328]},{"name":"diningtable","coordinates":[0.650640793202639,0.7772834777832032,0.6152243606780958,0.3864105224609375]},{"name":"cake","coordinates":[0.5848686728470062,0.8395609537760417,0.3875278217796219,0.2693537712097168]},{"name":"fork","coordinates":[0.7924298276055842,0.8730001449584961,0.2106769852467681,0.17104447682698568]},{"name":"bottle","coordinates":[0.8695260102789658,0.4720671971638997,0.09292888493041043,0.377598508199056]},{"name":"cup","coordinates":[0.9039793592960245,0.6647775014241536,0.11012406890536912,0.22117708524068197]},{"name":"cup","coordinates":[0.7798885268334468,0.6623473485310872,0.10774229770500218,0.2242548147837321]}]}
