{"src":"https://a0.muscache.com/im/pictures/3c906eaa-048f-4821-8604-958b320fdd13.jpg?aki_policy=xx_large","name":"A room for those who roam :)","listingId":16712954,"photoId":"496-2","tags":[{"name":"person","coordinates":[0.3850860171847873,0.49009930292765297,0.713878885904948,0.9716571807861328]},{"name":"diningtable","coordinates":[0.5810583750406901,0.7772834777832032,0.5494295332166884,0.3864105224609375]},{"name":"cake","coordinates":[0.5223202175564237,0.8395609537760417,0.34608387417263453,0.2693537712097168]},{"name":"fork","coordinates":[0.7076838599310981,0.8730001449584961,0.18814625210232205,0.17104447682698568]},{"name":"bottle","coordinates":[0.7765350341796875,0.4720671971638997,0.08299065695868599,0.377598508199056]},{"name":"cup","coordinates":[0.8073037889268663,0.6647775014241536,0.0983469115363227,0.22117708524068197]},{"name":"cup","coordinates":[0.6964837816026476,0.6623473485310872,0.09621985753377278,0.2242548147837321]}]}
