{"src":"https://a0.muscache.com/im/pictures/3c906eaa-048f-4821-8604-958b320fdd13.jpg?aki_policy=xx_large","name":"A room for those who roam :)","listingId":16712954,"photoId":"496-2","tags":[{"name":"person","coordinates":[0.03151715932700716,0.0042707125345865515,0.7993667151657271,0.9716571807861328]},{"name":"diningtable","coordinates":[0.3430286128635911,0.5840782165527344,0.6152243606780958,0.3864105224609375]},{"name":"cake","coordinates":[0.39110476195719523,0.7048840681711832,0.3875278217796219,0.2693537712097168]},{"name":"fork","coordinates":[0.6870913349822002,0.7874779065450033,0.2106769852467681,0.17104447682698568]},{"name":"bottle","coordinates":[0.8230615678137606,0.28326794306437175,0.09292888493041043,0.377598508199056]},{"name":"cup","coordinates":[0.8489173248433399,0.5541889588038126,0.11012406890536912,0.22117708524068197]},{"name":"cup","coordinates":[0.7260173779809457,0.5502199411392212,0.10774229770500218,0.2242548147837321]}]}
