{"src":"https://a0.muscache.com/im/pictures/c83169fd-412b-475c-abbd-4d355c1fffe9.jpg?aki_policy=xx_large","name":"2.BigGroupOK!한국어OK!유후인90분/하카타75분소요","listingId":16717400,"photoId":"498-0","tags":[{"name":"diningtable","coordinates":[0.5065995216369629,0.7965240478515625,0.6183828353881836,0.2729229291280111]},{"name":"chair","coordinates":[0.7848888397216797,0.8378515243530273,0.24467318058013915,0.3561890920003255]},{"name":"chair","coordinates":[0.5633819103240967,0.879375966389974,0.23209161758422853,0.2610349973042806]},{"name":"microwave","coordinates":[0.8760293960571289,0.508974552154541,0.14248888492584227,0.0902863343556722]},{"name":"vase","coordinates":[0.5143679618835449,0.6644954045613607,0.06923038959503174,0.13621493975321453]},{"name":"vase","coordinates":[0.5139505386352539,0.6861457188924154,0.03678871691226959,0.0869690736134847]},{"name":"clock","coordinates":[0.6744396686553955,0.3178541819254557,0.04110345542430878,0.06064124504725139]},{"name":"bottle","coordinates":[0.29824912548065186,0.517301368713379,0.018314149975776673,0.053651209672292074]}]}
