{"src":"https://a0.muscache.com/im/pictures/686181a7-bd76-4a03-a5a2-755b68ff65a7.jpg?aki_policy=xx_large","name":"Large Classic House in The Hague","listingId":17790184,"photoId":"498-4","tags":[{"name":"refrigerator","coordinates":[0.2533288319905599,0.4691825230916341,0.44529190063476565,0.778752326965332]},{"name":"microwave","coordinates":[0.5173091888427734,0.3899022102355957,0.1580352995130751,0.09530018170674642]},{"name":"bottle","coordinates":[0.9164048936631944,0.2534942944844564,0.022398524814181857,0.06584188143412271]},{"name":"book","coordinates":[0.6319878896077474,0.14646232922871907,0.015396507581075032,0.07879161834716797]},{"name":"knife","coordinates":[0.7019411298963759,0.40539995829264325,0.009291277329126994,0.026020383834838866]}]}
