{"src":"https://a0.muscache.com/im/pictures/c83169fd-412b-475c-abbd-4d355c1fffe9.jpg?aki_policy=xx_large","name":"2.BigGroupOK!한국어OK!유후인90분/하카타75분소요","listingId":16717400,"photoId":"498-0","tags":[{"name":"diningtable","coordinates":[0.9006213717990451,0.7965240478515625,1.0993472629123264,0.2729229291280111]},{"name":"chair","coordinates":[1.395357937282986,0.8378515243530273,0.4349745432535807,0.3561890920003255]},{"name":"chair","coordinates":[1.0015678405761719,0.879375966389974,0.4126073201497396,0.2610349973042806]},{"name":"microwave","coordinates":[1.5573855929904514,0.508974552154541,0.2533135732014974,0.0902863343556722]},{"name":"vase","coordinates":[0.9144319322374131,0.6644954045613607,0.12307624816894532,0.13621493975321453]},{"name":"vase","coordinates":[0.9136898464626736,0.6861457188924154,0.06540216339959039,0.0869690736134847]},{"name":"clock","coordinates":[1.1990038553873699,0.3178541819254557,0.07307280964321561,0.06064124504725139]},{"name":"bottle","coordinates":[0.5302206675211588,0.517301368713379,0.0325584888458252,0.053651209672292074]}]}
