{"src":"https://a0.muscache.com/im/pictures/c83169fd-412b-475c-abbd-4d355c1fffe9.jpg?aki_policy=xx_large","name":"2.BigGroupOK!한국어OK!유후인90분/하카타75분소요","listingId":16717400,"photoId":"498-0","tags":[{"name":"diningtable","coordinates":[0.19740810394287106,0.660062583287557,0.6183828353881836,0.2729229291280111]},{"name":"chair","coordinates":[0.6625522494316101,0.6597569783528646,0.24467318058013915,0.3561890920003255]},{"name":"chair","coordinates":[0.44733610153198244,0.7488584677378336,0.23209161758422853,0.2610349973042806]},{"name":"microwave","coordinates":[0.8047849535942078,0.4638313849767049,0.14248888492584227,0.0902863343556722]},{"name":"vase","coordinates":[0.4797527670860291,0.5963879346847534,0.06923038959503174,0.13621493975321453]},{"name":"vase","coordinates":[0.49555618017911907,0.642661182085673,0.03678871691226959,0.0869690736134847]},{"name":"clock","coordinates":[0.6538879409432411,0.28753355940183,0.04110345542430878,0.06064124504725139]},{"name":"bottle","coordinates":[0.28909205049276354,0.4904757638772329,0.018314149975776673,0.053651209672292074]}]}
