{"src":"https://a0.muscache.com/im/pictures/baaa9c7d-56b4-4cbc-80aa-b3af36fe66c8.jpg?aki_policy=xx_large","name":"NEW Listing- Balinese Style Studio Retreat!","listingId":10098424,"photoId":"5-7","tags":[{"name":"oven","coordinates":[-0.0023412498160000905,0.5816758473714193,0.1893993731736305,0.42579867045084635]},{"name":"sink","coordinates":[0.4666713440409924,0.6640466650327047,0.25333953452792435,0.11555189291636149]},{"name":"microwave","coordinates":[0.222264041621121,0.5161440928777059,0.13772869442861893,0.11307937304178874]},{"name":"knife","coordinates":[0.9010108553772612,0.2612298885981242,0.025166593393244615,0.2634169419606527]},{"name":"knife","coordinates":[0.9219220501513058,0.2795051097869873,0.023316140451051934,0.23182865778605144]},{"name":"knife","coordinates":[0.9441924970298069,0.24323458671569825,0.018159576171108333,0.2556682268778483]},{"name":"knife","coordinates":[0.8811232146897352,0.28469566504160565,0.021121443690574844,0.21402204831441243]},{"name":"knife","coordinates":[0.8711519793705431,0.2825032711029053,0.01778945869610847,0.22633339564005533]},{"name":"knife","coordinates":[0.964409629198861,0.28229917685190836,0.016659011894061028,0.16915872891743977]},{"name":"vase","coordinates":[0.44603666823307947,0.24378358523050941,0.03823610027603394,0.06926527023315429]},{"name":"knife","coordinates":[0.9837577903678346,0.28722577095031737,0.013066806247495557,0.1628541628519694]},{"name":"cup","coordinates":[0.5261255052650382,0.6130496283372243,0.04245408531343363,0.04393655061721802]},{"name":"bowl","coordinates":[0.5261255052650382,0.6130496283372243,0.04245408531343363,0.04393655061721802]}]}
