{"src":"https://a0.muscache.com/im/pictures/7717297d-bc75-4ad7-bf43-67f57a0ec103.jpg?aki_policy=xx_large","name":"Gezellig, licht hoekhuis op de B.G.","listingId":10110408,"photoId":"5-7","tags":[{"name":"pottedplant","coordinates":[0.8120692782931858,0.5843679428100585,0.21825201246473525,0.840870475769043]},{"name":"sofa","coordinates":[0.5268009185791016,0.602025858561198,0.27529012891981336,0.1436769485473633]},{"name":"chair","coordinates":[0.5678592258029513,0.7229763031005859,0.07075773345099555,0.1291313330332438]},{"name":"book","coordinates":[0.32080934312608506,0.5775369008382162,0.010656207137637668,0.06413607199986776]},{"name":"book","coordinates":[0.3182436837090386,0.7244141896565756,0.027557622061835395,0.021933937072753908]},{"name":"book","coordinates":[0.33563012017144095,0.45419057210286456,0.011308252811431885,0.04844209353129069]},{"name":"book","coordinates":[0.33171653747558594,0.5683616002400717,0.007865791188346015,0.06833999951680501]},{"name":"book","coordinates":[0.3342814551459418,0.639016850789388,0.008680233028199938,0.061662169297536214]},{"name":"book","coordinates":[0.2998241212632921,0.590686289469401,0.008446100023057726,0.05322639147440592]}]}
