{"src":"https://a0.muscache.com/im/pictures/cd3f2808-112f-4769-8007-f7a38c6e089e.jpg?aki_policy=xx_large","name":"Nice house close to the beach","listingId":17823559,"photoId":"502-2","tags":[{"name":"diningtable","coordinates":[0.2718590259552002,0.6475687662760417,0.3355438232421875,0.5586652755737305]},{"name":"chair","coordinates":[0.10746768712997437,0.6418594360351563,0.16629431247711182,0.6192214965820313]},{"name":"chair","coordinates":[0.33249683380126954,0.43224509557088214,0.09745140671730042,0.20288438796997071]},{"name":"bottle","coordinates":[0.37268264293670655,0.6791184743245443,0.055986332893371585,0.09560956160227457]},{"name":"wine-glass","coordinates":[0.2115008592605591,0.39212446212768554,0.030805110931396484,0.07988235155741373]}]}
