{"src":"https://a0.muscache.com/im/pictures/52a8eee4-d1ab-41e5-9135-a08cf6ee12da.jpg?aki_policy=xx_large","name":"Уютная 2х-комнатная квартира","listingId":16767243,"photoId":"505-9","tags":[{"name":"bed","coordinates":[0.5046129862467448,0.8523821512858073,0.7029440561930339,0.26019808451334636]},{"name":"sofa","coordinates":[0.800913577609592,0.7712834676106771,0.36281984117296007,0.36825135548909504]},{"name":"refrigerator","coordinates":[0.23700716230604385,0.5741177241007487,0.19735936058892145,0.6472815195719401]},{"name":"chair","coordinates":[0.08387300173441568,0.8062548319498698,0.1352782991197374,0.23180411656697592]},{"name":"chair","coordinates":[0.7171361287434895,0.6356561660766602,0.11647083494398329,0.16441265741984049]},{"name":"chair","coordinates":[0.6010359022352431,0.6361050287882487,0.08653527365790473,0.1889361063639323]}]}
