{"src":"https://a0.muscache.com/im/pictures/e24779f0-bfc5-4cdc-96e9-61224124983a.jpg?aki_policy=xx_large","name":"Hai Phong new apartment great view for stay","listingId":16783519,"photoId":"507-0","tags":[{"name":"sofa","coordinates":[0.4960077921549479,0.8393685658772786,0.8944520738389757,0.29099264144897463]},{"name":"pottedplant","coordinates":[0.593937259250217,0.2515653292338053,0.1906516604953342,0.4671118100484212]},{"name":"tvmonitor","coordinates":[0.09594141642252604,0.18729446729024252,0.20222517649332683,0.1905185063680013]},{"name":"chair","coordinates":[0.7748832702636719,0.39345099131266276,0.12982958687676324,0.24786461194356282]},{"name":"cell-phone","coordinates":[0.48647181193033856,0.5931727727254231,0.07125313017103407,0.0321627676486969]},{"name":"remote","coordinates":[0.48647181193033856,0.5931727727254231,0.07125313017103407,0.0321627676486969]}]}
