{"src":"https://a0.muscache.com/im/pictures/e24779f0-bfc5-4cdc-96e9-61224124983a.jpg?aki_policy=xx_large","name":"Hai Phong new apartment great view for stay","listingId":16783519,"photoId":"507-0","tags":[{"name":"sofa","coordinates":[0.04878175523546002,0.6938722451527912,0.8944520738389757,0.29099264144897463]},{"name":"pottedplant","coordinates":[0.4986114290025499,0.0180094242095947,0.1906516604953342,0.4671118100484212]},{"name":"tvmonitor","coordinates":[-0.005171171824137372,0.09203521410624187,0.20222517649332683,0.1905185063680013]},{"name":"chair","coordinates":[0.7099684768252903,0.26951868534088136,0.12982958687676324,0.24786461194356282]},{"name":"cell-phone","coordinates":[0.4508452468448215,0.5770913889010747,0.07125313017103407,0.0321627676486969]},{"name":"remote","coordinates":[0.4508452468448215,0.5770913889010747,0.07125313017103407,0.0321627676486969]}]}
