{"src":"https://a0.muscache.com/im/pictures/c2733d01-286c-435c-9ef0-e5e24cd8542d.jpg?aki_policy=xx_large","name":"Luxury 4-5 bedroom Family Home","listingId":17911809,"photoId":"508-2","tags":[{"name":"pottedplant","coordinates":[0.7869998508029514,0.7205713907877604,0.3760950724283854,0.33709224065144855]},{"name":"sofa","coordinates":[0.116154416402181,0.7636980692545573,0.247316042582194,0.4321330388387044]},{"name":"chair","coordinates":[0.38154856363932294,0.6196210225423177,0.12455086178249783,0.17443946202596028]},{"name":"diningtable","coordinates":[0.1706348843044705,0.5842953364054362,0.13735759523179797,0.1292588233947754]},{"name":"chair","coordinates":[0.12856707043117946,0.5890487670898438,0.07194161944919163,0.15478622118632]},{"name":"vase","coordinates":[0.764070553249783,0.8528000513712565,0.08565629853142633,0.1157516082127889]},{"name":"pottedplant","coordinates":[0.5288311852349176,0.5753843307495117,0.08155493206448025,0.10634479522705079]},{"name":"chair","coordinates":[0.20626345740424262,0.5773977915445964,0.05107391145494249,0.1329545815785726]},{"name":"chair","coordinates":[0.1028745969136556,0.5779724756876627,0.04262485239240858,0.13507661819458008]},{"name":"chair","coordinates":[0.2572081459893121,0.5622425079345703,0.04922698338826497,0.10655460357666016]},{"name":"vase","coordinates":[0.14693270789252388,0.5152102788289388,0.021831819746229383,0.03217610716819763]}]}
