{"src":"https://a0.muscache.com/im/pictures/5a5d35f4-bd0e-47a6-962c-3c06bcaeee63.jpg?aki_policy=xx_large","name":"Timbermans single room - view, fjord and forrest","listingId":16789441,"photoId":"508-2","tags":[{"name":"tvmonitor","coordinates":[0.37339048385620116,0.7769761403401693,0.2432313919067383,0.3490763664245605]},{"name":"bottle","coordinates":[0.8145084381103516,0.38171326319376625,0.06244937181472778,0.16944448153177896]},{"name":"vase","coordinates":[0.8306190490722656,0.2088930606842041,0.06371574401855469,0.13020159403483073]},{"name":"cup","coordinates":[0.26494195461273196,0.419828192392985,0.05735892653465271,0.08059856096903482]},{"name":"spoon","coordinates":[0.4777510643005371,0.16052023569742838,0.030308395624160767,0.13579931259155273]},{"name":"spoon","coordinates":[0.4119237422943115,0.18138634363810222,0.019643427431583406,0.18759883244832357]},{"name":"spoon","coordinates":[0.5124026298522949,0.2054716428120931,0.02503722012042999,0.14300154050191244]}]}
