{"src":"https://a0.muscache.com/im/pictures/b67b8898-7963-466a-a50a-72ac00c2b382.jpg?aki_policy=xx_large","name":"Little Blue House (Single storey Semi D House)","listingId":16794628,"photoId":"509-3","tags":[{"name":"diningtable","coordinates":[0.6413958231608073,0.7997976938883463,0.6493778652615018,0.3779814084370931]},{"name":"chair","coordinates":[0.8569330003526475,0.879945437113444,0.22478112114800347,0.22602192560831705]},{"name":"chair","coordinates":[0.1705402268303765,0.7129027684529622,0.16933104197184246,0.23624545733133953]},{"name":"pottedplant","coordinates":[0.5421413845486112,0.588922627766927,0.11257478925916883,0.17201793988545735]},{"name":"vase","coordinates":[0.5454755571153429,0.6502482096354166,0.041660894287957086,0.11076443990071615]}]}
