{"src":"https://a0.muscache.com/im/pictures/fe67e3bb-6d3b-4949-8272-2bf13aeb5d4a.jpg?aki_policy=xx_large","name":"Hip, Sunny, Apartment Close to Hotspots","listingId":17913640,"photoId":"509-2","tags":[{"name":"diningtable","coordinates":[0.4431271023220486,0.8139417012532552,0.33486646016438804,0.3522851626078288]},{"name":"chair","coordinates":[0.334123780992296,0.8204688390096029,0.1974312252468533,0.36500908533732096]},{"name":"chair","coordinates":[0.5491737789577908,0.8267831166585287,0.18685756259494357,0.3529206275939941]},{"name":"chair","coordinates":[0.25419945187038845,0.8054570515950521,0.11049043867323134,0.3855721155802409]},{"name":"chair","coordinates":[0.6829658084445529,0.8129919687906901,0.11819768481784397,0.3591793378194173]},{"name":"chair","coordinates":[0.7789315965440539,0.8122053146362305,0.09182049433390299,0.2275060017903646]},{"name":"pottedplant","coordinates":[0.4683031294080946,0.5783193588256836,0.08478079901801215,0.17724555333455402]},{"name":"vase","coordinates":[0.45810585021972655,0.6328333536783854,0.03080824481116401,0.0965195099512736]}]}
