{"src":"https://a0.muscache.com/im/pictures/e978f53d-8458-4b41-9e46-7ef2a18232f9.jpg?aki_policy=xx_large","name":"Hip, Sunny, Apartment Close to Hotspots","listingId":17913640,"photoId":"509-9","tags":[{"name":"sofa","coordinates":[0.8623853047688802,0.7768941879272461,0.2638474146525065,0.4336965560913086]},{"name":"sofa","coordinates":[0.14293673833211262,0.8033384958902995,0.2912239498562283,0.38968935012817385]},{"name":"pottedplant","coordinates":[0.4956331888834635,0.7735348383585612,0.2552876790364583,0.3622689882914225]},{"name":"tvmonitor","coordinates":[0.10951336754692925,0.44875939687093097,0.19913101196289062,0.19860828717549642]},{"name":"pottedplant","coordinates":[0.9468897501627604,0.4186625798543294,0.10931966569688585,0.33711382548014324]},{"name":"pottedplant","coordinates":[0.27535135481092665,0.40579201380411783,0.08460092014736599,0.28167076110839845]},{"name":"pottedplant","coordinates":[0.7618323432074653,0.5831961313883464,0.11001366509331598,0.1559778372446696]},{"name":"pottedplant","coordinates":[0.3587370130750868,0.4493890126546224,0.04170007175869412,0.12035314242045085]},{"name":"vase","coordinates":[0.5935275607638889,0.45266679128011067,0.04482142130533854,0.10607345898946126]},{"name":"vase","coordinates":[0.6637219746907552,0.4578765551249186,0.038463126288519965,0.09430166085561116]},{"name":"vase","coordinates":[0.2718556722005208,0.5178003311157227,0.046634483337402347,0.06426951885223389]},{"name":"book","coordinates":[0.26075867546929254,0.627854601542155,0.009073580635918512,0.07636016209920247]}]}
