{"src":"https://a0.muscache.com/im/pictures/d7d9ca2d-0ad2-4a57-bbd5-13ff147c0e65.jpg?aki_policy=xx_large","name":"buin accommodation area of vineyard","listingId":11204807,"photoId":"51-10","tags":[{"name":"sofa","coordinates":[0.024227666854858387,0.5012596130371094,0.43761634826660156,0.4814652760823568]},{"name":"sofa","coordinates":[0.6334812283515929,0.5042204856872559,0.3646638631820679,0.45931466420491535]},{"name":"chair","coordinates":[0.18012046813964844,0.40686149597167964,0.12292494773864746,0.16765670776367186]},{"name":"tvmonitor","coordinates":[0.38936392068862913,0.28313035964965816,0.08343627452850341,0.16013412475585936]},{"name":"clock","coordinates":[0.23384073376655576,0.09241979916890461,0.08037818670272827,0.10678361256917318]},{"name":"remote","coordinates":[0.8994003623723984,0.7014108935991923,0.06938450932502746,0.05408993562062581]}]}
