{"src":"https://a0.muscache.com/im/pictures/d7d9ca2d-0ad2-4a57-bbd5-13ff147c0e65.jpg?aki_policy=xx_large","name":"buin accommodation area of vineyard","listingId":11204807,"photoId":"51-8","tags":[{"name":"sofa","coordinates":[0.24303584098815917,0.7419922510782878,0.43761634826660156,0.4814652760823568]},{"name":"sofa","coordinates":[0.8158131599426269,0.7338778177897135,0.3646638631820679,0.45931466420491535]},{"name":"chair","coordinates":[0.24158294200897218,0.4906898498535156,0.12292494773864746,0.16765670776367186]},{"name":"tvmonitor","coordinates":[0.43108205795288085,0.36319742202758787,0.08343627452850341,0.16013412475585936]},{"name":"clock","coordinates":[0.2740298271179199,0.1458116054534912,0.08037818670272827,0.10678361256917318]},{"name":"remote","coordinates":[0.9340926170349121,0.7284558614095052,0.06938450932502746,0.05408993562062581]}]}
