{"src":"https://a0.muscache.com/im/pictures/fbaf236a-1edd-4927-aecb-531727d02518.jpg?aki_policy=xx_large","name":"SMALL Private room in Suntrust Adriatico Gardens","listingId":16797347,"photoId":"510-2","tags":[{"name":"diningtable","coordinates":[0.06850539313422305,0.6079399744669597,0.720371331108941,0.37665189107259117]},{"name":"sofa","coordinates":[-0.004249657524956596,0.45436460177103677,0.3546786838107639,0.32751067479451496]},{"name":"chair","coordinates":[0.11915340423583987,0.7161704063415528,0.3026121351453993,0.27288468678792316]},{"name":"chair","coordinates":[0.4074612511528863,0.5678462346394857,0.14060355292426216,0.12056261698404948]},{"name":"vase","coordinates":[0.36148783233430654,0.6761497934659322,0.04131546285417345,0.07458131313323975]}]}
