{"src":"https://a0.muscache.com/im/pictures/48fd2038-a794-4658-a99d-5ca5797240f9.jpg?aki_policy=xx_large","name":"Lovely House With Sunny Garden &amp; Free Parking","listingId":17933281,"photoId":"510-11","tags":[{"name":"toilet","coordinates":[0.328696166144477,0.884347407023112,0.39254544576009115,0.24558892250061035]},{"name":"sink","coordinates":[1.5152408175998264,0.6701718012491862,0.4343672858344184,0.12895019054412843]},{"name":"sink","coordinates":[1.243053944905599,0.5340840657552083,0.3153943167792426,0.05922990640004476]},{"name":"cup","coordinates":[1.6043072170681423,0.5783734639485677,0.08136055204603407,0.06729721228281657]},{"name":"bottle","coordinates":[0.29313204023573136,0.5806915283203125,0.030861602889166936,0.06269725958506266]}]}
