{"src":"https://a0.muscache.com/im/pictures/fbaf236a-1edd-4927-aecb-531727d02518.jpg?aki_policy=xx_large","name":"SMALL Private room in Suntrust Adriatico Gardens","listingId":16797347,"photoId":"510-2","tags":[{"name":"diningtable","coordinates":[0.42869105868869356,0.7962659200032552,0.720371331108941,0.37665189107259117]},{"name":"sofa","coordinates":[0.17308968438042535,0.6181199391682942,0.3546786838107639,0.32751067479451496]},{"name":"chair","coordinates":[0.2704594718085395,0.8526127497355144,0.3026121351453993,0.27288468678792316]},{"name":"chair","coordinates":[0.4777630276150174,0.6281275431315104,0.14060355292426216,0.12056261698404948]},{"name":"vase","coordinates":[0.38214556376139325,0.7134404500325521,0.04131546285417345,0.07458131313323975]}]}
