{"src":"https://a0.muscache.com/im/pictures/ad5199f8-ee43-49ca-9c39-c0fdbeefd817.jpg?aki_policy=xx_large","name":"Lovely House With Sunny Garden &amp; Free Parking","listingId":17933281,"photoId":"510-6","tags":[{"name":"diningtable","coordinates":[0.3862036810980903,0.7879081726074219,0.5232496473524305,0.4238489468892415]},{"name":"chair","coordinates":[0.3391471015082465,0.8011521021525065,0.29727018144395617,0.3297490119934082]},{"name":"chair","coordinates":[0.5836575826009115,0.7586177190144857,0.2538511700100369,0.3045784950256348]},{"name":"chair","coordinates":[0.7891849093967014,0.7052913029988607,0.23074849446614584,0.29526472091674805]},{"name":"pottedplant","coordinates":[0.7274596320258246,0.5543167750040691,0.16674903233846028,0.10459670225779215]},{"name":"vase","coordinates":[0.49047669304741753,0.5817675272623698,0.054557487699720596,0.048650038242340085]},{"name":"clock","coordinates":[0.5624889797634549,0.26552087465922036,0.0414975987540351,0.053573636213938396]},{"name":"cup","coordinates":[0.31148206922743055,0.39290650685628253,0.02704470157623291,0.02643012007077535]},{"name":"cup","coordinates":[0.2590698030259874,0.392675526936849,0.023080131742689344,0.024533295631408693]},{"name":"cup","coordinates":[0.42731073167588973,0.4514553387959798,0.024482085969712998,0.0166427751382192]}]}
