{"src":"https://a0.muscache.com/im/pictures/36f2127b-3488-46d2-bbfc-3712ceb2694c.jpg?aki_policy=xx_large","name":"Lovely House With Sunny Garden &amp; Free Parking","listingId":17933281,"photoId":"510-4","tags":[{"name":"diningtable","coordinates":[0.32901759147644044,0.7309033075968424,0.6406673431396485,0.44409058888753256]},{"name":"sofa","coordinates":[0.8629379272460938,0.737868054707845,0.26958408355712893,0.4631703694661458]},{"name":"chair","coordinates":[0.1856235146522522,0.8309350331624349,0.2597358226776123,0.3181316057840983]},{"name":"chair","coordinates":[0.46658992767333984,0.8448919932047526,0.18404276371002198,0.3220236778259277]},{"name":"chair","coordinates":[0.41082301139831545,0.5259318351745605,0.1676698684692383,0.13274797598520915]},{"name":"pottedplant","coordinates":[0.09354552626609802,0.5600300470987956,0.1401324152946472,0.11895376046498617]},{"name":"vase","coordinates":[0.24277129173278808,0.615226682027181,0.05028360486030579,0.08401496410369873]}]}
