{"src":"https://a0.muscache.com/im/pictures/21692648-9922-49ab-88ff-d5b7ad46c513.jpg?aki_policy=xx_large","name":"Luxe nabij het strand van Scheveningen","listingId":17938877,"photoId":"511-0","tags":[{"name":"bed","coordinates":[0.8591103871663411,0.8316410700480144,0.25961243311564125,0.22140687306722004]},{"name":"sink","coordinates":[0.4010871569315592,0.9040414174397786,0.19326998392740885,0.17735201517740887]},{"name":"sofa","coordinates":[0.9037043253580729,0.30029112497965493,0.19136699040730795,0.15362154642740886]},{"name":"toilet","coordinates":[0.2667144457499186,0.8302363713582357,0.07510836124420166,0.1485544204711914]},{"name":"chair","coordinates":[0.7505091985066732,0.2777159372965495,0.08287456035614013,0.12193016211191814]},{"name":"tvmonitor","coordinates":[0.5367632548014323,0.17269721031188964,0.07672617435455323,0.11461513837178548]},{"name":"bottle","coordinates":[0.1969288190205892,0.16413477261861165,0.041239400704701744,0.16346845626831055]},{"name":"chair","coordinates":[0.7571110407511393,0.23688507080078125,0.06917100747426351,0.06976479689280192]},{"name":"wine-glass","coordinates":[0.239417298634847,0.1791368325551351,0.04074496825536092,0.10112848281860351]},{"name":"wine-glass","coordinates":[0.2837827682495117,0.18237829208374023,0.037174534797668454,0.10522504647572835]}]}
