{"src":"https://a0.muscache.com/im/pictures/19feae86-eb99-4405-9394-5b04aa06121e.jpg?aki_policy=xx_large","name":"Scheveningen Beach Apartment 7","listingId":17940841,"photoId":"512-7","tags":[{"name":"person","coordinates":[0.09096830156114366,0.7206456502278645,0.0899770630730523,0.22227428754170736]},{"name":"chair","coordinates":[0.1003432591756185,0.7862934112548828,0.08731926282246907,0.1636865456899007]},{"name":"chair","coordinates":[0.13614017698499892,0.7629269282023112,0.043007424142625594,0.16750957171122233]},{"name":"pottedplant","coordinates":[0.021508297655317518,0.8156557083129883,0.04773477978176541,0.13143561681111654]},{"name":"person","coordinates":[0.37027286953396266,0.6326452255249023,0.03521578047010634,0.1620986302693685]},{"name":"chair","coordinates":[0.3664828830295139,0.6998564402262369,0.027109731568230523,0.09139746824900309]},{"name":"diningtable","coordinates":[0.05094182756212023,0.7204947153727214,0.10008892483181424,0.022640462716420492]},{"name":"motorbike","coordinates":[0.306089358859592,0.6282362620035807,0.027986025810241698,0.0789242426554362]},{"name":"person","coordinates":[0.2447213914659288,0.5888949076334635,0.020199787616729737,0.08463133176167806]},{"name":"person","coordinates":[0.27879738277859156,0.5695042928059896,0.012749388482835558,0.03702888488769531]},{"name":"person","coordinates":[0.21702105204264324,0.5730949401855469,0.009758808877733019,0.04475047588348389]}]}
