{"src":"https://a0.muscache.com/im/pictures/f1333477-8317-4063-b014-5239d1cffc63.jpg?aki_policy=xx_large","name":"Residencial casa blanca","listingId":16813845,"photoId":"513-0","tags":[{"name":"sofa","coordinates":[0.5161830054389106,0.7661439259847005,0.5051376766628689,0.4101666768391927]},{"name":"sofa","coordinates":[0.1613118701510959,0.8093847274780274,0.3252314885457357,0.3914750734965006]},{"name":"refrigerator","coordinates":[0.8570442199707031,0.5189043362935384,0.13006843990749783,0.43950506846110027]},{"name":"tvmonitor","coordinates":[0.7658733791775174,0.31286211013793946,0.06497654385036893,0.1564639091491699]},{"name":"chair","coordinates":[0.5899709913465712,0.5532298405965169,0.10215225219726562,0.09337585767110189]},{"name":"chair","coordinates":[0.6859220292833116,0.5161830266316731,0.07481312221950955,0.0904163678487142]},{"name":"chair","coordinates":[0.5927100711398654,0.4871198654174805,0.06910765965779622,0.04862301349639893]}]}
