{"src":"https://a0.muscache.com/im/pictures/f1333477-8317-4063-b014-5239d1cffc63.jpg?aki_policy=xx_large","name":"Residencial casa blanca","listingId":16813845,"photoId":"513-0","tags":[{"name":"sofa","coordinates":[0.26361416710747615,0.5610605875651041,0.5051376766628689,0.4101666768391927]},{"name":"sofa","coordinates":[-0.0013038741217719363,0.613647190729777,0.3252314885457357,0.3914750734965006]},{"name":"refrigerator","coordinates":[0.7920100000169542,0.29915180206298825,0.13006843990749783,0.43950506846110027]},{"name":"tvmonitor","coordinates":[0.733385107252333,0.2346301555633545,0.06497654385036893,0.1564639091491699]},{"name":"chair","coordinates":[0.5388948652479384,0.506541911760966,0.10215225219726562,0.09337585767110189]},{"name":"chair","coordinates":[0.6485154681735568,0.47097484270731604,0.07481312221950955,0.0904163678487142]},{"name":"chair","coordinates":[0.5581562413109673,0.462808358669281,0.06910765965779622,0.04862301349639893]}]}
