{"src":"https://a0.muscache.com/im/pictures/234d1358-670a-421e-ba3e-ad09f7953bfc.jpg?aki_policy=xx_large","name":"Scheveningen Beach Apartment 6","listingId":17950774,"photoId":"513-0","tags":[{"name":"bed","coordinates":[0.4282744513617622,0.8761711756388346,0.5739008161756728,0.20997654596964518]},{"name":"refrigerator","coordinates":[0.1370132870144314,0.7018164316813151,0.21270243326822916,0.47248770395914713]},{"name":"sofa","coordinates":[0.8281003316243489,0.8254430770874024,0.26796964009602864,0.2882436116536458]},{"name":"sofa","coordinates":[0.8330894470214844,0.6873667399088542,0.20050994025336372,0.13063812255859375]},{"name":"tvmonitor","coordinates":[0.6594851599799262,0.5612052917480469,0.06581414540608724,0.06918413639068603]}]}
