{"src":"https://a0.muscache.com/im/pictures/ec309cc4-1967-4117-a178-1217c5d2763e.jpg?aki_policy=xx_large","name":"Private room in a house near the mountain - 2","listingId":16820133,"photoId":"514-13","tags":[{"name":"bench","coordinates":[0.32987308502197266,0.6398915608723958,0.20337515936957465,0.28110081354777017]},{"name":"chair","coordinates":[0.32987308502197266,0.6398915608723958,0.20337515936957465,0.28110081354777017]},{"name":"chair","coordinates":[0.2157655715942383,0.6270704905192057,0.13672312630547417,0.2819557189941406]},{"name":"pottedplant","coordinates":[0.7583663092719184,0.668581199645996,0.1088695208231608,0.23969955444335939]},{"name":"pottedplant","coordinates":[0.48515366448296443,0.5979601542154948,0.1212481180826823,0.18407222429911296]},{"name":"pottedplant","coordinates":[0.6392753177218967,0.7056042989095052,0.11791129642062717,0.15297025044759113]},{"name":"pottedplant","coordinates":[0.1837896982828776,0.8125258127848307,0.1256164444817437,0.13879807790120444]},{"name":"bowl","coordinates":[0.1837896982828776,0.8125258127848307,0.1256164444817437,0.13879807790120444]},{"name":"chair","coordinates":[0.03488348060184055,0.5975137074788411,0.07202474276224773,0.168558136622111]}]}
