{"src":"https://a0.muscache.com/im/pictures/8802273f-b980-4261-9379-dd21b758efdf.jpg?aki_policy=xx_large","name":"Stijlvol en klassiek appartement","listingId":17955777,"photoId":"516-2","tags":[{"name":"chair","coordinates":[0.3539551205105252,0.598182487487793,0.31676805284288195,0.21346060434977213]},{"name":"pottedplant","coordinates":[0.6145251380072699,0.37150271733601886,0.08784796396891276,0.16142059961954752]},{"name":"vase","coordinates":[0.6169096628824869,0.43125855127970375,0.040466287400987414,0.03402704397837321]},{"name":"book","coordinates":[0.5160858154296875,0.580520757039388,0.010677938991122776,0.057560686270395914]},{"name":"book","coordinates":[0.5158404880099826,0.5235968907674153,0.011163474453820123,0.045967288812001544]},{"name":"book","coordinates":[0.514609866672092,0.4667037010192871,0.009710219833585951,0.045098408063252764]},{"name":"book","coordinates":[0.49427689446343315,0.4656870206197103,0.008527753750483195,0.04270105361938477]}]}
