{"src":"https://a0.muscache.com/im/pictures/7987b464-496a-4a03-b80d-1db5a78a9982.jpg?aki_policy=xx_large","name":"Онежский дворик","listingId":16855695,"photoId":"517-7","tags":[{"name":"diningtable","coordinates":[0.11436702829441303,0.641400671005249,0.5968000438767551,0.3425642331441244]},{"name":"chair","coordinates":[0.4690106967682028,0.67004714012146,0.3293996206869759,0.3099517504374186]},{"name":"chair","coordinates":[0.024005026973539872,0.6848767121632894,0.3437239576985423,0.29334891637166344]},{"name":"chair","coordinates":[0.4650098589392795,0.6173427979151408,0.2239407496221724,0.26134228706359863]},{"name":"microwave","coordinates":[0.026920639966467805,0.3744213024775187,0.18188173053045167,0.0868225892384847]},{"name":"pottedplant","coordinates":[0.338924580542792,0.592648696899414,0.10855388195019988,0.09637540181477865]},{"name":"sink","coordinates":[0.40540404178423,0.5475290715694427,0.1631120036061208,0.01597523291905721]},{"name":"vase","coordinates":[0.3841447324351104,0.6595728039741516,0.0482491390567488,0.030268327395121256]}]}
