{"src":"https://a0.muscache.com/im/pictures/666f6b97-654a-4dc9-81b9-53def07ce08c.jpg?aki_policy=xx_large","name":"Онежский дворик","listingId":16855695,"photoId":"517-8","tags":[{"name":"sofa","coordinates":[0.7240302191840278,0.6490145365397135,0.48795492384168837,0.34214499791463215]},{"name":"chair","coordinates":[0.1803221172756619,0.8143313090006511,0.17257781558566623,0.3313292503356934]},{"name":"chair","coordinates":[0.281745974222819,0.8325960159301757,0.1599007288614909,0.27875118255615233]},{"name":"diningtable","coordinates":[0.18497373792860244,0.7117848078409831,0.18898980882432725,0.19851582845052082]},{"name":"microwave","coordinates":[0.08226168950398763,0.41801668802897135,0.06733945740593804,0.08472960789998372]},{"name":"chair","coordinates":[0.1279685762193468,0.6318974177042643,0.05338558620876736,0.10337095260620117]},{"name":"sink","coordinates":[0.23888238271077475,0.4950819651285807,0.09760910669962565,0.030016849438349407]}]}
