{"src":"https://a0.muscache.com/im/pictures/7987b464-496a-4a03-b80d-1db5a78a9982.jpg?aki_policy=xx_large","name":"Онежский дворик","listingId":16855695,"photoId":"517-7","tags":[{"name":"diningtable","coordinates":[0.4127670502327906,0.8126827875773112,0.5968000438767551,0.3425642331441244]},{"name":"chair","coordinates":[0.6337105071116907,0.8250230153401693,0.3293996206869759,0.3099517504374186]},{"name":"chair","coordinates":[0.19586700582281102,0.8315511703491211,0.3437239576985423,0.29334891637166344]},{"name":"chair","coordinates":[0.5769802337503657,0.7480139414469401,0.2239407496221724,0.26134228706359863]},{"name":"microwave","coordinates":[0.11786150523169364,0.41783259709676107,0.18188173053045167,0.0868225892384847]},{"name":"pottedplant","coordinates":[0.39320152151789195,0.6408363978068033,0.10855388195019988,0.09637540181477865]},{"name":"sink","coordinates":[0.4869600435872904,0.5555166880289714,0.1631120036061208,0.01597523291905721]},{"name":"vase","coordinates":[0.40826930196348477,0.6747069676717122,0.0482491390567488,0.030268327395121256]}]}
