{"src":"https://a0.muscache.com/im/pictures/666f6b97-654a-4dc9-81b9-53def07ce08c.jpg?aki_policy=xx_large","name":"Онежский дворик","listingId":16855695,"photoId":"517-8","tags":[{"name":"sofa","coordinates":[1.6265265454368174,0.6490145365397135,1.0961857883495028,0.34214499791463215]},{"name":"chair","coordinates":[0.4050918079203637,0.8143313090006511,0.3876943127041488,0.3313292503356934]},{"name":"chair","coordinates":[0.6329394740731036,0.8325960159301757,0.3592153659290903,0.27875118255615233]},{"name":"diningtable","coordinates":[0.4155416265478744,0.7117848078409831,0.4245636890905324,0.19851582845052082]},{"name":"microwave","coordinates":[0.18480005130380997,0.41801668802897135,0.15127740821302774,0.08472960789998372]},{"name":"chair","coordinates":[0.28748010882349356,0.6318974177042643,0.11993017806649765,0.10337095260620117]},{"name":"sink","coordinates":[0.5366468503955002,0.4950819651285807,0.21927786840477526,0.030016849438349407]}]}
