{"src":"https://a0.muscache.com/im/pictures/49b47dc6-9a2d-428b-b7fc-5a14c946e731.jpg?aki_policy=xx_large","name":"Excelente Apartamento Ed Belas Aguas Maraponga","listingId":16878813,"photoId":"521-3","tags":[{"name":"person","coordinates":[0.5509750790066189,0.6983604431152344,0.2925678888956706,0.589526112874349]},{"name":"refrigerator","coordinates":[0.09467097388373481,0.6169022878011068,0.18630807664659288,0.7196240743001302]},{"name":"laptop","coordinates":[0.9058096143934462,0.712321917215983,0.18847228156195747,0.20616089502970378]},{"name":"microwave","coordinates":[0.2642435709635417,0.27382291158040367,0.12647911707560222,0.1325027624766032]},{"name":"chair","coordinates":[0.7643832736545139,0.6684087753295899,0.07118106418185764,0.09507784048716227]}]}
