{"src":"https://a0.muscache.com/im/pictures/1ada6887-8674-4172-9fe9-c1f8aa000c29.jpg?aki_policy=xx_large","name":"Familiehuis, vlakbij het strand (DH Vogelwijk)","listingId":18019851,"photoId":"522-2","tags":[{"name":"diningtable","coordinates":[0.3875502268473307,0.8177690505981445,0.7534046596950955,0.33433335622151694]},{"name":"chair","coordinates":[0.6498925103081598,0.8355548858642579,0.2125763151380751,0.31781018575032555]},{"name":"chair","coordinates":[0.5152822706434462,0.9231787363688151,0.3586311340332031,0.14300498962402344]},{"name":"chair","coordinates":[1.125299072265625,0.8236968994140625,0.16917489369710287,0.21927266120910643]},{"name":"microwave","coordinates":[1.168139902750651,0.43210268020629883,0.1066492822435167,0.06046032905578613]},{"name":"bottle","coordinates":[1.480794949001736,0.4946629842122396,0.05406612290276421,0.11280113855997721]}]}
