{"src":"https://a0.muscache.com/im/pictures/64ba8052-ff68-44f6-a403-cdb69ff6e8b3.jpg?aki_policy=xx_large","name":"Suites Santa Fe-Las Aguilas. Suite Miami.","listingId":16894567,"photoId":"523-4","tags":[{"name":"umbrella","coordinates":[0.2699236234029134,0.3379380544026693,0.42403729756673175,0.19651147524515789]},{"name":"diningtable","coordinates":[0.2891469637552897,0.5904392878214518,0.2847725868225098,0.24582853317260742]},{"name":"chair","coordinates":[0.4056234359741211,0.5868068695068359,0.19054328600565593,0.29909416834513347]},{"name":"chair","coordinates":[0.14895203908284504,0.5898455937703451,0.15072463353474935,0.25572026570638023]},{"name":"chair","coordinates":[0.26269164085388186,0.5911412556966146,0.13519744873046874,0.23173615137736003]},{"name":"pottedplant","coordinates":[0.2973841985066732,0.4378660202026367,0.07337650458017984,0.07095236778259277]}]}
