{"src":"https://a0.muscache.com/im/pictures/307d7ac6-c16e-4fa1-8451-27a71ebfbf75.jpg?aki_policy=xx_large","name":"bedroom,tv,cv,wifi,bathroom 33 euro excl","listingId":1804265,"photoId":"523-6","tags":[{"name":"book","coordinates":[0.20867337120903862,0.3699105898539225,0.35161457061767576,0.845294698079427]},{"name":"bed","coordinates":[0.8198924594455295,0.7577319463094075,0.37775175306532116,0.5107188860575358]},{"name":"sofa","coordinates":[0.47642822265625,0.6654878616333008,0.22540696461995444,0.26376202901204426]},{"name":"chair","coordinates":[0.1600813759697808,0.8775938034057618,0.1485091739230686,0.27249917984008787]},{"name":"chair","coordinates":[0.9401091681586371,0.5863850911458334,0.12287528779771593,0.16489620208740235]},{"name":"vase","coordinates":[0.6445287492540147,0.5698018391927083,0.032871301968892416,0.05362495581309001]},{"name":"bottle","coordinates":[0.08781679471333821,0.40840603510538737,0.01926361057493422,0.08064098358154297]},{"name":"vase","coordinates":[0.5083872477213541,0.41120675404866536,0.02392889393700494,0.05377725760142008]},{"name":"vase","coordinates":[0.3971708509657118,0.4176065762837728,0.020915265878041586,0.05724730094273885]},{"name":"book","coordinates":[0.20008826785617403,0.554485003153483,0.013581372631920708,0.04757992426554362]},{"name":"book","coordinates":[0.18532293107774522,0.5542102813720703,0.011124126116434733,0.05211049715677897]},{"name":"book","coordinates":[0.31733262803819445,0.07958338260650635,0.008820863564809163,0.03983482519785563]},{"name":"book","coordinates":[0.22088947296142578,0.13383350372314454,0.006816779242621528,0.040126391251881915]}]}
