{"src":"https://a0.muscache.com/im/pictures/64ba8052-ff68-44f6-a403-cdb69ff6e8b3.jpg?aki_policy=xx_large","name":"Suites Santa Fe-Las Aguilas. Suite Miami.","listingId":16894567,"photoId":"523-4","tags":[{"name":"umbrella","coordinates":[0.4798642193829572,0.3379380544026693,0.7538440845630787,0.19651147524515789]},{"name":"diningtable","coordinates":[0.5140390466760706,0.5904392878214518,0.5062623765733507,0.24582853317260742]},{"name":"chair","coordinates":[0.7211083306206597,0.5868068695068359,0.33874361956561055,0.29909416834513347]},{"name":"chair","coordinates":[0.264803625036169,0.5898455937703451,0.26795490406177663,0.25572026570638023]},{"name":"chair","coordinates":[0.46700736151801214,0.5911412556966146,0.24035101996527777,0.23173615137736003]},{"name":"pottedplant","coordinates":[0.528683019567419,0.4378660202026367,0.13044711925365307,0.07095236778259277]}]}
