{"src":"https://a0.muscache.com/im/pictures/788d6450-bb8c-462e-99bf-caf3c3b3167b.jpg?aki_policy=xx_large","name":"bedroom,tv,cv,wifi,bathroom 33 euro excl","listingId":1804265,"photoId":"523-5","tags":[{"name":"sofa","coordinates":[0.3266550699869792,0.5325620651245118,0.6640442742241753,0.4275460879007975]},{"name":"pottedplant","coordinates":[0.575344975789388,0.5381298065185547,0.24364162021213107,0.3918596903483073]},{"name":"chair","coordinates":[0.8783134460449219,0.6423655192057292,0.22523799472384984,0.41620124181111656]},{"name":"vase","coordinates":[0.5487766689724393,0.6828860600789388,0.07663138177659777,0.12903493245442707]},{"name":"vase","coordinates":[0.7864037407769098,0.17808467547098797,0.057569058736165364,0.12248716354370118]},{"name":"bottle","coordinates":[0.4141876220703125,0.14642707506815592,0.0182940231429206,0.06850223541259766]},{"name":"book","coordinates":[0.5883985307481554,0.053078993161519365,0.011404984527164035,0.06913822491963705]},{"name":"book","coordinates":[0.5686043633355035,0.05757132768630981,0.013413221306271024,0.05871003071467082]},{"name":"book","coordinates":[0.5300832960340712,0.26107951800028484,0.009273703893025715,0.05992867151896159]},{"name":"book","coordinates":[0.41435572306315105,0.2924438794453939,0.00964367323451572,0.04842901627222697]},{"name":"book","coordinates":[0.47133941650390626,0.30406951904296875,0.009465006324979994,0.039874311288197836]}]}
