{"src":"https://a0.muscache.com/im/pictures/83cf5d79-05c8-485c-8184-106f9140af1e.jpg?aki_policy=xx_large","name":"Rodrigo's home","listingId":16899579,"photoId":"524-0","tags":[{"name":"diningtable","coordinates":[0.5704384803771974,0.5810771147410075,0.4165903091430664,0.39142001469930016]},{"name":"sofa","coordinates":[-0.010487675666809082,0.3614937464396159,0.2713634490966797,0.546459706624349]},{"name":"chair","coordinates":[0.5907810807228089,0.5311868985493978,0.1639312505722046,0.4088352839152018]},{"name":"tvmonitor","coordinates":[0.5354280591011048,0.33657492796579996,0.1444852590560913,0.18727939923604328]},{"name":"pottedplant","coordinates":[0.8249020099639892,0.5301815430323282,0.08848333358764648,0.17479532559712727]},{"name":"chair","coordinates":[0.7641515880823135,0.5173564831415812,0.09362084269523621,0.0987241268157959]},{"name":"vase","coordinates":[0.838920284807682,0.6382686257362366,0.04087910354137421,0.0726237694422404]}]}
