{"src":"https://a0.muscache.com/im/pictures/83cf5d79-05c8-485c-8184-106f9140af1e.jpg?aki_policy=xx_large","name":"Rodrigo's home","listingId":16899579,"photoId":"524-0","tags":[{"name":"diningtable","coordinates":[0.7787336349487305,0.7767871220906576,0.4165903091430664,0.39142001469930016]},{"name":"sofa","coordinates":[0.12519404888153077,0.6347235997517904,0.2713634490966797,0.546459706624349]},{"name":"chair","coordinates":[0.6727467060089112,0.7356045405069987,0.1639312505722046,0.4088352839152018]},{"name":"tvmonitor","coordinates":[0.6076706886291504,0.4302146275838216,0.1444852590560913,0.18727939923604328]},{"name":"pottedplant","coordinates":[0.8691436767578125,0.6175792058308919,0.08848333358764648,0.17479532559712727]},{"name":"chair","coordinates":[0.8109620094299317,0.5667185465494792,0.09362084269523621,0.0987241268157959]},{"name":"vase","coordinates":[0.8593598365783691,0.6745805104573568,0.04087910354137421,0.0726237694422404]}]}
