{"src":"https://a0.muscache.com/im/pictures/3f2fb4fc-4079-4750-8e12-8dc80069510d.jpg?aki_policy=xx_large","name":"Bright &amp; sunny family apartment close to the beach","listingId":18082492,"photoId":"527-2","tags":[{"name":"diningtable","coordinates":[0.5394777297973633,0.829822858174642,0.8986092567443847,0.19051899909973144]},{"name":"chair","coordinates":[0.18806657791137696,0.861993153889974,0.2477017879486084,0.27879435221354165]},{"name":"chair","coordinates":[0.5951233386993409,0.9189218521118164,0.3052600622177124,0.14541184107462565]},{"name":"chair","coordinates":[0.880300235748291,0.9302825291951498,0.26313138008117676,0.1384052276611328]},{"name":"pottedplant","coordinates":[0.9738994598388672,0.6010887781778972,0.07017350792884827,0.20090022087097167]},{"name":"chair","coordinates":[0.5547151565551758,0.7531107584635417,0.1596174120903015,0.02960466146469116]},{"name":"bottle","coordinates":[0.6562869071960449,0.7604116439819336,0.04351397752761841,0.09193526109059652]},{"name":"bottle","coordinates":[0.685122299194336,0.7604347229003906,0.0328413724899292,0.09599408308664957]},{"name":"bottle","coordinates":[0.7164974212646484,0.7616137186686198,0.03470805287361145,0.08966555595397949]},{"name":"bowl","coordinates":[0.6766879558563232,0.6187835057576497,0.08003076910972595,0.03362384637196859]}]}
