{"src":"https://a0.muscache.com/im/pictures/8d46ca16-4726-4d00-8f0f-0e9294e83507.jpg?aki_policy=xx_large","name":"Schönes DG-App. + eig. DU-Bad für 1 Pers.","listingId":16923262,"photoId":"528-5","tags":[{"name":"bed","coordinates":[0.35100648668077256,0.7586057662963868,0.6856400383843316,0.47731405893961587]},{"name":"sofa","coordinates":[0.8170436435275608,0.5327212651570638,0.255528810289171,0.2742711385091146]},{"name":"diningtable","coordinates":[0.6633825937906901,0.573701540629069,0.22100431654188368,0.24227134386698404]},{"name":"chair","coordinates":[0.07398926417032878,0.507459290822347,0.14443963368733723,0.23583564758300782]},{"name":"sofa","coordinates":[0.07398926417032878,0.507459290822347,0.14443963368733723,0.23583564758300782]},{"name":"chair","coordinates":[0.600975079006619,0.5830926259358724,0.12891386879814995,0.2073188304901123]},{"name":"book","coordinates":[0.49363733927408854,0.23064014116923015,0.11170250574747721,0.06703153451283773]},{"name":"book","coordinates":[0.47084092034233943,0.3246667226155599,0.012651489840613471,0.07321982383728028]},{"name":"book","coordinates":[0.49023912217881943,0.2333936055501302,0.00961200992266337,0.05771848758061727]}]}
