{"src":"https://a0.muscache.com/im/pictures/8d46ca16-4726-4d00-8f0f-0e9294e83507.jpg?aki_policy=xx_large","name":"Schönes DG-App. + eig. DU-Bad für 1 Pers.","listingId":16923262,"photoId":"528-5","tags":[{"name":"bed","coordinates":[0.008186467488606741,0.5199487368265788,0.6856400383843316,0.47731405893961587]},{"name":"sofa","coordinates":[0.6892792383829752,0.3955856959025065,0.255528810289171,0.2742711385091146]},{"name":"diningtable","coordinates":[0.5528804355197483,0.45256586869557697,0.22100431654188368,0.24227134386698404]},{"name":"chair","coordinates":[0.0017694473266601646,0.3895414670308431,0.14443963368733723,0.23583564758300782]},{"name":"sofa","coordinates":[0.0017694473266601646,0.3895414670308431,0.14443963368733723,0.23583564758300782]},{"name":"chair","coordinates":[0.536518144607544,0.47943321069081624,0.12891386879814995,0.2073188304901123]},{"name":"book","coordinates":[0.43778608640034994,0.1971243739128113,0.11170250574747721,0.06703153451283773]},{"name":"book","coordinates":[0.4645151754220327,0.28805681069691974,0.012651489840613471,0.07321982383728028]},{"name":"book","coordinates":[0.4854331172174877,0.20453436175982156,0.00961200992266337,0.05771848758061727]}]}
