{"src":"https://a0.muscache.com/im/pictures/2c14622d-3b23-49c6-b3dd-a94038048f6f.jpg?aki_policy=xx_large","name":"Fill your GROWLER! - Downtown - Right off of I-10!","listingId":16929032,"photoId":"529-14","tags":[{"name":"chair","coordinates":[0.7132572650909423,0.6297452926635743,0.4457601547241211,0.6461169560750325]},{"name":"chair","coordinates":[0.10909378528594971,0.8199220021565755,0.2241978406906128,0.3262300173441569]},{"name":"bottle","coordinates":[0.3924956083297729,0.5065233866373698,0.058863842487335206,0.19727621078491211]},{"name":"car","coordinates":[0.4371938228607178,0.373534361521403,0.11900579929351807,0.0773301362991333]},{"name":"wine-glass","coordinates":[0.4346759796142578,0.5626399993896485,0.04881047904491424,0.10353982448577881]}]}
