{"src":"https://a0.muscache.com/im/pictures/2c14622d-3b23-49c6-b3dd-a94038048f6f.jpg?aki_policy=xx_large","name":"Fill your GROWLER! - Downtown - Right off of I-10!","listingId":16929032,"photoId":"529-14","tags":[{"name":"chair","coordinates":[1.2680129157172308,0.6297452926635743,0.7924624972873264,0.6461169560750325]},{"name":"chair","coordinates":[0.1939445071750217,0.8199220021565755,0.39857393900553384,0.3262300173441569]},{"name":"bottle","coordinates":[0.6977699703640408,0.5065233866373698,0.10464683108859592,0.19727621078491211]},{"name":"car","coordinates":[0.7772334628634983,0.373534361521403,0.21156586541069877,0.0773301362991333]},{"name":"wine-glass","coordinates":[0.7727572970920139,0.5626399993896485,0.08677418496873644,0.10353982448577881]}]}
