{"src":"https://a0.muscache.com/im/pictures/53118d99-07a0-4a2d-a27a-f2181ed2d432.jpg?aki_policy=xx_large","name":"Luxurious etage with all comforts, with 2 bedrooms","listingId":11270594,"photoId":"53-8","tags":[{"name":"diningtable","coordinates":[0.5008640766143799,0.4980950355529785,0.9233206748962403,0.9603140513102214]},{"name":"fork","coordinates":[0.1117945671081543,0.3958933194478353,0.21897919178009034,0.6474634170532226]},{"name":"cup","coordinates":[0.905983829498291,0.11450141270955404,0.182425856590271,0.20554157892862956]},{"name":"carrot","coordinates":[0.6781950473785401,0.7484843571980794,0.09063734412193299,0.1752420425415039]},{"name":"carrot","coordinates":[0.8107699394226074,0.45667250951131183,0.10912168025970459,0.096000337600708]}]}
