{"src":"https://a0.muscache.com/im/pictures/ea51f15c-8853-47b5-a566-f1fe7754a532.jpg?aki_policy=xx_large","name":"Beautiful and bright apartment for up to 4 people","listingId":16982897,"photoId":"533-4","tags":[{"name":"sofa","coordinates":[-0.024051454332139732,0.5393381595611573,0.431085205078125,0.45181442896525065]},{"name":"sofa","coordinates":[0.4645665910508897,0.6011689821879069,0.268548838297526,0.39701175689697266]},{"name":"chair","coordinates":[0.4645665910508897,0.6011689821879069,0.268548838297526,0.39701175689697266]},{"name":"chair","coordinates":[0.3183442327711317,0.521456241607666,0.15310221778021918,0.2306692123413086]},{"name":"tvmonitor","coordinates":[0.5692906379699707,0.5061412731806437,0.1065739737616645,0.11154341697692871]},{"name":"vase","coordinates":[0.9087444119983249,0.22177294095357258,0.06316269238789876,0.1645082155863444]},{"name":"vase","coordinates":[0.7914545642005072,0.2945467909177144,0.06768494711981879,0.10260703563690185]},{"name":"vase","coordinates":[0.7094411810239156,0.3730154315630595,0.03281661934322781,0.038163002332051596]}]}
