{"src":"https://a0.muscache.com/im/pictures/ea51f15c-8853-47b5-a566-f1fe7754a532.jpg?aki_policy=xx_large","name":"Beautiful and bright apartment for up to 4 people","listingId":16982897,"photoId":"533-4","tags":[{"name":"sofa","coordinates":[0.19149114820692276,0.7652453740437826,0.431085205078125,0.45181442896525065]},{"name":"sofa","coordinates":[0.5988410101996527,0.7996748606363933,0.268548838297526,0.39701175689697266]},{"name":"chair","coordinates":[0.5988410101996527,0.7996748606363933,0.268548838297526,0.39701175689697266]},{"name":"chair","coordinates":[0.3948953416612413,0.6367908477783203,0.15310221778021918,0.2306692123413086]},{"name":"tvmonitor","coordinates":[0.6225776248508029,0.5619129816691081,0.1065739737616645,0.11154341697692871]},{"name":"vase","coordinates":[0.9403257581922743,0.3040270487467448,0.06316269238789876,0.1645082155863444]},{"name":"vase","coordinates":[0.8252970377604166,0.34585030873616535,0.06768494711981879,0.10260703563690185]},{"name":"vase","coordinates":[0.7258494906955295,0.3920969327290853,0.03281661934322781,0.038163002332051596]}]}
