{"src":"https://a0.muscache.com/im/pictures/9f40dd5f-3d68-4ddb-a6a6-28e4e703373a.jpg?aki_policy=xx_large","name":"Confortable Apto/tipo Suite ¡¡ Turismo Relax...","listingId":16983654,"photoId":"534-4","tags":[{"name":"sofa","coordinates":[0.7290445963541666,0.642605209350586,0.523271730211046,0.46557623545328775]},{"name":"sofa","coordinates":[0.9100748697916666,0.7058528264363607,0.17494018342759873,0.5240053494771322]},{"name":"chair","coordinates":[0.2439181645711263,0.6995016098022461,0.12121349970499674,0.34779237111409506]},{"name":"tvmonitor","coordinates":[0.16886600918240016,0.3393134435017904,0.18754810757107204,0.20178461074829102]},{"name":"vase","coordinates":[0.698449452718099,0.6566197077433268,0.08419623904758029,0.22759176890055338]}]}
