{"src":"https://a0.muscache.com/im/pictures/9f40dd5f-3d68-4ddb-a6a6-28e4e703373a.jpg?aki_policy=xx_large","name":"Confortable Apto/tipo Suite ¡¡ Turismo Relax...","listingId":16983654,"photoId":"534-4","tags":[{"name":"sofa","coordinates":[0.4674087312486436,0.4098170916239421,0.523271730211046,0.46557623545328775]},{"name":"sofa","coordinates":[0.8226047780778672,0.4438501516977946,0.17494018342759873,0.5240053494771322]},{"name":"chair","coordinates":[0.18331141471862794,0.5256054242451985,0.12121349970499674,0.34779237111409506]},{"name":"tvmonitor","coordinates":[0.07509195539686414,0.23842113812764487,0.18754810757107204,0.20178461074829102]},{"name":"vase","coordinates":[0.6563513331943088,0.5428238232930501,0.08419623904758029,0.22759176890055338]}]}
