{"src":"https://a0.muscache.com/im/pictures/c9c41b66-66e2-4d18-999a-06bd65d08aa3.jpg?aki_policy=xx_large","name":"Casa-Ann Zonnig Scheveningen","listingId":18220159,"photoId":"534-9","tags":[{"name":"chair","coordinates":[0.20162781609429253,0.7779359817504883,0.3510890960693359,0.4527446746826172]},{"name":"oven","coordinates":[0.8470515780978732,0.6241903940836588,0.2760008070203993,0.35189317067464193]},{"name":"diningtable","coordinates":[0.2108538521660699,0.4810437838236491,0.37683224148220484,0.15112675031026204]},{"name":"chair","coordinates":[0.3565935346815321,0.5073425928751628,0.20755998823377822,0.19052739143371583]},{"name":"pottedplant","coordinates":[0.3095982021755642,0.3378197987874349,0.05149306191338433,0.07248419125874837]},{"name":"sink","coordinates":[0.6476680755615234,0.4151452382405599,0.14860172271728517,0.024207071463267008]},{"name":"chair","coordinates":[0.15181936687893338,0.3964102745056152,0.1192917505900065,0.019609624147415163]}]}
