{"src":"https://a0.muscache.com/im/pictures/a1e08567-a1a4-44f9-9c2d-4a7fee638653.jpg?aki_policy=xx_large","name":"Casa-Ann Zonnig Scheveningen","listingId":18220159,"photoId":"534-3","tags":[{"name":"chair","coordinates":[0.1904689073562622,0.7832340876261393,0.18619837760925292,0.42895542780558266]},{"name":"chair","coordinates":[0.4743043899536133,0.7769484202067057,0.18473565578460693,0.4295124371846517]},{"name":"diningtable","coordinates":[0.32844905853271483,0.6402142842610677,0.349018931388855,0.16256473859151205]},{"name":"chair","coordinates":[0.347626256942749,0.8327284495035807,0.1531938433647156,0.3422431945800781]},{"name":"chair","coordinates":[0.20929422378540039,0.5505964279174804,0.08700941205024719,0.09683056672414143]},{"name":"chair","coordinates":[0.4194311618804932,0.555677858988444,0.08768303990364075,0.09256009260813396]},{"name":"bowl","coordinates":[0.3335836887359619,0.6194728215535482,0.08984128832817077,0.046362264951070147]},{"name":"tvmonitor","coordinates":[0.3626382827758789,0.5033266703287761,0.051847833395004275,0.07970367272694906]}]}
