{"src":"https://a0.muscache.com/im/pictures/a3c4d734-2bda-4e04-8087-cfa5d6fe92dc.jpg?aki_policy=xx_large","name":"Confortable Apto/tipo Suite ¡¡ Turismo Relax...","listingId":16983654,"photoId":"534-7","tags":[{"name":"refrigerator","coordinates":[0.1761905246310764,0.5096889813741048,0.3873059590657552,0.9884026845296224]},{"name":"refrigerator","coordinates":[0.2898127661810981,0.6285959879557291,0.169320191277398,0.6580004374186198]},{"name":"chair","coordinates":[0.743982442220052,0.8474058787027995,0.2409510718451606,0.28869603474934896]},{"name":"chair","coordinates":[0.902901373969184,0.772813097635905,0.13250194125705295,0.3744195938110352]},{"name":"microwave","coordinates":[0.4500568389892578,0.29509906768798827,0.08663149939643013,0.08043652375539144]},{"name":"sink","coordinates":[0.454885016547309,0.5109123547871908,0.13477376302083333,0.035267778237660724]}]}
