{"src":"https://a0.muscache.com/im/pictures/a3c4d734-2bda-4e04-8087-cfa5d6fe92dc.jpg?aki_policy=xx_large","name":"Confortable Apto/tipo Suite ¡¡ Turismo Relax...","listingId":16983654,"photoId":"534-7","tags":[{"name":"refrigerator","coordinates":[-0.017462454901801205,0.015487639109293572,0.3873059590657552,0.9884026845296224]},{"name":"refrigerator","coordinates":[0.20515267054239908,0.29959576924641923,0.169320191277398,0.6580004374186198]},{"name":"chair","coordinates":[0.6235069062974717,0.703057861328125,0.2409510718451606,0.28869603474934896]},{"name":"chair","coordinates":[0.8366504033406575,0.5856033007303874,0.13250194125705295,0.3744195938110352]},{"name":"microwave","coordinates":[0.40674108929104275,0.25488080581029254,0.08663149939643013,0.08043652375539144]},{"name":"sink","coordinates":[0.38749813503689234,0.4932784656683604,0.13477376302083333,0.035267778237660724]}]}
