{"src":"https://a0.muscache.com/im/pictures/3fba4b7a-c833-4a1e-85b0-9b47798de564.jpg?aki_policy=xx_large","name":"Confortable Apto/tipo Suite ¡¡ Turismo Relax...","listingId":16983654,"photoId":"534-9","tags":[{"name":"refrigerator","coordinates":[0.0006724283915217066,0.004078706105550112,0.23469778119578724,0.7612461090087891]},{"name":"diningtable","coordinates":[0.09333616973579334,0.6035362402598063,0.7604054639148068,0.20931024551391603]},{"name":"refrigerator","coordinates":[0.13610904519037476,0.25717708269755046,0.16559308360415298,0.4109550793965658]},{"name":"chair","coordinates":[0.5906309112068056,0.8162510712941488,0.28973516877754596,0.18107614517211915]},{"name":"chair","coordinates":[0.2555357123887905,0.8309574683507284,0.1987057662242709,0.16259843508402508]},{"name":"chair","coordinates":[0.46630981285055145,0.8220526615778605,0.18234212865350127,0.1722560405731201]},{"name":"oven","coordinates":[0.5713975910664677,0.4819160381952921,0.1837011453180678,0.105710236231486]},{"name":"microwave","coordinates":[0.4366256473481164,0.21484555800755817,0.10626928124853478,0.07726803620656332]},{"name":"sink","coordinates":[0.41902904696511045,0.44364214936892193,0.11583211201970414,0.041701296965281166]}]}
