{"src":"https://a0.muscache.com/im/pictures/7bbda662-558f-4ea6-9a75-bc7b404973c7.jpg?aki_policy=xx_large","name":"Lovely design apartment in Duinoord Scheveningen","listingId":18220322,"photoId":"535-0","tags":[{"name":"chair","coordinates":[0.042796723047892254,0.8345098495483398,0.0836456192864312,0.3378600120544434]},{"name":"diningtable","coordinates":[0.5534615410698784,0.7091208775838216,0.157942443423801,0.17551136016845703]},{"name":"tvmonitor","coordinates":[0.8379656473795573,0.32195752461751304,0.04782370991177029,0.15275053977966307]},{"name":"chair","coordinates":[0.4488524966769748,0.6686548868815104,0.04685398207770453,0.09733972549438477]},{"name":"bowl","coordinates":[0.5529004414876302,0.6295127232869466,0.03866397539774577,0.026477591196695963]}]}
