{"src":"https://a0.muscache.com/im/pictures/2cd9b27c-5523-4e64-aadd-279a2b584df0.jpg?aki_policy=xx_large","name":"Nice house with a garden near beach and city!","listingId":18222521,"photoId":"536-5","tags":[{"name":"sofa","coordinates":[0.2753795385360718,0.7458372751871745,0.5239105701446534,0.47683823903401695]},{"name":"chair","coordinates":[0.7350599765777588,0.7421152750651042,0.2883631229400635,0.4600727399190267]},{"name":"chair","coordinates":[0.45038433074951173,0.6586317698160807,0.1998915433883667,0.38865302403767904]},{"name":"vase","coordinates":[0.5234442234039307,0.4606030464172363,0.046263521909713744,0.09992615381876628]},{"name":"cup","coordinates":[0.7973941802978516,0.492743714650472,0.04695486724376678,0.08115137418111165]},{"name":"vase","coordinates":[0.7973941802978516,0.492743714650472,0.04695486724376678,0.08115137418111165]}]}
