{"src":"https://a0.muscache.com/im/pictures/aabf69ed-788c-4231-80fd-a2ac39208bfd.jpg?aki_policy=xx_large","name":"Historic house with private parking &amp; near station","listingId":11279090,"photoId":"54-10","tags":[{"name":"diningtable","coordinates":[0.3676339626312256,0.8785767873128255,0.5989865779876709,0.24866687456766765]},{"name":"pottedplant","coordinates":[0.251704740524292,0.8735880533854167,0.2294376850128174,0.24202122688293456]},{"name":"sofa","coordinates":[0.8172412872314453,0.6931264877319336,0.13870202302932738,0.29386752446492515]},{"name":"chair","coordinates":[0.7024954795837403,0.8897836049397786,0.12871365547180175,0.1994265079498291]},{"name":"chair","coordinates":[0.07003778815269471,0.9203624089558919,0.14147963523864746,0.15810341835021974]},{"name":"chair","coordinates":[0.3981846570968628,0.7433874130249023,0.0865943968296051,0.0954309860865275]},{"name":"clock","coordinates":[0.5023756980895996,0.2370304266611735,0.05848981142044067,0.08823320070902506]},{"name":"tvmonitor","coordinates":[0.7071310997009277,0.5218255043029785,0.06459956169128418,0.06915643215179443]},{"name":"vase","coordinates":[0.14511797428131104,0.6891510009765625,0.022982481122016906,0.03342483043670654]}]}
