{"src":"https://a0.muscache.com/im/pictures/f47a9c56-a7df-4d56-9da7-3ebcdc22a635.jpg?aki_policy=xx_large","name":"シンプルで充実した設備のローコストルーム2","listingId":17016787,"photoId":"540-1","tags":[{"name":"refrigerator","coordinates":[0.1357396726648068,0.7389375686645507,0.22909458887262038,0.4863869349161784]},{"name":"refrigerator","coordinates":[0.33613009180909903,0.6372020085652669,0.14881572272416116,0.39716482162475586]},{"name":"chair","coordinates":[0.643179775444954,0.5894690831502278,0.11025216814871458,0.2569549083709717]},{"name":"microwave","coordinates":[0.3337302811454168,0.38799371719360354,0.12460510720795484,0.10673254330952962]},{"name":"laptop","coordinates":[0.6505478817829667,0.4540129025777181,0.046210218702801745,0.06299126148223877]},{"name":"tvmonitor","coordinates":[0.6505478817829667,0.4540129025777181,0.046210218702801745,0.06299126148223877]}]}
