{"src":"https://a0.muscache.com/im/pictures/1788d621-6144-4bd3-b2ed-62b89a23077d.jpg?aki_policy=xx_large","name":"シンプルで充実した設備のローコストルーム2","listingId":17016787,"photoId":"540-4","tags":[{"name":"microwave","coordinates":[0.5564852782184457,0.5363058725992839,0.6771616292430893,0.6083074569702148]},{"name":"refrigerator","coordinates":[0.5011621297483484,0.886172866821289,0.5863572758660032,0.20497239430745443]},{"name":"bottle","coordinates":[0.443865355596423,0.12251047293345134,0.14978366899556675,0.23616727193196616]},{"name":"bottle","coordinates":[0.6397136322148818,0.13107198079427082,0.10190995047918115,0.23372186024983724]},{"name":"cup","coordinates":[0.5856660675770384,0.192998202641805,0.13901777625581319,0.11096204121907552]}]}
