{"src":"https://a0.muscache.com/im/pictures/1788d621-6144-4bd3-b2ed-62b89a23077d.jpg?aki_policy=xx_large","name":"シンプルで充実した設備のローコストルーム2","listingId":17016787,"photoId":"540-4","tags":[{"name":"microwave","coordinates":[0.5557123819986979,0.5363058725992839,0.6762211269802517,0.6083074569702148]},{"name":"refrigerator","coordinates":[0.500466071234809,0.886172866821289,0.5855428907606337,0.20497239430745443]},{"name":"bottle","coordinates":[0.4432488759358724,0.12251047293345134,0.1495756361219618,0.23616727193196616]},{"name":"bottle","coordinates":[0.6388251410590278,0.13107198079427082,0.1017684088812934,0.23372186024983724]},{"name":"cup","coordinates":[0.5848526424831815,0.192998202641805,0.13882469601101347,0.11096204121907552]}]}
