{"src":"https://a0.muscache.com/im/pictures/f47a9c56-a7df-4d56-9da7-3ebcdc22a635.jpg?aki_policy=xx_large","name":"シンプルで充実した設備のローコストルーム2","listingId":17016787,"photoId":"540-1","tags":[{"name":"refrigerator","coordinates":[0.02119237822849661,0.4957441012064615,0.22909458887262038,0.4863869349161784]},{"name":"refrigerator","coordinates":[0.2617222304470185,0.43861959775288895,0.14881572272416116,0.39716482162475586]},{"name":"chair","coordinates":[0.5880536913705967,0.460991628964742,0.11025216814871458,0.2569549083709717]},{"name":"microwave","coordinates":[0.2714277275414394,0.3346274455388387,0.12460510720795484,0.10673254330952962]},{"name":"laptop","coordinates":[0.6274427724315659,0.4225172718365987,0.046210218702801745,0.06299126148223877]},{"name":"tvmonitor","coordinates":[0.6274427724315659,0.4225172718365987,0.046210218702801745,0.06299126148223877]}]}
