{"src":"https://a0.muscache.com/im/pictures/223b9777-e20d-47b6-aa34-934fd60137ea.jpg?aki_policy=xx_large","name":"beach house Scheveningen","listingId":18278315,"photoId":"541-0","tags":[{"name":"bicycle","coordinates":[0.9000593397352431,0.7035895029703776,0.5079665289984809,0.2724542299906413]},{"name":"sofa","coordinates":[0.16845962736341688,0.8263786315917969,0.32885348002115883,0.35057185490926107]},{"name":"chair","coordinates":[0.16845962736341688,0.8263786315917969,0.32885348002115883,0.35057185490926107]},{"name":"tvmonitor","coordinates":[0.10189843707614475,0.579638417561849,0.20644656287299262,0.2874348958333333]},{"name":"diningtable","coordinates":[0.6998362223307292,0.5419373830159505,0.26026439666748047,0.1875381310780843]},{"name":"chair","coordinates":[0.7954215155707465,0.5310598055521647,0.12862799962361654,0.1869864781697591]},{"name":"book","coordinates":[0.39319911532931856,0.719409434000651,0.12145895428127712,0.062252636750539145]},{"name":"book","coordinates":[0.39522696601019963,0.6989666620890299,0.11487882402208116,0.047333045800526934]}]}
