{"src":"https://a0.muscache.com/im/pictures/c05a4db4-408c-46fe-9a3c-e69cddffc4e2.jpg?aki_policy=xx_large","name":"Green Gate Guesthouse","listingId":17025453,"photoId":"541-0","tags":[{"name":"diningtable","coordinates":[0.5065783182779948,0.7296602249145507,0.2706610361735026,0.28224194844563805]},{"name":"chair","coordinates":[0.6012334187825521,0.7628991444905598,0.1493350558810764,0.29192756017049154]},{"name":"chair","coordinates":[0.39768748813205296,0.694373893737793,0.11960261662801107,0.27249590555826825]},{"name":"pottedplant","coordinates":[0.14891609615749782,0.6827462514241537,0.0930466334025065,0.21255442301432292]},{"name":"pottedplant","coordinates":[0.05408637788560655,0.8317768096923828,0.10571338865492079,0.16874229113260905]},{"name":"pottedplant","coordinates":[0.5267130109998915,0.5771538416544596,0.04425140221913656,0.07983845869700114]},{"name":"vase","coordinates":[0.5271924336751302,0.5949110666910807,0.021932970152960883,0.03906729618708293]}]}
