{"src":"https://a0.muscache.com/im/pictures/266377bf-b2e9-40c3-ba74-5ab841f0df38.jpg?aki_policy=xx_large","name":"beach house Scheveningen","listingId":18278315,"photoId":"541-2","tags":[{"name":"refrigerator","coordinates":[0.3357489347457886,0.4694782257080078,0.13044697046279907,0.5518757502237955]},{"name":"chair","coordinates":[0.6390834808349609,0.8194756825764974,0.17634005546569825,0.3377707799275716]},{"name":"chair","coordinates":[0.4756706714630127,0.816737683614095,0.12631900310516359,0.36588805516560874]},{"name":"chair","coordinates":[0.3750965356826782,0.777540906270345,0.09872629642486572,0.3615601857503255]},{"name":"microwave","coordinates":[0.20859405994415284,0.36824251810709635,0.09941896796226501,0.10309897263844808]},{"name":"chair","coordinates":[0.41033167839050294,0.587794812520345,0.0702169418334961,0.05711553891499837]},{"name":"sink","coordinates":[0.0882150650024414,0.5430562973022461,0.11667497158050537,0.02426002025604248]},{"name":"cup","coordinates":[0.5511042594909668,0.5922171910603841,0.042011702060699464,0.06434239546457926]}]}
