{"src":"https://a0.muscache.com/im/pictures/c05a4db4-408c-46fe-9a3c-e69cddffc4e2.jpg?aki_policy=xx_large","name":"Green Gate Guesthouse","listingId":17025453,"photoId":"541-0","tags":[{"name":"diningtable","coordinates":[0.3712478001912435,0.5885392506917317,0.2706610361735026,0.28224194844563805]},{"name":"chair","coordinates":[0.5265658908420139,0.616935364405314,0.1493350558810764,0.29192756017049154]},{"name":"chair","coordinates":[0.3378861798180474,0.5581259409586589,0.11960261662801107,0.27249590555826825]},{"name":"pottedplant","coordinates":[0.10239277945624456,0.5764690399169923,0.0930466334025065,0.21255442301432292]},{"name":"pottedplant","coordinates":[0.0012296835581461565,0.7474056641260782,0.10571338865492079,0.16874229113260905]},{"name":"pottedplant","coordinates":[0.5045873098903233,0.537234612305959,0.04425140221913656,0.07983845869700114]},{"name":"vase","coordinates":[0.5162259485986498,0.5753774185975393,0.021932970152960883,0.03906729618708293]}]}
