{"src":"https://a0.muscache.com/im/pictures/933e4918-96b7-4ef2-83b8-f6bead335e84.jpg?aki_policy=xx_large","name":"Recently renovated studio (5mn from city centre)","listingId":18325175,"photoId":"544-1","tags":[{"name":"car","coordinates":[0.766239251030816,0.6433024724324544,0.42650544908311633,0.17563328742980958]},{"name":"motorbike","coordinates":[0.36335597568088107,0.8220186869303385,0.344216071234809,0.1998523235321045]},{"name":"motorbike","coordinates":[0.21896211836073134,0.7110932032267253,0.20494588216145834,0.13688939412434895]},{"name":"motorbike","coordinates":[0.26085493299696183,0.45716835657755533,0.21155357360839844,0.07426056067148844]},{"name":"bicycle","coordinates":[0.05400328106350369,0.43511940638224283,0.09102373123168946,0.049733670552571614]},{"name":"person","coordinates":[0.4020570543077257,0.4316892623901367,0.025439988242255317,0.04841109911600749]}]}
