{"src":"https://a0.muscache.com/im/pictures/a7fde855-4ff0-4f87-ad2f-18d511c51b71.jpg?aki_policy=xx_large","name":"Castle DREAMSUITE near NRG, MEDCTR, and Rice univ!","listingId":17101707,"photoId":"545-12","tags":[{"name":"sofa","coordinates":[-0.01869506835937501,0.7829606294631958,1.0370345221625434,0.21416284243265787]},{"name":"sofa","coordinates":[-0.01189693874782985,0.7150862216949463,0.41063499450683594,0.2629628817240397]},{"name":"chair","coordinates":[0.027974510192871088,0.5123478253682455,0.2670173856947157,0.30012823740641276]},{"name":"person","coordinates":[0.64948943456014,0.8343331654866537,0.2224587122599284,0.1629871368408203]},{"name":"sofa","coordinates":[0.9041928768157959,0.750719420115153,0.10539581510755751,0.2508120854695638]},{"name":"tvmonitor","coordinates":[0.2742904875013563,0.3200696547826131,0.1609532674153646,0.15535508791605632]},{"name":"clock","coordinates":[0.7934954934649998,-0.003067751725514725,0.0724187692006429,0.0727397362391154]},{"name":"remote","coordinates":[0.8272905111312867,0.7746531893809636,0.06641218927171495,0.032519131898880005]},{"name":"book","coordinates":[0.58775388929579,0.2520024021466573,0.04968838161892361,0.019365652402242025]},{"name":"book","coordinates":[0.10618590381410385,0.42000507563352585,0.04079123338063558,0.013863991697629292]},{"name":"book","coordinates":[0.10513966878255208,0.39310471067825953,0.039070680406358506,0.012798185149828592]}]}
