{"src":"https://a0.muscache.com/im/pictures/50abf0e5-f242-4cf5-902f-0fc4479803ff.jpg?aki_policy=xx_large","name":"Castle DREAMSUITE near NRG, MEDCTR, and Rice univ!","listingId":17101707,"photoId":"545-11","tags":[{"name":"sofa","coordinates":[0.8043244361877442,0.6394357840220134,0.1861051559448242,0.36214431126912433]},{"name":"clock","coordinates":[0.5328327476978302,0.15164788961410522,0.05992940664291382,0.09281545480092367]},{"name":"book","coordinates":[0.3302054397761822,0.26010902325312296,0.013533641397953034,0.07813622951507568]},{"name":"book","coordinates":[0.1160927839577198,0.33585346142450967,0.014778195321559906,0.06701009273529053]},{"name":"remote","coordinates":[0.761775553226471,0.8124571194251379,0.04367339611053467,0.02155258854230245]},{"name":"book","coordinates":[0.16126980185508727,0.30438084503014884,0.04726177453994751,0.013183500369389851]},{"name":"book","coordinates":[0.8123632736504077,0.5724655588467916,0.010946212708950043,0.04991878668467204]},{"name":"book","coordinates":[0.7300649091601372,0.6644741788506507,0.031086936593055725,0.013762264450391134]}]}
