{"src":"https://a0.muscache.com/im/pictures/f3f14f91-5e19-42fe-afa4-35aaff44b2a1.jpg?aki_policy=xx_large","name":"Studio city (wifi)","listingId":18325276,"photoId":"545-11","tags":[{"name":"car","coordinates":[0.10953291787041558,0.5638053258260091,0.19051414065890843,0.13553358713785807]},{"name":"motorbike","coordinates":[0.07891207800971137,0.6630345662434896,0.1421033435397678,0.160928742090861]},{"name":"pottedplant","coordinates":[0.9478509691026475,0.5844655354817708,0.09925738440619575,0.15453810691833497]},{"name":"person","coordinates":[0.6188028547498915,0.532333246866862,0.08402939902411567,0.12590541044871012]},{"name":"bicycle","coordinates":[0.6241133795844184,0.5829891840616862,0.09562126795450847,0.08381238778432211]},{"name":"car","coordinates":[0.15488533443874783,0.523855463663737,0.10800094604492187,0.06729454199473063]},{"name":"car","coordinates":[0.518605211046007,0.5217190424601237,0.11048858430650499,0.057055890560150146]},{"name":"person","coordinates":[0.3153413560655382,0.5080379803975423,0.04642168680826823,0.07628639539082845]},{"name":"car","coordinates":[0.3625093248155382,0.5047640164693197,0.03967060248057048,0.031836756070454914]},{"name":"car","coordinates":[0.2772644466824002,0.49324556986490886,0.04075882169935438,0.022120306889216106]},{"name":"car","coordinates":[0.2024362564086914,0.49270559946695963,0.03062142266167535,0.02288017471631368]}]}
