{"src":"https://a0.muscache.com/im/pictures/a7fde855-4ff0-4f87-ad2f-18d511c51b71.jpg?aki_policy=xx_large","name":"Castle DREAMSUITE near NRG, MEDCTR, and Rice univ!","listingId":17101707,"photoId":"545-9","tags":[{"name":"sofa","coordinates":[0.5622999668121338,0.8900420506795247,1.1666638374328613,0.21416284243265787]},{"name":"sofa","coordinates":[0.2175981283187866,0.8465676625569661,0.46196436882019043,0.2629628817240397]},{"name":"chair","coordinates":[0.18166860342025756,0.6624119440714519,0.3003945589065552,0.30012823740641276]},{"name":"person","coordinates":[0.8558086395263672,0.9158267339070638,0.2502660512924194,0.1629871368408203]},{"name":"sofa","coordinates":[1.0765021324157715,0.8761254628499349,0.11857029199600219,0.2508120854695638]},{"name":"tvmonitor","coordinates":[0.39911301136016847,0.3977471987406413,0.18107242584228517,0.15535508791605632]},{"name":"clock","coordinates":[0.9334179878234863,0.03330211639404297,0.08147111535072327,0.0727397362391154]},{"name":"remote","coordinates":[0.9680586814880371,0.7909127553304036,0.07471371293067933,0.032519131898880005]},{"name":"book","coordinates":[0.6891728401184082,0.2616852283477783,0.055899429321289065,0.019365652402242025]},{"name":"book","coordinates":[0.14240421056747438,0.4269370714823405,0.04589013755321503,0.013863991697629292]},{"name":"book","coordinates":[0.14025938510894775,0.3995038032531738,0.04395451545715332,0.012798185149828592]}]}
