{"src":"https://a0.muscache.com/im/pictures/7645c33c-878c-435b-a42d-3b32a0874a6c.jpg?aki_policy=xx_large","name":"Castle DREAMSUITE near NRG, MEDCTR, and Rice univ!","listingId":17101707,"photoId":"545-5","tags":[{"name":"bed","coordinates":[0.7544324239095052,0.7720281600952148,0.493731435139974,0.4290187199910482]},{"name":"bowl","coordinates":[0.12995058695475262,0.5906666437784831,0.065251710679796,0.09436434904734294]},{"name":"bottle","coordinates":[0.26174577077229816,0.5058762868245442,0.03007427586449517,0.14201432863871258]},{"name":"vase","coordinates":[0.2239387936062283,0.46692577997843426,0.03045194149017334,0.0926055113474528]},{"name":"cup","coordinates":[0.2285021464029948,0.5494889577229818,0.03503198093838162,0.07705458005269368]}]}
