{"src":"https://a0.muscache.com/im/pictures/a7fde855-4ff0-4f87-ad2f-18d511c51b71.jpg?aki_policy=xx_large","name":"Castle DREAMSUITE near NRG, MEDCTR, and Rice univ!","listingId":17101707,"photoId":"545-9","tags":[{"name":"sofa","coordinates":[0.4998221927218967,0.8900420506795247,1.0370345221625434,0.21416284243265787]},{"name":"sofa","coordinates":[0.19342055850558812,0.8465676625569661,0.41063499450683594,0.2629628817240397]},{"name":"chair","coordinates":[0.16148320304022895,0.6624119440714519,0.2670173856947157,0.30012823740641276]},{"name":"person","coordinates":[0.7607187906901042,0.9158267339070638,0.2224587122599284,0.1629871368408203]},{"name":"sofa","coordinates":[0.9568907843695746,0.8761254628499349,0.10539581510755751,0.2508120854695638]},{"name":"tvmonitor","coordinates":[0.35476712120903864,0.3977471987406413,0.1609532674153646,0.15535508791605632]},{"name":"clock","coordinates":[0.8297048780653212,0.03330211639404297,0.0724187692006429,0.0727397362391154]},{"name":"remote","coordinates":[0.8604966057671442,0.7909127553304036,0.06641218927171495,0.032519131898880005]},{"name":"book","coordinates":[0.6125980801052517,0.2616852283477783,0.04968838161892361,0.019365652402242025]},{"name":"book","coordinates":[0.12658152050442165,0.4269370714823405,0.04079123338063558,0.013863991697629292]},{"name":"book","coordinates":[0.12467500898573133,0.3995038032531738,0.039070680406358506,0.012798185149828592]}]}
