{"src":"https://a0.muscache.com/im/pictures/7645c33c-878c-435b-a42d-3b32a0874a6c.jpg?aki_policy=xx_large","name":"Castle DREAMSUITE near NRG, MEDCTR, and Rice univ!","listingId":17101707,"photoId":"545-5","tags":[{"name":"bed","coordinates":[0.8487364768981933,0.7720281600952148,0.5554478645324707,0.4290187199910482]},{"name":"bowl","coordinates":[0.1461944103240967,0.5906666437784831,0.07340817451477051,0.09436434904734294]},{"name":"bottle","coordinates":[0.29446399211883545,0.5058762868245442,0.033833560347557065,0.14201432863871258]},{"name":"vase","coordinates":[0.25193114280700685,0.46692577997843426,0.03425843417644501,0.0926055113474528]},{"name":"cup","coordinates":[0.2570649147033691,0.5494889577229818,0.03941097855567932,0.07705458005269368]}]}
