{"src":"https://a0.muscache.com/im/pictures/61dbe30d-5c05-415c-a21d-b1049b128c3f.jpg?aki_policy=xx_large","name":"Studio city (wifi)","listingId":18325276,"photoId":"545-5","tags":[{"name":"refrigerator","coordinates":[0.2579784605238173,0.6588249842325846,0.23907862769232857,0.25794757207234703]},{"name":"microwave","coordinates":[0.418315675523546,0.4753477414449056,0.13376060061984593,0.05530154307683309]},{"name":"sink","coordinates":[0.6182071685791015,0.5151010831197103,0.14379956987169054,0.02241314252217611]},{"name":"bottle","coordinates":[0.7013189951578777,0.4895648956298828,0.02128939363691542,0.041138994693756106]},{"name":"bottle","coordinates":[0.39232169257269967,0.42771676381429036,0.018724875979953343,0.03699151277542114]}]}
