{"src":"https://a0.muscache.com/im/pictures/7bc41bb1-8ce2-4974-8d06-e7d44bd2c711.jpg?aki_policy=xx_large","name":"Premium 3 room apartment. New 2017!!!","listingId":17118783,"photoId":"547-15","tags":[{"name":"sofa","coordinates":[0.42301562364272066,0.6487191518147787,0.8192858029936153,0.7228237787882487]},{"name":"diningtable","coordinates":[0.7021757527471334,0.7486279805501302,0.4976921161071056,0.47055079142252604]},{"name":"book","coordinates":[0.591752169611058,0.6072711944580078,0.1307208582789969,0.05689057509104411]},{"name":"wine-glass","coordinates":[0.7544319412623783,0.5258629798889161,0.04577315425276342,0.13461249669392902]},{"name":"wine-glass","coordinates":[0.7910782295105108,0.5192096710205079,0.038551561197860115,0.12110106945037842]}]}
