{"src":"https://a0.muscache.com/im/pictures/7bc41bb1-8ce2-4974-8d06-e7d44bd2c711.jpg?aki_policy=xx_large","name":"Premium 3 room apartment. New 2017!!!","listingId":17118783,"photoId":"547-15","tags":[{"name":"sofa","coordinates":[0.42272186279296875,0.6487191518147787,0.8187168545193142,0.7228237787882487]},{"name":"diningtable","coordinates":[0.7016881306966146,0.7486279805501302,0.49734649658203123,0.47055079142252604]},{"name":"book","coordinates":[0.5913412306043837,0.6072711944580078,0.13063007990519207,0.05689057509104411]},{"name":"wine-glass","coordinates":[0.7539080301920573,0.5258629798889161,0.04574136734008789,0.13461249669392902]},{"name":"wine-glass","coordinates":[0.7905288696289062,0.5192096710205079,0.0385247892803616,0.12110106945037842]}]}
