{"src":"https://a0.muscache.com/im/pictures/cb3e4edb-8ae6-47ee-9b09-893c6a98e0ce.jpg?aki_policy=xx_large","name":"Spacious, clean, light apartment near city &amp; beach","listingId":18336212,"photoId":"547-3","tags":[{"name":"diningtable","coordinates":[0.8192471504211426,0.7357505162556967,0.3528341293334961,0.44676799774169923]},{"name":"chair","coordinates":[0.7511141777038575,0.6814004898071289,0.1796899437904358,0.4222791035970052]},{"name":"sofa","coordinates":[0.14294945001602172,0.5321090698242188,0.21680669784545897,0.23815046946207682]},{"name":"chair","coordinates":[0.5877201557159424,0.5702166239420573,0.1521817684173584,0.21153265635172527]},{"name":"sofa","coordinates":[0.32819352149963377,0.4546624183654785,0.1354758620262146,0.14636740684509278]},{"name":"chair","coordinates":[0.32819352149963377,0.4546624183654785,0.1354758620262146,0.14636740684509278]},{"name":"chair","coordinates":[0.9332961082458496,0.5084686279296875,0.11026349067687988,0.06878593762715658]},{"name":"tvmonitor","coordinates":[0.5787954807281495,0.4170434315999349,0.05822874307632446,0.09418686230977376]},{"name":"pottedplant","coordinates":[0.14530259370803833,0.3839493115743001,0.06111456155776977,0.07401142915089926]},{"name":"pottedplant","coordinates":[0.5095190048217774,0.394221560160319,0.04318383932113647,0.09446557362874348]}]}
