{"src":"https://a0.muscache.com/im/pictures/72973f8f-8824-4a7f-a618-a5fa70c9b4d7.jpg?aki_policy=xx_large","name":"Уютная квартира в историческом центре Казани.","listingId":17149102,"photoId":"552-6","tags":[{"name":"bed","coordinates":[0.4938939571380615,0.8183357238769531,0.9695122718811036,0.4248389561971029]},{"name":"bed","coordinates":[0.7463769912719727,0.5401974360148112,0.3656552076339722,0.4254223187764486]},{"name":"chair","coordinates":[0.27812891006469725,0.5175690015157064,0.16402666568756102,0.2530054728190104]},{"name":"pottedplant","coordinates":[0.12088643312454224,0.4337185859680176,0.1256687045097351,0.15076966285705568]},{"name":"vase","coordinates":[0.12394425868988038,0.4863761901855469,0.03647507727146149,0.046138107776641846]}]}
