{"src":"https://a0.muscache.com/im/pictures/0a4dd286-034c-4a67-8883-b06c690e96ed.jpg?aki_policy=xx_large","name":"Уютная квартира в историческом центре Казани.","listingId":17149102,"photoId":"552-9","tags":[{"name":"oven","coordinates":[0.6634246587753296,0.5973216533660889,0.2627727031707764,0.3818533261617025]},{"name":"refrigerator","coordinates":[0.010832464694976812,0.5519661585489908,0.2613111734390259,0.33514544169108074]},{"name":"diningtable","coordinates":[-0.00851310491561888,0.8220387776692708,0.3647985219955444,0.17156206766764323]},{"name":"pottedplant","coordinates":[0.00447245836257934,0.2956054925918579,0.19109866619110108,0.2593405564626058]},{"name":"microwave","coordinates":[0.6110860586166381,0.5130717595418295,0.14590697288513182,0.12418505350748697]},{"name":"vase","coordinates":[0.06819674968719483,0.468792716662089,0.05197901725769043,0.09125119845072428]}]}
