{"src":"https://a0.muscache.com/im/pictures/4e285750-7646-4316-b827-4591921fc38c.jpg?aki_policy=xx_large","name":"Luxury Appartment in The Hague City Centre","listingId":18382627,"photoId":"552-2","tags":[{"name":"chair","coordinates":[0.7906150817871094,0.8010640462239583,0.23152074813842774,0.3528422991434733]},{"name":"laptop","coordinates":[0.8876947402954102,0.519063409169515,0.20750961303710938,0.2463068962097168]},{"name":"diningtable","coordinates":[0.2068938732147217,0.583327039082845,0.16323587894439698,0.17775365511576335]},{"name":"chair","coordinates":[0.14152262210845948,0.575071144104004,0.0667462944984436,0.16187825202941894]},{"name":"book","coordinates":[0.6832842350006103,0.4592116038004557,0.015903115272521973,0.06158563296000163]},{"name":"book","coordinates":[0.6449525356292725,0.37005523045857747,0.012424897402524948,0.054578789075215656]},{"name":"book","coordinates":[0.6447936058044433,0.4573911348978678,0.010300573706626893,0.05207693576812744]}]}
