{"src":"https://a0.muscache.com/im/pictures/37a6e7b4-3536-42f9-9749-710e5e44d23d.jpg?aki_policy=xx_large","name":"Comfortable, spacious &amp; stylish family house","listingId":18398853,"photoId":"553-2","tags":[{"name":"sofa","coordinates":[0.7880533006456163,0.6722745895385742,0.1877418941921658,0.42873026529947916]},{"name":"diningtable","coordinates":[0.45659862094455295,0.6090478897094727,0.42014499240451386,0.1473060448964437]},{"name":"chair","coordinates":[0.5876461452907986,0.7561737060546875,0.2108576668633355,0.23895228703816732]},{"name":"chair","coordinates":[0.34350687662760415,0.7894624710083008,0.1827903111775716,0.1837558428446452]},{"name":"tvmonitor","coordinates":[0.09234583112928603,0.37081848780314125,0.1777083608839247,0.16350138982137044]},{"name":"vase","coordinates":[0.541185548570421,0.14675930341084797,0.08657381269666883,0.07113981246948242]},{"name":"book","coordinates":[0.3300223880343967,0.6115137736002604,0.12716073989868165,0.03332171638806661]},{"name":"book","coordinates":[0.3947445339626736,0.5411556243896485,0.0932038942972819,0.023467501004536945]}]}
