{"src":"https://a0.muscache.com/im/pictures/2a761792-fecb-4436-b398-da955da9d30e.jpg?aki_policy=xx_large","name":"PRIVATE ROOM IN MACAU CENTRAL -2","listingId":17165200,"photoId":"554-7","tags":[{"name":"bus","coordinates":[0.7535368742766204,0.868441645304362,0.5339075724283854,0.16566301981608073]},{"name":"car","coordinates":[0.2271547388147425,0.9375466028849284,0.304042477077908,0.13005253473917644]},{"name":"person","coordinates":[1.2399391456886575,0.9386070887247722,0.19451707910608362,0.11970256169637045]},{"name":"bus","coordinates":[1.1844077781394675,0.8781577428181966,0.24916802865487558,0.08009452025095622]},{"name":"person","coordinates":[0.26689450299298323,0.9330163955688476,0.13112219351309318,0.1346928914388021]},{"name":"car","coordinates":[1.0554126880787038,0.9077702204386393,0.11151132936830874,0.05342329740524292]},{"name":"clock","coordinates":[0.8495759186921297,0.46997305552164714,0.06277475710268374,0.028687888383865358]},{"name":"traffic-light","coordinates":[0.24112416020146124,0.7817992528279623,0.031752893659803605,0.05133891503016154]},{"name":"clock","coordinates":[0.8327646326135706,0.4151966412862142,0.044459441856101706,0.022474445899327598]}]}
