{"src":"https://a0.muscache.com/im/pictures/2a761792-fecb-4436-b398-da955da9d30e.jpg?aki_policy=xx_large","name":"PRIVATE ROOM IN MACAU CENTRAL -2","listingId":17165200,"photoId":"554-7","tags":[{"name":"bus","coordinates":[0.5651526557074653,0.868441645304362,0.40043067932128906,0.16566301981608073]},{"name":"car","coordinates":[0.17036605411105685,0.9375466028849284,0.228031857808431,0.13005253473917644]},{"name":"person","coordinates":[0.9299543592664931,0.9386070887247722,0.14588780932956272,0.11970256169637045]},{"name":"bus","coordinates":[0.8883058336046007,0.8781577428181966,0.18687602149115667,0.08009452025095622]},{"name":"person","coordinates":[0.20017087724473742,0.9330163955688476,0.09834164513481988,0.1346928914388021]},{"name":"car","coordinates":[0.7915595160590277,0.9077702204386393,0.08363349702623156,0.05342329740524292]},{"name":"clock","coordinates":[0.6371819390190973,0.46997305552164714,0.0470810678270128,0.028687888383865358]},{"name":"traffic-light","coordinates":[0.1808431201510959,0.7817992528279623,0.0238146702448527,0.05133891503016154]},{"name":"clock","coordinates":[0.624573474460178,0.4151966412862142,0.03334458139207628,0.022474445899327598]}]}
