{"src":"https://a0.muscache.com/im/pictures/9c1ae42d-297d-4f90-aff3-af4cd2dc3ce3.jpg?aki_policy=xx_large","name":"NOIR room #CrashPadDallas @ Bishop Arts &amp; Downtown","listingId":17192710,"photoId":"557-0","tags":[{"name":"sofa","coordinates":[0.32816817178822827,0.666836675008138,0.4458254712313669,0.5353846232096354]},{"name":"sofa","coordinates":[0.6407777068211711,0.3235931078592936,0.2611970254804413,0.24261280695597331]},{"name":"chair","coordinates":[0.8750846785488113,0.3417729059855143,0.1532405814619057,0.24571193059285482]},{"name":"book","coordinates":[0.5915164843445537,0.388306999206543,0.06653797747284197,0.05015560785929362]},{"name":"vase","coordinates":[0.6453133848432628,0.5616018295288085,0.028162173526136557,0.09738953908284505]}]}
