{"src":"https://a0.muscache.com/im/pictures/0a646633-68e1-4982-8a4e-ae4959cc7489.jpg?aki_policy=xx_large","name":"Guest House de Treichville","listingId":17195583,"photoId":"558-1","tags":[{"name":"diningtable","coordinates":[0.3266167760778356,0.5097820123036703,0.5015574815538194,0.4501527468363444]},{"name":"chair","coordinates":[0.25573376125759545,0.5290369987487793,0.13902668140552663,0.4485292434692383]},{"name":"sofa","coordinates":[0.12538990162037036,0.361614203453064,0.23521678783275463,0.23702937761942547]},{"name":"chair","coordinates":[0.4396086742259838,0.7864353577295939,0.25328599717881944,0.20552131334940593]},{"name":"chair","coordinates":[0.322785398695204,0.5211305459340413,0.07140619913736979,0.24439382553100586]},{"name":"chair","coordinates":[0.7465235392252604,0.5531404892603556,0.06476903844762731,0.2564622720082601]},{"name":"chair","coordinates":[0.6858862135145399,0.48651607036590583,0.05284011275679977,0.1852735996246338]},{"name":"chair","coordinates":[0.49193306251808444,0.46611711581548054,0.0767510082103588,0.09743851820627848]},{"name":"bottle","coordinates":[0.5755877233434606,0.6426431139310201,0.036352403428819444,0.11467816829681396]}]}
