{"src":"https://a0.muscache.com/im/pictures/30af69f8-be2a-4b29-b1de-5dfbf0d10001.jpg?aki_policy=xx_large","name":"Guest House de Treichville","listingId":17195583,"photoId":"558-5","tags":[{"name":"diningtable","coordinates":[0.1161934322781033,0.6347974936167399,0.6589418199327257,0.3659757932027181]},{"name":"chair","coordinates":[0.060043864780002176,0.6565621376037598,0.15998755560980904,0.3363943099975586]},{"name":"chair","coordinates":[0.7561756663852268,0.7996172587076823,0.12320961422390408,0.19158922831217448]},{"name":"chair","coordinates":[0.5697499646080865,0.6007592598597208,0.11711916393703885,0.18205259641011556]},{"name":"chair","coordinates":[0.1434511343638102,0.5582935571670532,0.12322100533379449,0.14382548332214357]},{"name":"vase","coordinates":[0.3596930848227607,0.6142245372136435,0.061049265331692165,0.20900286038716634]},{"name":"chair","coordinates":[0.43383291562398274,0.5705259561538697,0.0806637552049425,0.13466461499532065]},{"name":"bowl","coordinates":[0.5892822106679281,0.8834621787071228,0.10120233959621854,0.08378034432729085]},{"name":"bottle","coordinates":[0.5248812940385607,0.7892306089401245,0.04463040033976237,0.14639407793680828]},{"name":"bottle","coordinates":[0.43138717148039074,0.7518513679504394,0.03366942670610216,0.14244912465413412]},{"name":"wine-glass","coordinates":[0.2851978447702196,0.6237441023190816,0.033443167474534775,0.13188089529673258]},{"name":"bowl","coordinates":[0.42198679976993136,0.6890085796515146,0.04828078481886122,0.04006895621617635]}]}
