{"src":"https://a0.muscache.com/im/pictures/0a646633-68e1-4982-8a4e-ae4959cc7489.jpg?aki_policy=xx_large","name":"Guest House de Treichville","listingId":17195583,"photoId":"558-1","tags":[{"name":"diningtable","coordinates":[0.5773955168547453,0.7348583857218425,0.5015574815538194,0.4501527468363444]},{"name":"chair","coordinates":[0.3252471019603588,0.7533016204833984,0.13902668140552663,0.4485292434692383]},{"name":"sofa","coordinates":[0.24299829553674768,0.4801288922627767,0.23521678783275463,0.23702937761942547]},{"name":"chair","coordinates":[0.5662516728153936,0.8891960144042969,0.25328599717881944,0.20552131334940593]},{"name":"chair","coordinates":[0.3584884982638889,0.6433274586995442,0.07140619913736979,0.24439382553100586]},{"name":"chair","coordinates":[0.7789080584490741,0.6813716252644857,0.06476903844762731,0.2564622720082601]},{"name":"chair","coordinates":[0.7123062698929398,0.5791528701782227,0.05284011275679977,0.1852735996246338]},{"name":"chair","coordinates":[0.5303085666232639,0.5148363749186198,0.0767510082103588,0.09743851820627848]},{"name":"bottle","coordinates":[0.5937639250578703,0.6999821980794271,0.036352403428819444,0.11467816829681396]}]}
