{"src":"https://a0.muscache.com/im/pictures/b0747d4d-e6a2-46cb-8a18-79a96dc1e42d.jpg?aki_policy=xx_large","name":"Appartment 6 p with fast wifi and netflix","listingId":1842203,"photoId":"558-1","tags":[{"name":"tvmonitor","coordinates":[0.16411293745040895,0.6849415461222331,0.32033343315124513,0.4952242851257324]},{"name":"sofa","coordinates":[0.3327167987823486,0.3998140017191569,0.4163032054901123,0.25437634785970054]},{"name":"pottedplant","coordinates":[0.7987076759338378,0.48710050582885744,0.24363222122192382,0.2836061159769694]},{"name":"keyboard","coordinates":[0.26680424213409426,0.9096872329711914,0.27245297431945803,0.20008920033772787]},{"name":"book","coordinates":[0.5343329906463623,0.7092864990234375,0.1866189122200012,0.1466752052307129]},{"name":"tvmonitor","coordinates":[0.7205922603607178,0.10190125306447347,0.1713188648223877,0.1560712973276774]},{"name":"person","coordinates":[0.6747109413146972,0.10980753103892009,0.06671181321144104,0.12753326098124187]},{"name":"pottedplant","coordinates":[0.6437389850616455,0.4312593142191569,0.07075250744819642,0.10128014087677002]},{"name":"mouse","coordinates":[0.44923858642578124,0.804647954305013,0.09199123978614807,0.05153533617655436]}]}
