{"src":"https://a0.muscache.com/im/pictures/20e5131b-4a9e-4f40-84a1-227f81be3a07.jpg?aki_policy=xx_large","name":"Guest House de Treichville","listingId":17195583,"photoId":"558-3","tags":[{"name":"diningtable","coordinates":[0.449943839179145,0.8264518737792969,0.3959032694498698,0.3241407076517741]},{"name":"chair","coordinates":[0.2471422619289822,0.8586661020914713,0.07893995708889431,0.2635077476501465]},{"name":"chair","coordinates":[0.6834072536892362,0.8112959543863932,0.05785471068488227,0.3400440216064453]},{"name":"chair","coordinates":[0.2926181793212891,0.7520697275797527,0.05403363439771864,0.19506006240844725]},{"name":"chair","coordinates":[0.5024589114718967,0.6351002375284831,0.08085983064439561,0.11124416987101236]},{"name":"fork","coordinates":[0.581339603000217,0.8910162607828777,0.0961517439948188,0.025321088234583535]},{"name":"cup","coordinates":[0.5725211673312717,0.7111413955688477,0.030171245998806422,0.039484445254007974]}]}
