{"src":"https://a0.muscache.com/im/pictures/01b97ebb-70cc-4b75-870f-d47e8144c477.jpg?aki_policy=xx_large","name":"Appartment 6 p with fast wifi and netflix","listingId":1842203,"photoId":"558-4","tags":[{"name":"diningtable","coordinates":[0.21230287551879884,0.7756028493245443,0.4462395668029785,0.36748148600260416]},{"name":"chair","coordinates":[0.28750321865081785,0.5310811360677083,0.2337258815765381,0.3076829274495443]},{"name":"diningtable","coordinates":[0.4291507720947266,0.413823922475179,0.2904047012329102,0.23849724133809408]},{"name":"chair","coordinates":[0.14461562633514405,0.4810654958089193,0.21745948791503905,0.2932324727376302]},{"name":"pottedplant","coordinates":[0.16077624559402465,0.5874653498331706,0.2163139820098877,0.2522765636444092]},{"name":"tvmonitor","coordinates":[0.10027850866317749,0.18253731727600098,0.18512533903121947,0.15108006795247395]},{"name":"chair","coordinates":[0.5082958221435547,0.4380454699198405,0.0962420642375946,0.21131712595621746]},{"name":"chair","coordinates":[0.9665393829345703,0.8708165486653646,0.0631172776222229,0.25095605850219727]},{"name":"chair","coordinates":[0.5616166591644287,0.41265570322672523,0.056529557704925536,0.17383980751037598]},{"name":"person","coordinates":[0.05453197360038757,0.18463444709777832,0.07269063591957092,0.1297714392344157]},{"name":"vase","coordinates":[0.1582166075706482,0.6730190912882487,0.07850328087806702,0.09827839533487956]},{"name":"vase","coordinates":[0.912540054321289,0.4094432512919108,0.07558571100234986,0.09148596127827963]},{"name":"pottedplant","coordinates":[0.026308131217956544,0.5365550359090169,0.054308778047561644,0.11425819396972656]},{"name":"remote","coordinates":[0.2864182233810425,0.7899015426635743,0.12364016771316529,0.049164589246114096]},{"name":"pottedplant","coordinates":[0.7864593505859375,0.379580020904541,0.05084270238876343,0.09810807704925537]}]}
