{"src":"https://a0.muscache.com/im/pictures/7ecd67be-554d-4984-be08-2314d9890efd.jpg?aki_policy=xx_large","name":"Appartment 6 p with fast wifi and netflix","listingId":1842203,"photoId":"558-3","tags":[{"name":"diningtable","coordinates":[0.32009527418348527,0.7318829854329427,0.630214352077908,0.478618590037028]},{"name":"chair","coordinates":[0.7748527526855469,0.7464537938435872,0.3715086195203993,0.40243279139200844]},{"name":"sofa","coordinates":[0.4748998430040148,0.4312442143758138,0.2832235124376085,0.1696225643157959]},{"name":"sofa","coordinates":[0.15077040990193685,0.4049792925516764,0.25498256683349607,0.1211479902267456]},{"name":"chair","coordinates":[0.49324158562554254,0.5608311335245768,0.16591867870754665,0.14276057879130047]},{"name":"pottedplant","coordinates":[0.1164661619398329,0.47833614349365233,0.13215310838487412,0.1524940331776937]}]}
