{"src":"https://a0.muscache.com/im/pictures/30af69f8-be2a-4b29-b1de-5dfbf0d10001.jpg?aki_policy=xx_large","name":"Guest House de Treichville","listingId":17195583,"photoId":"558-5","tags":[{"name":"diningtable","coordinates":[0.44566434224446616,0.8177853902180989,0.6589418199327257,0.3659757932027181]},{"name":"chair","coordinates":[0.1400376425849067,0.8247592926025391,0.15998755560980904,0.3363943099975586]},{"name":"chair","coordinates":[0.8177804734971789,0.8954118728637696,0.12320961422390408,0.19158922831217448]},{"name":"chair","coordinates":[0.6283095465766059,0.6917855580647786,0.11711916393703885,0.18205259641011556]},{"name":"chair","coordinates":[0.20506163703070746,0.630206298828125,0.12322100533379449,0.14382548332214357]},{"name":"vase","coordinates":[0.3902177174886068,0.7187259674072266,0.061049265331692165,0.20900286038716634]},{"name":"chair","coordinates":[0.474164793226454,0.63785826365153,0.0806637552049425,0.13466461499532065]},{"name":"bowl","coordinates":[0.6398833804660373,0.9253523508707683,0.10120233959621854,0.08378034432729085]},{"name":"bottle","coordinates":[0.5471964942084419,0.8624276479085287,0.04463040033976237,0.14639407793680828]},{"name":"bottle","coordinates":[0.44822188483344183,0.8230759302775065,0.03366942670610216,0.14244912465413412]},{"name":"wine-glass","coordinates":[0.301919428507487,0.6896845499674479,0.033443167474534775,0.13188089529673258]},{"name":"bowl","coordinates":[0.446127192179362,0.7090430577596029,0.04828078481886122,0.04006895621617635]}]}
