{"src":"https://a0.muscache.com/im/pictures/20e5131b-4a9e-4f40-84a1-227f81be3a07.jpg?aki_policy=xx_large","name":"Guest House de Treichville","listingId":17195583,"photoId":"558-3","tags":[{"name":"diningtable","coordinates":[0.2519922044542101,0.6643815199534098,0.3959032694498698,0.3241407076517741]},{"name":"chair","coordinates":[0.20767228338453503,0.726912228266398,0.07893995708889431,0.2635077476501465]},{"name":"chair","coordinates":[0.654479898346795,0.6412739435831706,0.05785471068488227,0.3400440216064453]},{"name":"chair","coordinates":[0.26560136212242974,0.654539696375529,0.05403363439771864,0.19506006240844725]},{"name":"chair","coordinates":[0.4620289961496989,0.579478152592977,0.08085983064439561,0.11124416987101236]},{"name":"fork","coordinates":[0.5332637310028077,0.8783557166655859,0.0961517439948188,0.025321088234583535]},{"name":"cup","coordinates":[0.5574355443318685,0.6913991729418437,0.030171245998806422,0.039484445254007974]}]}
