{"src":"https://a0.muscache.com/im/pictures/f481da64-b081-4557-970d-583adfdad5cd.jpg?aki_policy=xx_large","name":"Guest House de Treichville","listingId":17195583,"photoId":"558-4","tags":[{"name":"diningtable","coordinates":[0.40445285373263884,0.5293316205342611,0.48545362684461807,0.45925045013427734]},{"name":"sofa","coordinates":[0.5464323043823243,0.3826565663019816,0.327583016289605,0.2526875972747803]},{"name":"chair","coordinates":[0.7500028345319959,0.6243980089823404,0.16790187623765734,0.36097469329833987]},{"name":"chair","coordinates":[0.3342498832278782,0.7019916534423828,0.1498869048224555,0.27995986938476564]},{"name":"chair","coordinates":[0.6740971618228488,0.4657577037811279,0.15874961217244465,0.1453916867574056]},{"name":"sofa","coordinates":[0.6740971618228488,0.4657577037811279,0.15874961217244465,0.1453916867574056]},{"name":"chair","coordinates":[0.41858238114251034,0.5531455119450888,0.11112650765313042,0.17887361844380698]},{"name":"chair","coordinates":[0.5447410636478001,0.5023083448410035,0.07481010225084093,0.1547304630279541]},{"name":"chair","coordinates":[0.7785194979773626,0.514804748694102,0.07413131925794814,0.11836477120717366]},{"name":"bowl","coordinates":[0.6805414676666259,0.7519953687985739,0.08430924945407443,0.053356115023295084]},{"name":"wine-glass","coordinates":[0.7254964947700501,0.561491068204244,0.034434188736809625,0.09202081362406413]},{"name":"bottle","coordinates":[0.5396155344115363,0.679209542274475,0.02420012421078152,0.12873047192891438]}]}
