{"src":"https://a0.muscache.com/im/pictures/b4c7c0ff-2100-4b41-8635-a9ef9acf80fb.jpg?aki_policy=xx_large","name":"Appartment 6 p with fast wifi and netflix","listingId":1842203,"photoId":"558-5","tags":[{"name":"sofa","coordinates":[0.29429925282796227,0.41485465367635094,0.530812931060791,0.2850502014160156]},{"name":"chair","coordinates":[0.2524569988250732,0.8409992218017578,0.46895360946655273,0.2932244300842285]},{"name":"chair","coordinates":[0.926950200398763,0.35666192372639977,0.14072300593058268,0.26888052622477215]},{"name":"chair","coordinates":[0.6594311396280924,0.32970412572224933,0.17787494659423828,0.1944917360941569]},{"name":"tvmonitor","coordinates":[0.04832726319630941,0.5485844294230143,0.0984253724416097,0.25847136179606117]},{"name":"pottedplant","coordinates":[0.5508772532145182,0.43442179361979166,0.15224669774373373,0.1537523110707601]},{"name":"tvmonitor","coordinates":[0.812968381245931,0.13379913965861004,0.18676609992980958,0.1165392796198527]},{"name":"keyboard","coordinates":[0.041633017857869464,0.7384464899698894,0.0849972407023112,0.11875308354695638]},{"name":"mouse","coordinates":[0.16135400136311848,0.6857102076212566,0.06079797744750977,0.04361910025278727]}]}
