{"src":"https://a0.muscache.com/im/pictures/f481da64-b081-4557-970d-583adfdad5cd.jpg?aki_policy=xx_large","name":"Guest House de Treichville","listingId":17195583,"photoId":"558-4","tags":[{"name":"diningtable","coordinates":[0.6471796671549479,0.7589568456013998,0.48545362684461807,0.45925045013427734]},{"name":"sofa","coordinates":[0.7102238125271267,0.5090003649393717,0.327583016289605,0.2526875972747803]},{"name":"chair","coordinates":[0.8339537726508246,0.8048853556315104,0.16790187623765734,0.36097469329833987]},{"name":"chair","coordinates":[0.4091933356391059,0.8419715881347656,0.1498869048224555,0.27995986938476564]},{"name":"chair","coordinates":[0.7534719679090712,0.5384535471598307,0.15874961217244465,0.1453916867574056]},{"name":"sofa","coordinates":[0.7534719679090712,0.5384535471598307,0.15874961217244465,0.1453916867574056]},{"name":"chair","coordinates":[0.4741456349690755,0.6425823211669922,0.11112650765313042,0.17887361844380698]},{"name":"chair","coordinates":[0.5821461147732205,0.5796735763549805,0.07481010225084093,0.1547304630279541]},{"name":"chair","coordinates":[0.8155851576063368,0.5739871342976888,0.07413131925794814,0.11836477120717366]},{"name":"bowl","coordinates":[0.7226960923936632,0.7786734263102214,0.08430924945407443,0.053356115023295084]},{"name":"wine-glass","coordinates":[0.7427135891384549,0.607501475016276,0.034434188736809625,0.09202081362406413]},{"name":"bottle","coordinates":[0.551715596516927,0.7435747782389323,0.02420012421078152,0.12873047192891438]}]}
