{"src":"https://a0.muscache.com/im/pictures/d98f5ecd-fe39-4446-a4d4-9e95ae5861e5.jpg?aki_policy=xx_large","name":"Appartment 6 p with fast wifi and netflix","listingId":1842203,"photoId":"558-2","tags":[{"name":"sofa","coordinates":[0.2511239528656006,0.719104258219401,0.3922142505645752,0.2974042256673177]},{"name":"pottedplant","coordinates":[0.301050066947937,0.8000308990478515,0.11680020093917846,0.15254174868265788]},{"name":"person","coordinates":[0.9002846717834473,0.41572271982828773,0.06443396210670471,0.16358229319254558]},{"name":"person","coordinates":[0.7401354789733887,0.44537792205810545,0.06739493608474731,0.10596861044565836]},{"name":"remote","coordinates":[0.4371476650238037,0.8909701665242513,0.03002694547176361,0.0667399803797404]}]}
