{"src":"https://z0.muscache.cn/im/pictures/f32181bb-f7fe-4b1d-af14-f94878a8ae93.jpg?aki_policy=xx_large","name":"Roomy apartment near airport, tourist attractions","listingId":17207117,"photoId":"559-3","tags":[{"name":"diningtable","coordinates":[0.751648235321045,0.7165034612019857,0.2858391046524048,0.2894575119018555]},{"name":"chair","coordinates":[0.8567751884460449,0.7686395645141602,0.18871973752975463,0.34251283009847006]},{"name":"chair","coordinates":[0.6369153022766113,0.6991022109985352,0.12161840200424194,0.2783836364746094]},{"name":"chair","coordinates":[0.04743163287639618,0.8692538579305013,0.08881551027297974,0.20114677747090656]},{"name":"microwave","coordinates":[0.534666109085083,0.5450024922688802,0.09840678572654724,0.09117121696472168]},{"name":"clock","coordinates":[0.37859833240509033,0.34230063756306967,0.03674839735031128,0.05853954553604126]}]}
