{"src":"https://a0.muscache.com/im/pictures/72fb28db-8c2e-4507-8235-f0a30573d7d1.jpg?aki_policy=xx_large","name":"Spacious room with garden next to the city center","listingId":18423947,"photoId":"560-1","tags":[{"name":"bed","coordinates":[0.7118527730305989,0.7765073776245117,0.6277452680799697,0.4005465825398763]},{"name":"chair","coordinates":[0.4929325103759766,0.6474587758382161,0.15216587914360893,0.27234477996826173]},{"name":"book","coordinates":[0.6778923882378473,0.830508804321289,0.11006651984320746,0.06995736757914225]},{"name":"book","coordinates":[0.680092281765408,0.861147944132487,0.119493039449056,0.060516663392384845]},{"name":"book","coordinates":[0.6802157084147136,0.889669926961263,0.1197217305501302,0.05574841896692912]},{"name":"book","coordinates":[0.6790135701497396,0.9175041198730469,0.11713195376925999,0.05255401531855265]},{"name":"vase","coordinates":[0.2094439188639323,0.48517061869303385,0.02251232465108236,0.056460130214691165]}]}
