{"src":"https://a0.muscache.com/im/pictures/4bcf11e3-f375-424c-99aa-d8aab6f30809.jpg?aki_policy=xx_large","name":"Spacious room with garden next to the city center","listingId":18423947,"photoId":"560-0","tags":[{"name":"bed","coordinates":[0.5549206203884549,0.7688336690266927,0.6010898166232639,0.4238075574239095]},{"name":"chair","coordinates":[0.2119589063856337,0.7145890553792318,0.1742105484008789,0.34012587865193683]},{"name":"book","coordinates":[0.7669731140136719,0.800731341044108,0.11967698203192817,0.08016978899637858]},{"name":"book","coordinates":[0.7661800808376736,0.8322931925455729,0.1270252757602268,0.06534012556076049]},{"name":"book","coordinates":[0.764719984266493,0.8585660298665364,0.12820604112413195,0.06281718015670776]},{"name":"book","coordinates":[0.7639084710015192,0.8831801096598307,0.12829131020439996,0.06000026861826579]},{"name":"cup","coordinates":[0.887912835015191,0.6970100402832031,0.02849020693037245,0.04928518931070964]}]}
