{"src":"https://a0.muscache.com/im/pictures/eef87a7c-b099-423c-8824-68fe647da0e2.jpg?aki_policy=xx_large","name":"Charming room 200 meters from the dunes.","listingId":18481785,"photoId":"563-0","tags":[{"name":"bed","coordinates":[0.7523608737521701,0.8359479904174805,0.4692447238498264,0.300282351175944]},{"name":"diningtable","coordinates":[0.1404491318596734,0.7128854751586914,0.25795731014675566,0.32398090362548826]},{"name":"pottedplant","coordinates":[0.3579424116346571,0.5347360610961914,0.15243328942192924,0.32855440775553385]},{"name":"pottedplant","coordinates":[0.09509142769707574,0.5066090901692708,0.1682649506462945,0.2380815823872884]},{"name":"sofa","coordinates":[0.5659962124294705,0.6301829020182291,0.12470280329386393,0.18861665725708007]},{"name":"chair","coordinates":[0.03090183205074734,0.8850274403889974,0.06078439288669162,0.23417630195617675]},{"name":"vase","coordinates":[0.08868916829427083,0.574691645304362,0.04258214367760552,0.09252230326334636]}]}
