{"src":"https://a0.muscache.com/im/pictures/f210a497-da53-46e6-84cd-5ba0db68542e.jpg?aki_policy=xx_large","name":"BURSA SETBAÅžI LUXURY APARTMENT","listingId":1723086,"photoId":"563-5","tags":[{"name":"diningtable","coordinates":[0.04103046404891028,0.6033197402954101,0.24408075030181786,0.34678243001302084]},{"name":"chair","coordinates":[0.00020657388137768073,0.7514553546905517,0.17125405617130612,0.24523852666219076]},{"name":"diningtable","coordinates":[0.045899314016200204,0.6050294597943624,0.23654873548587935,0.1264825741449992]},{"name":"sofa","coordinates":[0.24383611586487408,0.45121829907099403,0.13429072605367617,0.11499027411142985]},{"name":"sink","coordinates":[0.7674574867421369,0.5336931626001994,0.1383215648070894,0.10247311592102051]},{"name":"chair","coordinates":[0.10515540163108061,0.5506142516930899,0.07128182815502376,0.06119621992111206]}]}
