{"src":"https://a0.muscache.com/im/pictures/f210a497-da53-46e6-84cd-5ba0db68542e.jpg?aki_policy=xx_large","name":"BURSA SETBAÅžI LUXURY APARTMENT","listingId":1723086,"photoId":"563-5","tags":[{"name":"diningtable","coordinates":[0.1630708391998192,0.7767109553019206,0.24408075030181786,0.34678243001302084]},{"name":"chair","coordinates":[0.08583360196703074,0.8740746180216471,0.17125405617130612,0.24523852666219076]},{"name":"diningtable","coordinates":[0.16417368175913988,0.6682707468668619,0.23654873548587935,0.1264825741449992]},{"name":"sofa","coordinates":[0.3109814788917122,0.5087134361267089,0.13429072605367617,0.11499027411142985]},{"name":"sink","coordinates":[0.8366182691456816,0.5849297205607097,0.1383215648070894,0.10247311592102051]},{"name":"chair","coordinates":[0.1407963157085925,0.5812123616536459,0.07128182815502376,0.06119621992111206]}]}
