{"src":"https://a0.muscache.com/im/pictures/620aba1a-14a6-410e-899a-3bad0670c3d8.jpg?aki_policy=xx_large","name":"Comfortabel appartement 5min walk to citycenter!","listingId":18495771,"photoId":"564-0","tags":[{"name":"vase","coordinates":[0.3030344362612124,0.20243083635965983,0.19807634706850405,0.23313414255777995]},{"name":"cup","coordinates":[0.3030344362612124,0.20243083635965983,0.19807634706850405,0.23313414255777995]},{"name":"bottle","coordinates":[0.6830621224862558,0.21442650159200033,0.21074666623716,0.21391040484110516]},{"name":"bottle","coordinates":[0.6012278804072627,0.801180903116862,0.2804289076063368,0.11238886515299479]},{"name":"wine-glass","coordinates":[0.36858257717556425,0.8710559209187826,0.12061995047110098,0.20041109720865885]},{"name":"wine-glass","coordinates":[0.21849530537923176,0.877889887491862,0.1244142179135923,0.18977179527282714]},{"name":"cup","coordinates":[0.47771086516203703,0.5992152531941731,0.06327325326425058,0.03724711338678996]},{"name":"cup","coordinates":[0.5469033700448496,0.5979300181070963,0.05820658295242875,0.03841523726781209]}]}
