{"src":"https://a0.muscache.com/im/pictures/c39e41bf-f556-4d87-9ebd-32779f770fca.jpg?aki_policy=xx_large","name":"高教区青年旅舍，客人卧室","listingId":17257747,"photoId":"565-0","tags":[{"name":"sink","coordinates":[0.27653775215148924,0.7569497426350912,0.21233632564544677,0.18304452896118165]},{"name":"person","coordinates":[0.3785968542098999,0.37343263626098633,0.1027158260345459,0.302748966217041]},{"name":"bottle","coordinates":[0.11318104267120362,0.6852905909220378,0.0384731113910675,0.12752284208933512]},{"name":"bottle","coordinates":[0.5459133148193359,0.7561981836954753,0.029507902264595032,0.14912776947021483]},{"name":"bowl","coordinates":[0.041943123936653136,0.7075799306233724,0.06724475622177124,0.054148884614308675]}]}
