{"src":"https://a0.muscache.com/im/pictures/c39e41bf-f556-4d87-9ebd-32779f770fca.jpg?aki_policy=xx_large","name":"高教区青年旅舍，客人卧室","listingId":17257747,"photoId":"565-0","tags":[{"name":"sink","coordinates":[0.49162267049153646,0.7569497426350912,0.3774868011474609,0.18304452896118165]},{"name":"person","coordinates":[0.6730610741509332,0.37343263626098633,0.18260591295030382,0.302748966217041]},{"name":"bottle","coordinates":[0.2012107425265842,0.6852905909220378,0.0683966424730089,0.12752284208933512]},{"name":"bottle","coordinates":[0.9705125596788194,0.7561981836954753,0.05245849291483561,0.14912776947021483]},{"name":"bowl","coordinates":[0.07456555366516113,0.7075799306233724,0.11954623328314887,0.054148884614308675]}]}
