{"src":"https://a0.muscache.com/im/pictures/c39e41bf-f556-4d87-9ebd-32779f770fca.jpg?aki_policy=xx_large","name":"高教区青年旅舍，客人卧室","listingId":17257747,"photoId":"565-1","tags":[{"name":"sink","coordinates":[0.302879269917806,0.6654274781545003,0.3774868011474609,0.18304452896118165]},{"name":"person","coordinates":[0.5817581176757813,0.22205815315246583,0.18260591295030382,0.302748966217041]},{"name":"bottle","coordinates":[0.16701242129007973,0.6215291698773703,0.0683966424730089,0.12752284208933512]},{"name":"bottle","coordinates":[0.9442833132214017,0.6816342989603679,0.05245849291483561,0.14912776947021483]},{"name":"bowl","coordinates":[0.014792437023586694,0.680505488316218,0.11954623328314887,0.054148884614308675]}]}
