{"src":"https://a0.muscache.com/im/pictures/b082b391-62eb-4964-af0a-18b76b302ddc.jpg?aki_policy=xx_large","name":"高教区青年旅舍，客人卧室","listingId":17257747,"photoId":"565-5","tags":[{"name":"diningtable","coordinates":[0.6814965565999349,0.7309893925984701,0.619013680352105,0.4518360773722331]},{"name":"bottle","coordinates":[0.8667989095052083,0.6770029703776042,0.08484381569756402,0.21081660588582357]},{"name":"microwave","coordinates":[0.09506793551974826,0.19665029843648274,0.1869656244913737,0.09368936220804851]},{"name":"sink","coordinates":[0.0565597587161594,0.548756472269694,0.12446510526869033,0.05693881511688233]},{"name":"cup","coordinates":[0.976300048828125,0.6833689371744792,0.049241097768147786,0.13134363492329915]},{"name":"bowl","coordinates":[0.7720548841688368,0.5427565892537435,0.12113990783691406,0.051796448230743405]},{"name":"bowl","coordinates":[0.8989351060655382,0.5504646937052409,0.09830910364786784,0.05244496663411458]},{"name":"bowl","coordinates":[0.7745194329155816,0.5870365778605143,0.13807365629408094,0.03195486267407735]},{"name":"knife","coordinates":[0.3179327011108398,0.39163856506347655,0.023352048132154676,0.026046892007191975]}]}
