{"src":"https://a0.muscache.com/im/pictures/b082b391-62eb-4964-af0a-18b76b302ddc.jpg?aki_policy=xx_large","name":"高教区青年旅舍，客人卧室","listingId":17257747,"photoId":"565-5","tags":[{"name":"diningtable","coordinates":[0.3719897164238824,0.5050713539123535,0.619013680352105,0.4518360773722331]},{"name":"bottle","coordinates":[0.8243770016564264,0.5715946674346923,0.08484381569756402,0.21081660588582357]},{"name":"microwave","coordinates":[0.0015851232740614202,0.14980561733245848,0.1869656244913737,0.09368936220804851]},{"name":"sink","coordinates":[-0.005672793918185766,0.5202870647112529,0.12446510526869033,0.05693881511688233]},{"name":"cup","coordinates":[0.9516794999440511,0.6176971197128296,0.049241097768147786,0.13134363492329915]},{"name":"bowl","coordinates":[0.7114849302503798,0.5168583651383718,0.12113990783691406,0.051796448230743405]},{"name":"bowl","coordinates":[0.8497805542416043,0.5242422103881835,0.09830910364786784,0.05244496663411458]},{"name":"bowl","coordinates":[0.7054826047685411,0.5710591465234757,0.13807365629408094,0.03195486267407735]},{"name":"knife","coordinates":[0.3062566770447625,0.37861511905988054,0.023352048132154676,0.026046892007191975]}]}
