{"src":"https://a0.muscache.com/im/pictures/f68a08b3-2be4-4940-81de-c5184c79ae09.jpg?aki_policy=xx_large","name":"New appartment 3rd Right at square in hart centre","listingId":18504610,"photoId":"566-1","tags":[{"name":"diningtable","coordinates":[0.5117272853851318,0.8123502731323242,0.28899521827697755,0.35271377563476564]},{"name":"pottedplant","coordinates":[0.8161393165588379,0.6839566548665365,0.18571197986602783,0.2974706013997396]},{"name":"chair","coordinates":[0.37738471031188964,0.8146066029866537,0.10329605340957641,0.3612107594807943]},{"name":"chair","coordinates":[0.5101503372192383,0.9024286270141602,0.1813196063041687,0.19520579973856608]},{"name":"tvmonitor","coordinates":[0.30334556102752686,0.5256443659464518,0.16410462856292723,0.15606013933817545]}]}
