{"src":"https://a0.muscache.com/im/pictures/e3ce589c-1581-48f7-bab5-577c450b0025.jpg?aki_policy=xx_large","name":"City center of Helsinki - Old harbor was here!","listingId":17277680,"photoId":"567-1","tags":[{"name":"diningtable","coordinates":[0.18502127881852182,0.4725233236948648,0.5874750556875289,0.4865305264790853]},{"name":"chair","coordinates":[0.26539792327034717,0.6007578214009602,0.37626848203197205,0.30130163828531903]},{"name":"chair","coordinates":[0.6481814851602212,0.502678648630778,0.27201524547640366,0.27552916208902994]},{"name":"chair","coordinates":[0.08330652233412877,0.462004280090332,0.21868601744364458,0.26919542948404945]},{"name":"pottedplant","coordinates":[0.2249603412508303,0.31231695016225175,0.12117455671102415,0.11438040733337403]},{"name":"microwave","coordinates":[0.2820797072320681,0.1887763500213623,0.11009719764018455,0.11694790522257487]},{"name":"bowl","coordinates":[0.32600057675966276,0.39034990866978964,0.08611239082491552,0.037122066815694174]}]}
