{"src":"https://a0.muscache.com/im/pictures/bb6b51e2-f301-42c1-9452-1f8ab15fa735.jpg?aki_policy=xx_large","name":"Luxury Apartments Delft Family House J49","listingId":18511860,"photoId":"567-1","tags":[{"name":"diningtable","coordinates":[1.172167376546606,0.7578763961791992,0.6790694593450459,0.21678069432576497]},{"name":"chair","coordinates":[1.1640278274464495,0.8700650533040365,0.48615834410761444,0.20372600555419923]},{"name":"chair","coordinates":[1.4432013904171557,0.8248835245768229,0.13106477167311595,0.33497708638509116]},{"name":"chair","coordinates":[0.844609841121381,0.8351526260375977,0.12470872189517312,0.3233798027038574]},{"name":"chair","coordinates":[1.4501809849985328,0.7225047429402669,0.11486768647911776,0.11614154974619548]},{"name":"chair","coordinates":[1.3988849001124803,0.6601943969726562,0.09594157044316681,0.0657634417215983]},{"name":"chair","coordinates":[1.1559591517202172,0.605988883972168,0.15575026868841085,0.03817179997762044]},{"name":"chair","coordinates":[0.9327609400980535,0.6665143966674805,0.07293628340409208,0.07176446119944255]},{"name":"cup","coordinates":[0.28341276022563333,0.5251814842224121,0.04618345030783114,0.05615949233373006]},{"name":"wine-glass","coordinates":[0.36876108948613556,0.5209382692972819,0.039706894302965146,0.06381471554438273]}]}
