{"src":"https://a0.muscache.com/im/pictures/e3ce589c-1581-48f7-bab5-577c450b0025.jpg?aki_policy=xx_large","name":"City center of Helsinki - Old harbor was here!","listingId":17277680,"photoId":"567-1","tags":[{"name":"diningtable","coordinates":[0.47875880666228626,0.7157885869344075,0.5874750556875289,0.4865305264790853]},{"name":"chair","coordinates":[0.4535321642863332,0.7514086405436198,0.37626848203197205,0.30130163828531903]},{"name":"chair","coordinates":[0.7841891078984231,0.640443229675293,0.27201524547640366,0.27552916208902994]},{"name":"chair","coordinates":[0.19264953105595106,0.5966019948323568,0.21868601744364458,0.26919542948404945]},{"name":"pottedplant","coordinates":[0.2855476196063424,0.3695071538289388,0.12117455671102415,0.11438040733337403]},{"name":"microwave","coordinates":[0.3371283060521604,0.24725030263264974,0.11009719764018455,0.11694790522257487]},{"name":"bowl","coordinates":[0.3690567721721205,0.40891094207763673,0.08611239082491552,0.037122066815694174]}]}
