{"src":"https://z0.muscache.cn/im/pictures/fd8f0708-056d-43b6-9262-0b6ca79791a2.jpg?aki_policy=xx_large","name":"Basic 2 bedroom apartment 5 min. from the beach","listingId":18516118,"photoId":"568-2","tags":[{"name":"sofa","coordinates":[0.6982583999633789,0.6151220957438152,0.6164104461669921,0.47544174194335936]},{"name":"diningtable","coordinates":[0.13968039751052858,0.5694040934244792,0.23588209152221679,0.3068277676900228]},{"name":"chair","coordinates":[0.21717214584350586,0.524320411682129,0.07884353399276733,0.25986010233561196]},{"name":"chair","coordinates":[0.20689024925231933,0.43064905802408854,0.041479292511940005,0.04804614782333374]},{"name":"remote","coordinates":[0.7013104438781739,0.6502458572387695,0.06787235736846924,0.02858050266901652]}]}
