{"src":"https://a0.muscache.com/im/pictures/49a45795-f576-41d0-a2be-5bd57e7ded8e.jpg?aki_policy=xx_large","name":"2-bedroom apartment in the center","listingId":17290639,"photoId":"568-2","tags":[{"name":"diningtable","coordinates":[0.24061283535427516,0.8750586827596029,0.428583992852105,0.24871190388997397]},{"name":"refrigerator","coordinates":[0.5690189785427517,0.6996403376261393,0.13097510867648654,0.4970807393391927]},{"name":"oven","coordinates":[0.8266874525282119,0.8337159474690755,0.21212331983778213,0.29246180852254233]},{"name":"chair","coordinates":[0.08411689864264595,0.8766563415527344,0.1707789421081543,0.18250892957051595]},{"name":"vase","coordinates":[0.21389999389648437,0.9104564666748047,0.04374374548594157,0.1827451229095459]}]}
