{"src":"https://a0.muscache.com/im/pictures/1254f7e0-f1a9-43d1-81cf-ccd830f997c9.jpg?aki_policy=xx_large","name":"2-bedroom apartment in the center","listingId":17290639,"photoId":"568-4","tags":[{"name":"diningtable","coordinates":[0.4714416927761501,0.7304678440093995,0.4947766621907552,0.2839229901631673]},{"name":"chair","coordinates":[0.45773920483059355,0.7236329237620036,0.09770103030734592,0.2690053621927897]},{"name":"sink","coordinates":[0.09473972320556641,0.7050788958867391,0.14081257714165582,0.07113760312398275]},{"name":"chair","coordinates":[0.5633140193091498,0.6952816685040792,0.07735094494289822,0.10538825194040934]},{"name":"vase","coordinates":[0.6819061994552612,0.7384786287943521,0.03937261899312337,0.14684823354085286]}]}
