{"src":"https://a0.muscache.com/im/pictures/1254f7e0-f1a9-43d1-81cf-ccd830f997c9.jpg?aki_policy=xx_large","name":"2-bedroom apartment in the center","listingId":17290639,"photoId":"568-4","tags":[{"name":"diningtable","coordinates":[0.7188300238715277,0.8724293390909831,0.4947766621907552,0.2839229901631673]},{"name":"chair","coordinates":[0.5065897199842665,0.8581356048583985,0.09770103030734592,0.2690053621927897]},{"name":"sink","coordinates":[0.16514601177639432,0.7406476974487305,0.14081257714165582,0.07113760312398275]},{"name":"chair","coordinates":[0.6019894917805989,0.7479757944742839,0.07735094494289822,0.10538825194040934]},{"name":"vase","coordinates":[0.7015925089518229,0.8119027455647786,0.03937261899312337,0.14684823354085286]}]}
