{"src":"https://z0.muscache.cn/im/pictures/5e6529af-6d78-4000-acb1-2f33507a1925.jpg?aki_policy=xx_large","name":"Basic 2 bedroom apartment 5 min. from the beach","listingId":18516118,"photoId":"568-0","tags":[{"name":"chair","coordinates":[0.32590675354003906,0.7283671696980795,0.2387094020843506,0.24746441841125488]},{"name":"pottedplant","coordinates":[0.7662586688995361,0.6109895706176758,0.11069390773773194,0.24782090187072753]},{"name":"tvmonitor","coordinates":[0.505717658996582,0.3769778887430827,0.17388806343078614,0.154917844136556]},{"name":"sofa","coordinates":[0.8894745826721191,0.9299870173136393,0.21558105945587158,0.11724518934885661]},{"name":"pottedplant","coordinates":[0.14612020254135133,0.6446830749511718,0.1438870906829834,0.15479825337727865]},{"name":"remote","coordinates":[0.7732062816619873,0.8302497863769531,0.05495108366012573,0.03648702303568522]}]}
