{"src":"https://a0.muscache.com/im/pictures/49a45795-f576-41d0-a2be-5bd57e7ded8e.jpg?aki_policy=xx_large","name":"2-bedroom apartment in the center","listingId":17290639,"photoId":"568-2","tags":[{"name":"diningtable","coordinates":[0.02632083892822265,0.7507027308146159,0.428583992852105,0.24871190388997397]},{"name":"refrigerator","coordinates":[0.5035314242045085,0.45109996795654295,0.13097510867648654,0.4970807393391927]},{"name":"oven","coordinates":[0.7206257926093208,0.6874850432078043,0.21212331983778213,0.29246180852254233]},{"name":"chair","coordinates":[-0.0012725724114312081,0.7854018767674764,0.1707789421081543,0.18250892957051595]},{"name":"vase","coordinates":[0.1920281211535136,0.8190839052200318,0.04374374548594157,0.1827451229095459]}]}
