{"src":"https://a0.muscache.com/im/pictures/7d41f79b-d634-4e13-98e1-beab18655c47.jpg?aki_policy=xx_large","name":"Grazioso appartamento con terrazzo","listingId":11353955,"photoId":"57-10","tags":[{"name":"sink","coordinates":[0.3993040084838867,0.7840103069941202,0.3945230695936415,0.21144220034281414]},{"name":"pottedplant","coordinates":[0.6143661075168186,0.24132663408915203,0.16564068264431422,0.14405705134073893]},{"name":"sink","coordinates":[0.8535187297397189,0.47172833283742266,0.14540225134955512,0.14934449195861815]},{"name":"cup","coordinates":[0.37757391929626466,0.7703045248985291,0.06156104405721029,0.08609968026479085]},{"name":"toothbrush","coordinates":[0.958691194322374,0.3911611219247182,0.017194705539279515,0.03843244314193726]}]}
