{"src":"https://a0.muscache.com/im/pictures/25259205/159167f0_original.jpg?aki_policy=xx_large","name":"coco wa house..relax like at home","listingId":1733018,"photoId":"574-9","tags":[{"name":"diningtable","coordinates":[0.3958648257785373,0.7455702463785807,0.27381714714898003,0.2733055432637533]},{"name":"tvmonitor","coordinates":[0.9260854085286458,0.5111856460571289,0.1342826313442654,0.20435845057169597]},{"name":"person","coordinates":[0.029383685853746202,0.8212733586629232,0.06311033566792806,0.3539857864379883]},{"name":"pottedplant","coordinates":[0.8156265258789063,0.5802140553792318,0.0925948354932997,0.21837037404378254]},{"name":"pottedplant","coordinates":[0.763088141547309,0.15988162358601887,0.10900953080919054,0.13328896363576254]},{"name":"pottedplant","coordinates":[0.7399481879340277,0.6520240783691407,0.03834782441457112,0.08350710074106853]},{"name":"pottedplant","coordinates":[0.6569566514756945,0.6059333165486653,0.0411004728741116,0.07072892983754477]},{"name":"book","coordinates":[0.06923696200052896,0.5074227333068848,0.059242894914415145,0.0446483572324117]},{"name":"clock","coordinates":[0.8883758544921875,0.1591692606608073,0.02911746237013075,0.05101023117701212]},{"name":"book","coordinates":[0.10979079140557182,0.5769866943359375,0.01265357732772827,0.0825285275777181]},{"name":"book","coordinates":[0.124586730533176,0.5798166275024415,0.01505247089597914,0.06651390393575032]}]}
