{"src":"https://a0.muscache.com/im/pictures/25259241/a48288c7_original.jpg?aki_policy=xx_large","name":"coco wa house..relax like at home","listingId":1733018,"photoId":"574-10","tags":[{"name":"toilet","coordinates":[0.426279534233941,0.7357088088989258,0.25232338375515406,0.4730026880900065]},{"name":"pottedplant","coordinates":[0.7843043009440104,0.5376238505045573,0.06403568585713705,0.08883200486501058]},{"name":"bottle","coordinates":[0.840537601047092,0.507654857635498,0.03939737478892009,0.14220868746439616]},{"name":"vase","coordinates":[0.7862435234917535,0.5648894627888997,0.0448932859632704,0.041944479942321776]},{"name":"bottle","coordinates":[0.48988410101996527,0.35846048990885415,0.016914867030249702,0.06397942304611207]}]}
