{"src":"https://a0.muscache.com/im/pictures/25259241/a48288c7_original.jpg?aki_policy=xx_large","name":"coco wa house..relax like at home","listingId":1733018,"photoId":"574-10","tags":[{"name":"toilet","coordinates":[0.30011784235636396,0.49920746485392253,0.25232338375515406,0.4730026880900065]},{"name":"pottedplant","coordinates":[0.7522864580154418,0.493207848072052,0.06403568585713705,0.08883200486501058]},{"name":"bottle","coordinates":[0.820838913652632,0.4365505139032999,0.03939737478892009,0.14220868746439616]},{"name":"vase","coordinates":[0.7637968805101183,0.5439172228177388,0.0448932859632704,0.041944479942321776]},{"name":"bottle","coordinates":[0.4814266675048404,0.32647077838579813,0.016914867030249702,0.06397942304611207]}]}
