{"src":"https://a0.muscache.com/im/pictures/25259180/1d0344ed_original.jpg?aki_policy=xx_large","name":"coco wa house..relax like at home","listingId":1733018,"photoId":"574-4","tags":[{"name":"chair","coordinates":[0.2762729856703017,0.6042968114217122,0.45820944044325085,0.6009880701700846]},{"name":"chair","coordinates":[0.265591918097602,0.8613683064778646,0.480542967054579,0.2800996462504069]},{"name":"chair","coordinates":[0.1809353298611111,0.5140973409016927,0.273127195570204,0.4435731569925944]},{"name":"tvmonitor","coordinates":[0.42573992411295575,0.3696253458658854,0.4669366200764974,0.22362221082051595]},{"name":"sofa","coordinates":[0.42573992411295575,0.3696253458658854,0.4669366200764974,0.22362221082051595]},{"name":"tvmonitor","coordinates":[0.7241322835286458,0.39488232930501305,0.11044425964355468,0.40252434412638344]},{"name":"pottedplant","coordinates":[0.6094214969211155,0.483739693959554,0.12212319903903537,0.17886101404825847]},{"name":"bottle","coordinates":[0.8949937608506945,0.4268179893493652,0.01464616060256958,0.05639284451802572]}]}
