{"src":"https://a0.muscache.com/im/pictures/25259180/1d0344ed_original.jpg?aki_policy=xx_large","name":"coco wa house..relax like at home","listingId":1733018,"photoId":"574-4","tags":[{"name":"chair","coordinates":[0.04716826544867625,0.3038027763366699,0.45820944044325085,0.6009880701700846]},{"name":"chair","coordinates":[0.025320434570312522,0.7213184833526611,0.480542967054579,0.2800996462504069]},{"name":"chair","coordinates":[0.04437173207600911,0.29231076240539544,0.273127195570204,0.4435731569925944]},{"name":"tvmonitor","coordinates":[0.19227161407470705,0.25781424045562745,0.4669366200764974,0.22362221082051595]},{"name":"sofa","coordinates":[0.19227161407470705,0.25781424045562745,0.4669366200764974,0.22362221082051595]},{"name":"tvmonitor","coordinates":[0.6689101537068685,0.19362015724182133,0.11044425964355468,0.40252434412638344]},{"name":"pottedplant","coordinates":[0.5483598974015977,0.39430918693542477,0.12212319903903537,0.17886101404825847]},{"name":"bottle","coordinates":[0.8876706805494097,0.39862156709035235,0.01464616060256958,0.05639284451802572]}]}
