{"src":"https://a0.muscache.com/im/pictures/25259186/7a4be64c_original.jpg?aki_policy=xx_large","name":"coco wa house..relax like at home","listingId":1733018,"photoId":"574-3","tags":[{"name":"diningtable","coordinates":[0.2016078101264106,0.8060678482055664,0.3409257888793945,0.3748768170674642]},{"name":"refrigerator","coordinates":[0.975620354546441,0.473338254292806,0.0434634976916843,0.975327746073405]},{"name":"oven","coordinates":[0.583256827460395,0.6301955540974935,0.10308038923475478,0.2017677942911784]},{"name":"microwave","coordinates":[0.9126141018337673,0.37751359939575196,0.11652188830905491,0.07752664883931477]},{"name":"chair","coordinates":[0.18064651489257813,0.6098868052164713,0.07500383059183756,0.056872363885243735]},{"name":"pottedplant","coordinates":[0.4735998365614149,0.6241602579752604,0.03752201928032769,0.09560306866963704]},{"name":"pottedplant","coordinates":[0.647122319539388,0.40807660420735675,0.04403480953640408,0.046487478415171306]},{"name":"bottle","coordinates":[0.739273918999566,0.5046417872111003,0.014776817957560221,0.04645803372065226]}]}
