{"src":"https://a0.muscache.com/im/pictures/25259249/e3051dff_original.jpg?aki_policy=xx_large","name":"coco wa house..relax like at home","listingId":1733018,"photoId":"574-11","tags":[{"name":"chair","coordinates":[0.6773806360032824,0.5941187063852946,0.16841411590576172,0.2976181983947754]},{"name":"diningtable","coordinates":[0.5092700004577636,0.6117513736089071,0.1481309043036567,0.2546912988026937]},{"name":"chair","coordinates":[0.36482206450568305,0.586276912689209,0.12937050925360785,0.23464043935139975]},{"name":"pottedplant","coordinates":[0.8668233341640896,0.68068767786026,0.09037744734022353,0.12511006196339924]},{"name":"cat","coordinates":[0.05931248664855957,0.7056803345680236,0.09772545496622721,0.06977895895640056]}]}
