{"src":"https://a0.muscache.com/im/pictures/25259205/159167f0_original.jpg?aki_policy=xx_large","name":"coco wa house..relax like at home","listingId":1733018,"photoId":"574-9","tags":[{"name":"diningtable","coordinates":[0.2589562522040473,0.6089174747467041,0.27381714714898003,0.2733055432637533]},{"name":"tvmonitor","coordinates":[0.8589440928565132,0.4090064207712809,0.1342826313442654,0.20435845057169597]},{"name":"person","coordinates":[-0.00217148198021783,0.644280465443929,0.06311033566792806,0.3539857864379883]},{"name":"pottedplant","coordinates":[0.7693291081322564,0.4710288683573405,0.0925948354932997,0.21837037404378254]},{"name":"pottedplant","coordinates":[0.7085833761427137,0.0932371417681376,0.10900953080919054,0.13328896363576254]},{"name":"pottedplant","coordinates":[0.7207742757267421,0.6102705279986064,0.03834782441457112,0.08350710074106853]},{"name":"pottedplant","coordinates":[0.6364064150386387,0.5705688516298929,0.0411004728741116,0.07072892983754477]},{"name":"book","coordinates":[0.03961551454332139,0.485098554690679,0.059242894914415145,0.0446483572324117]},{"name":"clock","coordinates":[0.8738171233071221,0.13366414507230123,0.02911746237013075,0.05101023117701212]},{"name":"book","coordinates":[0.1034640027417077,0.5357224305470785,0.01265357732772827,0.0825285275777181]},{"name":"book","coordinates":[0.11706049508518643,0.5465596755345663,0.01505247089597914,0.06651390393575032]}]}
