{"src":"https://a0.muscache.com/im/pictures/30751841/3a3bac13_original.jpg?aki_policy=xx_large","name":"2-room apartment on the 1st (2nd in English)","listingId":1858616,"photoId":"574-1","tags":[{"name":"chair","coordinates":[0.246102417839898,0.7462823232014973,0.3977405548095703,0.46747023264567056]},{"name":"bowl","coordinates":[0.8806550767686632,0.7370937983194987,0.09674487643771701,0.10475394725799561]},{"name":"book","coordinates":[0.7560564676920573,0.6935267766316732,0.12550695207383897,0.05918498039245605]},{"name":"pottedplant","coordinates":[0.4285533905029297,0.5692023595174154,0.064815796746148,0.10812261899312338]},{"name":"bowl","coordinates":[0.6362825181749132,0.6247676849365235,0.05754924880133735,0.06078950961430867]}]}
