{"src":"https://a0.muscache.com/im/pictures/1214713/a2100318_original.jpg?aki_policy=xx_large","name":"Cosy room in The Hague near Centre","listingId":186013,"photoId":"575-9","tags":[{"name":"diningtable","coordinates":[0.3655917273627387,0.8315745035807292,0.6180865817599827,0.3165692965189616]},{"name":"pottedplant","coordinates":[0.9161039564344619,0.6483555475870768,0.1605439927842882,0.7292983373006184]},{"name":"pottedplant","coordinates":[0.7195789761013455,0.5356469472249349,0.13956048753526476,0.37869208653767905]},{"name":"pottedplant","coordinates":[0.4689992268880208,0.5869482040405274,0.1253024525112576,0.41357625325520836]},{"name":"chair","coordinates":[0.47407879299587674,0.7045836130777995,0.13094238705105252,0.20441703796386718]},{"name":"laptop","coordinates":[0.2251361846923828,0.6369496663411458,0.14371928109063042,0.1565091133117676]},{"name":"chair","coordinates":[0.5652495490180122,0.8352593104044597,0.11052778032090929,0.14350156784057616]},{"name":"vase","coordinates":[0.7234564039442274,0.6866885503133138,0.07071449491712782,0.10147590637207031]},{"name":"chair","coordinates":[0.3805644989013672,0.6784703572591145,0.07877251307169596,0.08676456610361735]},{"name":"pottedplant","coordinates":[0.7726286994086371,0.7401896794637044,0.07029680146111382,0.06956813335418702]},{"name":"bowl","coordinates":[0.7726286994086371,0.7401896794637044,0.07029680146111382,0.06956813335418702]},{"name":"bowl","coordinates":[0.6102266947428385,0.6635293324788412,0.05297844674852159,0.05593212842941284]},{"name":"pottedplant","coordinates":[0.6102266947428385,0.6635293324788412,0.05297844674852159,0.05593212842941284]}]}
