{"src":"https://a0.muscache.com/im/pictures/1caa95d8-44e3-4f06-8aa7-ea4926810fe5.jpg?aki_policy=xx_large","name":"Сдам 1-квартиру на Западной поляне по ул. Мира,67","listingId":17354664,"photoId":"577-4","tags":[{"name":"refrigerator","coordinates":[0.0016359435187445759,0.3877487818400065,0.1177885267469618,0.5986376444498698]},{"name":"microwave","coordinates":[0.11439232296413845,0.5648561398188273,0.21212777031792535,0.19135197003682455]},{"name":"oven","coordinates":[0.37200900183783636,0.5983616550763448,0.24278221130371094,0.11566072305043539]},{"name":"chair","coordinates":[0.9430962827470568,0.771105686823527,0.0571790165371365,0.22359406153361003]},{"name":"bottle","coordinates":[0.641562717490726,0.44121787548065183,0.02975993421342638,0.13433270454406737]},{"name":"bottle","coordinates":[0.7295120418071747,0.48538337548573807,0.017154742611779107,0.07139175732930501]}]}
