{"src":"https://a0.muscache.com/im/pictures/b734a56a-23ec-4298-9678-a613ff067cc8.jpg?aki_policy=xx_large","name":"Beautiful fully furnished apartment near the beach","listingId":18626191,"photoId":"577-3","tags":[{"name":"diningtable","coordinates":[0.7858822822570801,0.7692476908365885,0.39541614055633545,0.40680278142293297]},{"name":"chair","coordinates":[0.7034027576446533,0.7271170298258464,0.17011616230010987,0.45796273549397787]},{"name":"pottedplant","coordinates":[0.9060223579406739,0.21959026654561362,0.07109787464141845,0.2973248799641927]},{"name":"chair","coordinates":[0.31643450260162354,0.5875156402587891,0.10630379915237427,0.13217449188232422]},{"name":"microwave","coordinates":[0.8610209465026856,0.4583604176839193,0.11510815620422363,0.09553616841634115]},{"name":"bottle","coordinates":[0.07376790642738343,0.16179324785868326,0.023275242745876314,0.10648478666941324]}]}
