{"src":"https://a0.muscache.com/im/pictures/1caa95d8-44e3-4f06-8aa7-ea4926810fe5.jpg?aki_policy=xx_large","name":"Сдам 1-квартиру на Западной поляне по ул. Мира,67","listingId":17354664,"photoId":"577-4","tags":[{"name":"refrigerator","coordinates":[0.06053020689222548,0.6870676040649414,0.1177885267469618,0.5986376444498698]},{"name":"microwave","coordinates":[0.22045620812310113,0.6605321248372396,0.21212777031792535,0.19135197003682455]},{"name":"oven","coordinates":[0.4934001074896918,0.6561920166015625,0.24278221130371094,0.11566072305043539]},{"name":"chair","coordinates":[0.971685791015625,0.882902717590332,0.0571790165371365,0.22359406153361003]},{"name":"bottle","coordinates":[0.6564426845974393,0.5083842277526855,0.02975993421342638,0.13433270454406737]},{"name":"bottle","coordinates":[0.7380894131130642,0.5210792541503906,0.017154742611779107,0.07139175732930501]}]}
