{"src":"https://a0.muscache.com/im/pictures/574f636d-de85-4c66-9424-b15025df0548.jpg?aki_policy=xx_large","name":"Charming city house quiet &amp; central","listingId":11328245,"photoId":"58-3","tags":[{"name":"pottedplant","coordinates":[0.08125172721015082,0.5280718803405762,0.17905748155381945,0.6705902099609375]},{"name":"diningtable","coordinates":[0.8624271816677518,0.8458211263020833,0.26903529696994355,0.30236889521280924]},{"name":"sofa","coordinates":[0.24465709262424046,0.4822429656982422,0.13400677575005426,0.1756438414255778]},{"name":"chair","coordinates":[0.8111915588378906,0.6846877415974935,0.12813711166381836,0.17407581011454265]},{"name":"chair","coordinates":[0.9430116441514756,0.655763308207194,0.09983799192640516,0.15746150016784669]}]}
