{"src":"https://a0.muscache.com/im/pictures/b6f50964-0ba2-4604-b0e6-bf5a2db687a5.jpg?aki_policy=xx_large","name":"7min Yokohama station City Central near Pacifico","listingId":17395441,"photoId":"582-3","tags":[{"name":"bed","coordinates":[0.28237989316895207,0.552065102259318,0.4439417556529251,0.31071494420369467]},{"name":"sofa","coordinates":[0.7173687400340371,0.5762224356333414,0.2764013765252847,0.3255948066711426]},{"name":"sofa","coordinates":[0.04009377342935068,0.5592660824457805,0.23850376516456231,0.17562384605407716]},{"name":"vase","coordinates":[0.6014921350174056,0.6663723746935527,0.061706357274168226,0.09483322302500406]},{"name":"book","coordinates":[0.6501024880230178,0.7521317680676778,0.06702878843262398,0.053410998980204266]}]}
