{"src":"https://a0.muscache.com/im/pictures/b6f50964-0ba2-4604-b0e6-bf5a2db687a5.jpg?aki_policy=xx_large","name":"7min Yokohama station City Central near Pacifico","listingId":17395441,"photoId":"582-3","tags":[{"name":"bed","coordinates":[0.5043507709954146,0.7074225743611654,0.4439417556529251,0.31071494420369467]},{"name":"sofa","coordinates":[0.8555694282966794,0.7390198389689128,0.2764013765252847,0.3255948066711426]},{"name":"sofa","coordinates":[0.15934565601163184,0.647078005472819,0.23850376516456231,0.17562384605407716]},{"name":"vase","coordinates":[0.6323453136544898,0.7137889862060547,0.061706357274168226,0.09483322302500406]},{"name":"book","coordinates":[0.6836168822393298,0.7788372675577799,0.06702878843262398,0.053410998980204266]}]}
