{"src":"https://a0.muscache.com/im/pictures/d9d2469a-986f-4b5b-b0ee-c0e0392f89c0.jpg?aki_policy=xx_large","name":"Great apartment near city center and beach","listingId":18710650,"photoId":"583-2","tags":[{"name":"diningtable","coordinates":[0.5715447743733724,0.8426069259643555,0.36682896084255645,0.26890748341878257]},{"name":"pottedplant","coordinates":[0.7158084445529513,0.6371766408284505,0.11994875801934136,0.3631069501241048]},{"name":"sofa","coordinates":[0.3638629489474826,0.6536498387654622,0.12012375725640191,0.1475035031636556]},{"name":"chair","coordinates":[0.6283093770345052,0.6601478576660156,0.08021415074666341,0.15735149383544922]},{"name":"chair","coordinates":[0.4966080559624566,0.6617741902669271,0.06687379413180881,0.11442787647247314]},{"name":"pottedplant","coordinates":[0.4345875210232205,0.6054437637329102,0.038590558369954425,0.07954920132954915]},{"name":"chair","coordinates":[0.4076352013481988,0.8317941665649414,0.03341370423634847,0.0867454210917155]},{"name":"vase","coordinates":[0.5929644266764323,0.7718250274658203,0.042539887958102755,0.06622578303019205]}]}
