{"src":"https://a0.muscache.com/im/pictures/936e8ac3-05e0-422c-a3b8-2172ab12c71b.jpg?aki_policy=xx_large","name":"FEMALE ONLY Cosy bedroom in spacious apartment","listingId":18719507,"photoId":"584-2","tags":[{"name":"diningtable","coordinates":[1.5290365713614005,0.8245841344197591,1.12038415979456,0.35555044809977215]},{"name":"chair","coordinates":[0.46536447030526623,0.8292139053344727,0.8076686717845776,0.31319850285847983]},{"name":"chair","coordinates":[1.910247802734375,0.597443962097168,0.581311430754485,0.3325675010681152]},{"name":"pottedplant","coordinates":[0.6830655698423033,0.3962892532348633,0.18389542191116898,0.2721469243367513]},{"name":"vase","coordinates":[1.5079846417462384,0.7126317977905273,0.23447292469165942,0.19243412017822265]},{"name":"chair","coordinates":[1.257308507848669,0.4011694590250651,0.2039785597059462,0.20735665957132976]},{"name":"bowl","coordinates":[1.7228522406684028,0.8523235956827799,0.32598698933919273,0.11284283796946208]},{"name":"book","coordinates":[2.422386565031829,0.5675253550211589,0.12081288938169125,0.08233493169148763]}]}
