{"src":"https://a0.muscache.com/im/pictures/df922c9b-e245-4e11-9588-46d0b44f10c0.jpg?aki_policy=xx_large","name":"Apartment at top location &amp; ground floor + garden","listingId":18751837,"photoId":"586-1","tags":[{"name":"diningtable","coordinates":[0.8777501443944552,0.6998639424641927,0.21626461043895914,0.28417838414510094]},{"name":"chair","coordinates":[0.5263143695282101,0.6458440144856771,0.09126690222595453,0.19240616162618002]},{"name":"microwave","coordinates":[0.06341927969965953,0.36357342402140297,0.10961956810858463,0.13365003267923992]},{"name":"chair","coordinates":[0.5591495736563716,0.639615249633789,0.07286688066178258,0.1834173043568929]},{"name":"bottle","coordinates":[0.05208519961583475,0.48984238306681316,0.014566371041976988,0.060997382799784346]},{"name":"clock","coordinates":[0.07483728312332806,0.22761980692545572,0.02330319593852596,0.028805774450302125]}]}
