{"src":"https://a0.muscache.com/im/pictures/106abec3-0a24-4de0-9d68-8dc04099c401.jpg?aki_policy=xx_large","name":"Apartment at top location &amp; ground floor + garden","listingId":18751837,"photoId":"586-5","tags":[{"name":"chair","coordinates":[0.40837345123291013,0.7738520940144856,0.462520170211792,0.4363439877827962]},{"name":"chair","coordinates":[0.1722474217414856,0.7447025299072265,0.3588139057159424,0.46358604431152345]},{"name":"pottedplant","coordinates":[0.1799478530883789,0.42055848439534504,0.15697290897369384,0.30710121790568035]},{"name":"wine-glass","coordinates":[0.6024914741516113,0.5087862014770508,0.052673763036727904,0.187733523050944]},{"name":"wine-glass","coordinates":[0.7186863422393799,0.4779712041219076,0.05227718949317932,0.17157832781473795]},{"name":"bottle","coordinates":[0.5485758304595947,0.4347802797953288,0.04151618182659149,0.21288441022237142]}]}
