{"src":"https://a0.muscache.com/im/pictures/e0cf7cf1-b41c-42cb-b0e6-9b8896280725.jpg?aki_policy=xx_large","name":"Apartment at top location &amp; ground floor + garden","listingId":18751837,"photoId":"586-4","tags":[{"name":"diningtable","coordinates":[0.4178745611168531,0.8093779881795248,0.2848408383618069,0.35969680150349936]},{"name":"pottedplant","coordinates":[0.0710388777320951,0.5251311620076498,0.14633806874316027,0.6709667205810547]},{"name":"chair","coordinates":[0.5880844175583657,0.8180534362792968,0.1926162422862962,0.37787888844807943]},{"name":"pottedplant","coordinates":[0.44288049838886184,0.502955150604248,0.20246688902146157,0.3048240661621094]},{"name":"bottle","coordinates":[0.4469668139743434,0.6228462855021158,0.027677110011475558,0.11964385509490967]},{"name":"wine-glass","coordinates":[0.36716686204249754,0.6712621053059896,0.029179406073306786,0.1044068972269694]}]}
