{"src":"https://a0.muscache.com/im/pictures/7d687285-5a1a-4a6e-b991-15add4146d20.jpg?aki_policy=xx_large","name":"Huge house+playgarden and sauna 2min from beach","listingId":18752739,"photoId":"587-12","tags":[{"name":"diningtable","coordinates":[1.1704838222927518,0.7127845764160157,1.0916653951009114,0.520180098215739]},{"name":"dog","coordinates":[0.3683210160997179,0.8445823033650716,0.557421620686849,0.2922668139139811]},{"name":"teddy-bear","coordinates":[0.3683210160997179,0.8445823033650716,0.557421620686849,0.2922668139139811]},{"name":"chair","coordinates":[0.7698924594455295,0.892202885945638,0.43828548855251737,0.2009543736775716]},{"name":"pottedplant","coordinates":[0.7960714552137587,0.4240434010823568,0.29203480614556204,0.19963210423787434]},{"name":"pottedplant","coordinates":[1.2102752685546876,0.41991376876831055,0.26013543870713973,0.1886664867401123]},{"name":"chair","coordinates":[0.5975090874565973,0.5203487396240234,0.19252868228488498,0.2205641269683838]},{"name":"chair","coordinates":[0.8133606804741753,0.5379430770874023,0.28431067996554904,0.1458684762318929]},{"name":"chair","coordinates":[0.4035178714328342,0.6233312606811523,0.23915952046712238,0.17256401379903158]},{"name":"pottedplant","coordinates":[0.6726000467936198,0.21105662981669107,0.19133449130588107,0.14365590413411458]},{"name":"chair","coordinates":[1.1139644198947483,0.4912200927734375,0.19424124823676214,0.1153504212697347]},{"name":"vase","coordinates":[1.1962320963541666,0.5290632883707682,0.0947790887620714,0.16537171999613445]}]}
