{"src":"https://a0.muscache.com/im/pictures/8a748356-04f9-4137-a05d-548a175dd3ce.jpg?aki_policy=xx_large","name":"Paradise Island in Barra next to Subway Station","listingId":17430810,"photoId":"587-7","tags":[{"name":"refrigerator","coordinates":[0.03234524726867677,-0.029733626047770134,0.296993613243103,1.0176565806070963]},{"name":"chair","coordinates":[0.46975877285003664,0.5625254154205322,0.39467520713806153,0.43354546229044594]},{"name":"bottle","coordinates":[0.3823714703321457,0.29455497264862057,0.04520311951637268,0.21975242296854655]},{"name":"banana","coordinates":[0.5439684391021729,0.5251426378885904,0.08650360107421876,0.09008172353108725]},{"name":"bowl","coordinates":[0.47330218851566314,0.33897649447123207,0.07786404490470886,0.09549614588419596]}]}
