{"src":"https://a0.muscache.com/im/pictures/03e94cd1-135e-4a47-8020-aa8108cb2c4b.jpg?aki_policy=xx_large","name":"Huge house+playgarden and sauna 2min from beach","listingId":18752739,"photoId":"587-14","tags":[{"name":"diningtable","coordinates":[1.1720508151584201,0.7123899459838867,1.1002939012315538,0.5235050201416016]},{"name":"teddy-bear","coordinates":[0.36778136359320746,0.8446519851684571,0.5520849439832899,0.29498380025227866]},{"name":"dog","coordinates":[0.36778136359320746,0.8446519851684571,0.5520849439832899,0.29498380025227866]},{"name":"chair","coordinates":[0.7713138156467014,0.894339116414388,0.4332736968994141,0.20221274693806965]},{"name":"pottedplant","coordinates":[0.7970181783040364,0.4241511662801107,0.29063258700900607,0.19988786379496257]},{"name":"pottedplant","coordinates":[1.2108217027452257,0.4191730817159017,0.2599547915988498,0.1872321128845215]},{"name":"chair","coordinates":[0.597454833984375,0.5206964492797852,0.1919555875990126,0.2205958366394043]},{"name":"chair","coordinates":[0.40349710252549914,0.6237005869547526,0.2412541707356771,0.17282854715983073]},{"name":"chair","coordinates":[0.813554212782118,0.5383141199747722,0.2834064695570204,0.14675461451212565]},{"name":"pottedplant","coordinates":[0.6729032728407118,0.21260790824890136,0.19541958702935114,0.14678668975830078]},{"name":"chair","coordinates":[1.1126227484809028,0.49064757029215494,0.19505288865831164,0.11321778297424316]},{"name":"vase","coordinates":[1.1984615749782985,0.5289137840270997,0.09605529573228624,0.16498181025187175]}]}
