{"src":"https://a0.muscache.com/im/pictures/f8035cad-1a03-4e07-a2ca-141f8e932be1.jpg?aki_policy=xx_large","name":"Huge house+playgarden and sauna 2min from beach","listingId":18752739,"photoId":"587-11","tags":[{"name":"diningtable","coordinates":[0.5797301822238499,0.8211749394734701,0.9020036485460069,0.26656389236450195]},{"name":"dog","coordinates":[1.4352038913302951,0.8363520940144856,0.405292722913954,0.27696685791015624]},{"name":"chair","coordinates":[0.4849466959635417,0.8906927744547526,0.5319596184624567,0.19896998405456542]},{"name":"chair","coordinates":[1.1981901380750868,0.8896589914957682,0.3990604400634766,0.2250121275583903]},{"name":"chair","coordinates":[1.1253178066677518,0.8187479654947917,0.2513242933485243,0.18780666987101238]},{"name":"vase","coordinates":[0.4169832017686632,0.71429869333903,0.07774131562974718,0.14944308598836262]},{"name":"bottle","coordinates":[0.4169832017686632,0.71429869333903,0.07774131562974718,0.14944308598836262]},{"name":"pottedplant","coordinates":[1.0641777038574218,0.4653231938680013,0.06592491467793783,0.08148825168609619]},{"name":"vase","coordinates":[0.32892396714952254,0.7764906565348307,0.04353955586751302,0.046929272015889485]},{"name":"vase","coordinates":[1.0626797993977866,0.486489995320638,0.037317657470703126,0.035150734583536784]},{"name":"wine-glass","coordinates":[0.2579982545640733,0.2592791557312012,0.027783128950330947,0.035875336329142256]},{"name":"knife","coordinates":[1.5522518581814235,0.4315452257792155,0.02335861259036594,0.029224085807800292]},{"name":"knife","coordinates":[1.5352152506510417,0.4329449971516927,0.017608299520280625,0.028071870406468708]}]}
