{"src":"https://a0.muscache.com/im/pictures/81a96af4-3900-46b0-8edb-9a4c2642be06.jpg?aki_policy=xx_large","name":"Almira Homestay is Belitung Homestay for Bacpacker","listingId":17436932,"photoId":"588-4","tags":[{"name":"chair","coordinates":[0.7818960666656494,0.8009219487508138,0.19741954803466796,0.3827263832092285]},{"name":"sofa","coordinates":[0.10905529260635376,0.9349660873413086,0.21449556350708007,0.12141473293304443]},{"name":"chair","coordinates":[0.10905529260635376,0.9349660873413086,0.21449556350708007,0.12141473293304443]},{"name":"bicycle","coordinates":[0.04711368978023529,0.6720787684122721,0.08388631939888,0.18830358187357585]},{"name":"pottedplant","coordinates":[0.2770552635192871,0.675407600402832,0.08019704818725586,0.15456686019897461]},{"name":"pottedplant","coordinates":[0.3922684669494629,0.5853103001912435,0.038721710443496704,0.07498141129811604]}]}
