{"src":"https://a0.muscache.com/im/pictures/86249159/d8c2320a_original.jpg?aki_policy=xx_large","name":"Beautiful room in great location!","listingId":1878493,"photoId":"588-4","tags":[{"name":"diningtable","coordinates":[0.7100104861789279,0.6997885386149089,0.4677930196126302,0.3358520825703939]},{"name":"chair","coordinates":[0.9625968085394965,0.7720420201619466,0.3329910702175564,0.40993461608886717]},{"name":"chair","coordinates":[0.5546269310845269,0.714811134338379,0.2931652069091797,0.31882600784301757]},{"name":"pottedplant","coordinates":[0.5031784905327691,0.33573678334554036,0.2069914076063368,0.17248589197794598]},{"name":"bottle","coordinates":[0.6765068054199219,0.5091190338134766,0.03947485817803277,0.11638953685760497]},{"name":"wine-glass","coordinates":[0.6288944668240017,0.5204691251118978,0.04144210285610623,0.06418540477752685]}]}
