{"src":"https://a0.muscache.com/im/pictures/35605109/ff87bb65_original.jpg?aki_policy=xx_large","name":"Beautiful room in great location!","listingId":1878493,"photoId":"588-0","tags":[{"name":"bed","coordinates":[0.21147935655381944,0.7705036163330078,0.3249926037258572,0.33103504180908205]},{"name":"sink","coordinates":[0.9084615919325086,0.8915362040201823,0.16408414840698243,0.13586312929789227]},{"name":"bottle","coordinates":[0.08344112502204047,0.2847430229187012,0.0647875944773356,0.19628230730692545]},{"name":"bowl","coordinates":[0.8584648132324219,0.405165958404541,0.07466461393568251,0.07826432387034098]},{"name":"bowl","coordinates":[0.7774994744194879,0.34366350173950194,0.05705407990349664,0.07508941491444905]},{"name":"bowl","coordinates":[0.8399098714192709,0.33653990427652997,0.0564755121866862,0.07215262254079183]}]}
