{"src":"https://a0.muscache.com/im/pictures/81a96af4-3900-46b0-8edb-9a4c2642be06.jpg?aki_policy=xx_large","name":"Almira Homestay is Belitung Homestay for Bacpacker","listingId":17436932,"photoId":"588-4","tags":[{"name":"chair","coordinates":[0.6831862926483154,0.6095587571461996,0.19741954803466796,0.3827263832092285]},{"name":"sofa","coordinates":[0.0018075108528137207,0.8742587208747864,0.21449556350708007,0.12141473293304443]},{"name":"chair","coordinates":[0.0018075108528137207,0.8742587208747864,0.21449556350708007,0.12141473293304443]},{"name":"bicycle","coordinates":[0.005170530080795294,0.5779269774754842,0.08388631939888,0.18830358187357585]},{"name":"pottedplant","coordinates":[0.23695673942565917,0.5981241703033446,0.08019704818725586,0.15456686019897461]},{"name":"pottedplant","coordinates":[0.3729076117277145,0.5478195945421855,0.038721710443496704,0.07498141129811604]}]}
