{"src":"https://a0.muscache.com/im/pictures/81a96af4-3900-46b0-8edb-9a4c2642be06.jpg?aki_policy=xx_large","name":"Almira Homestay is Belitung Homestay for Bacpacker","listingId":17436932,"photoId":"588-4","tags":[{"name":"chair","coordinates":[1.0425280888875326,0.8009219487508138,0.26322606404622395,0.3827263832092285]},{"name":"sofa","coordinates":[0.14540705680847169,0.9349660873413086,0.28599408467610676,0.12141473293304443]},{"name":"chair","coordinates":[0.14540705680847169,0.9349660873413086,0.28599408467610676,0.12141473293304443]},{"name":"bicycle","coordinates":[0.06281825304031372,0.6720787684122721,0.11184842586517334,0.18830358187357585]},{"name":"pottedplant","coordinates":[0.3694070180257161,0.675407600402832,0.10692939758300782,0.15456686019897461]},{"name":"pottedplant","coordinates":[0.5230246225992838,0.5853103001912435,0.051628947257995605,0.07498141129811604]}]}
