{"src":"https://a0.muscache.com/im/pictures/789d1e7b-cb3f-4f61-8ff6-7b6375f3ada9.jpg?aki_policy=xx_large","name":"Cosy flat, sea sideview, 2 minutes walk to beach","listingId":18831911,"photoId":"591-4","tags":[{"name":"diningtable","coordinates":[0.4744465577535789,0.7998920440673828,0.9163477380848464,0.3978041330973307]},{"name":"chair","coordinates":[0.6504765089663713,0.921133550008138,0.2667050921051196,0.18782413800557454]},{"name":"chair","coordinates":[0.869736314485859,0.86730531056722,0.15620781456292007,0.23955292701721193]},{"name":"bowl","coordinates":[0.3332912295890254,0.667591921488444,0.25373593122599514,0.10982233683268229]},{"name":"book","coordinates":[0.3003076308266411,0.7762704849243164,0.1924806094036422,0.11897873083750407]},{"name":"vase","coordinates":[0.16852873264078322,0.6945767084757487,0.08094094452245275,0.17735209465026855]},{"name":"tvmonitor","coordinates":[0.5669586778353046,0.5206035931905111,0.08217766831041048,0.11427398522694905]},{"name":"chair","coordinates":[0.43353902294649094,0.6200004577636719,0.07577030885152977,0.053375097115834554]}]}
