{"src":"https://a0.muscache.com/im/pictures/da63c99b-36e6-43e5-8df5-8b97c85a531f.jpg?aki_policy=xx_large","name":"Cosy flat, sea sideview, 2 minutes walk to beach","listingId":18831911,"photoId":"591-16","tags":[{"name":"diningtable","coordinates":[1.017774572694935,0.8394766489664713,0.7163290125160402,0.3153036117553711]},{"name":"chair","coordinates":[1.4261005788609602,0.8651411056518554,0.15459005383477695,0.27271931966145835]},{"name":"microwave","coordinates":[0.9318261630293252,0.487317148844401,0.13866865001438897,0.10521248181660971]},{"name":"chair","coordinates":[0.7907972842598883,0.7493719100952149,0.15557074431635906,0.09313750267028809]},{"name":"chair","coordinates":[0.9886582231751962,0.704998524983724,0.1320196603231384,0.06950372060139974]},{"name":"wine-glass","coordinates":[1.143990705554612,0.7416261672973633,0.05720379502301055,0.10521449247996012]},{"name":"wine-glass","coordinates":[0.8960719454115715,0.740551249186198,0.04302515499833701,0.06232357819875081]}]}
