{"src":"https://a0.muscache.com/im/pictures/b7a4c34f-c868-4860-8676-373e03fc5557.jpg?aki_policy=xx_large","name":"Cosy flat, sea sideview, 2 minutes walk to beach","listingId":18831911,"photoId":"591-1","tags":[{"name":"sofa","coordinates":[0.7940797593858507,0.7575379689534505,0.4232685089111328,0.4372915585835775]},{"name":"chair","coordinates":[0.27873433430989586,0.7047224044799805,0.1601069132486979,0.4224171320597331]},{"name":"chair","coordinates":[0.3618889278835721,0.6978004455566407,0.13898278342352974,0.3942626635233561]},{"name":"chair","coordinates":[0.48157759772406683,0.6582036336263021,0.08712248272365994,0.2977712313334147]},{"name":"pottedplant","coordinates":[0.7875395033094618,0.7799600601196289,0.1205900510152181,0.18172577222188313]},{"name":"vase","coordinates":[0.7841161092122396,0.8121905008951823,0.07146778636508518,0.1034257729848226]},{"name":"cup","coordinates":[0.8228092617458768,0.8548329671223959,0.05902516576978895,0.09823541641235352]},{"name":"microwave","coordinates":[0.4120894114176432,0.42234958012898766,0.057498926586574975,0.06022862195968628]},{"name":"bowl","coordinates":[0.4350699954562717,0.4879949887593587,0.08439318868849012,0.030911922454833984]}]}
