{"src":"https://a0.muscache.com/im/pictures/48681d87-0c7d-47ff-b840-4de854755b36.jpg?aki_policy=xx_large","name":"Cosy flat, sea sideview, 2 minutes walk to beach","listingId":18831911,"photoId":"591-2","tags":[{"name":"sofa","coordinates":[0.20342739952935113,0.6861001968383789,0.3931300693088108,0.37570552825927733]},{"name":"chair","coordinates":[0.8685084872775608,0.7232330958048503,0.21217452155219185,0.39004106521606446]},{"name":"chair","coordinates":[0.6106588151719835,0.6574523289998372,0.14940871132744682,0.26976470947265624]},{"name":"pottedplant","coordinates":[0.38760253058539496,0.6270241419474284,0.04744403097364638,0.09213724136352539]},{"name":"vase","coordinates":[0.3685050116644965,0.451478385925293,0.026198434829711913,0.04741977055867513]}]}
