{"src":"https://a0.muscache.com/im/pictures/2aa5a6fa-3fe4-4295-8d7b-9cde2f8a9d99.jpg?aki_policy=xx_large","name":"수원영통(망포역) 삼성디지털시티근처 깨끗하고 환한 신축 수원 SB하우스2","listingId":17463826,"photoId":"592-3","tags":[{"name":"bed","coordinates":[0.049290127224392355,0.7236135562260946,0.924602762858073,0.26517980893452964]},{"name":"refrigerator","coordinates":[0.0116999626159668,0.4884959697723389,0.17823399437798393,0.46283222834269205]},{"name":"chair","coordinates":[0.21522403823004826,0.6444735527038574,0.11647647221883138,0.2210505803426107]},{"name":"tvmonitor","coordinates":[0.1916205671098497,0.48078660964965825,0.11849985122680665,0.11702925364176432]},{"name":"microwave","coordinates":[0.7337856822543675,0.48177322149276736,0.06409520043267145,0.05551153024037679]}]}
