{"src":"https://a0.muscache.com/im/pictures/ab375c8a-27df-45b7-9864-c15d99f02352.jpg?aki_policy=xx_large","name":"수원영통(망포역) 삼성디지털시티근처 깨끗하고 환한 신축 수원 SB하우스2","listingId":17463826,"photoId":"592-4","tags":[{"name":"bed","coordinates":[0.020757950676812076,0.7851657152175903,0.6317882961697049,0.20123038291931153]},{"name":"refrigerator","coordinates":[0.006400934855143231,0.5452192465464274,0.22575889163547092,0.3771023750305176]},{"name":"chair","coordinates":[0.24236307673984103,0.6031525532404581,0.16820433934529622,0.2371862570444743]},{"name":"microwave","coordinates":[0.04780609342787001,0.4337882121404012,0.15631569756401908,0.10490333239237468]},{"name":"tvmonitor","coordinates":[0.4093295044369168,0.48157919645309444,0.09532931645711264,0.1313671350479126]},{"name":"toilet","coordinates":[0.6839403245184157,0.5384215831756591,0.030710625648498534,0.12353270848592122]}]}
