{"src":"https://a0.muscache.com/im/pictures/2aa5a6fa-3fe4-4295-8d7b-9cde2f8a9d99.jpg?aki_policy=xx_large","name":"수원영통(망포역) 삼성디지털시티근처 깨끗하고 환한 신축 수원 SB하우스2","listingId":17463826,"photoId":"592-3","tags":[{"name":"bed","coordinates":[0.5115915086534288,0.8562034606933594,0.924602762858073,0.26517980893452964]},{"name":"refrigerator","coordinates":[0.10081695980495876,0.7199120839436849,0.17823399437798393,0.46283222834269205]},{"name":"chair","coordinates":[0.27346227433946396,0.7549988428751627,0.11647647221883138,0.2210505803426107]},{"name":"tvmonitor","coordinates":[0.250870492723253,0.5393012364705404,0.11849985122680665,0.11702925364176432]},{"name":"microwave","coordinates":[0.7658332824707031,0.5095289866129558,0.06409520043267145,0.05551153024037679]}]}
