{"src":"https://a0.muscache.com/im/pictures/ab375c8a-27df-45b7-9864-c15d99f02352.jpg?aki_policy=xx_large","name":"수원영통(망포역) 삼성디지털시티근처 깨끗하고 환한 신축 수원 SB하우스2","listingId":17463826,"photoId":"592-4","tags":[{"name":"bed","coordinates":[0.3366520987616645,0.8857809066772461,0.6317882961697049,0.20123038291931153]},{"name":"refrigerator","coordinates":[0.11928038067287869,0.7337704340616862,0.22575889163547092,0.3771023750305176]},{"name":"chair","coordinates":[0.32646524641248914,0.7217456817626953,0.16820433934529622,0.2371862570444743]},{"name":"microwave","coordinates":[0.12596394220987955,0.48623987833658855,0.15631569756401908,0.10490333239237468]},{"name":"tvmonitor","coordinates":[0.4569941626654731,0.5472627639770508,0.09532931645711264,0.1313671350479126]},{"name":"toilet","coordinates":[0.699295637342665,0.6001879374186198,0.030710625648498534,0.12353270848592122]}]}
