{"src":"https://a0.muscache.com/im/pictures/1e8cdd40-c472-4e80-bc4f-5304d528aec5.jpg?aki_policy=xx_large","name":"Spacious apartment near the beach! (+100m2)","listingId":18837571,"photoId":"592-3","tags":[{"name":"sofa","coordinates":[0.8053224872610423,0.7225627263387044,0.388173577505783,0.5207478523254394]},{"name":"sofa","coordinates":[0.07240708313840727,0.701890500386556,0.1532587871871181,0.5542685826619466]},{"name":"chair","coordinates":[0.07240708313840727,0.701890500386556,0.1532587871871181,0.5542685826619466]},{"name":"pottedplant","coordinates":[0.467054526899114,0.5304649988810222,0.1190787267418547,0.21373856862386068]},{"name":"tvmonitor","coordinates":[0.3932497674526449,0.3184928894042969,0.12075958038841546,0.15044589042663575]},{"name":"clock","coordinates":[0.1473430867967659,0.06740612983703613,0.1319236009480567,0.12389633655548096]},{"name":"vase","coordinates":[0.4649766037584017,0.5803757349650065,0.03941488265991211,0.09759753545125326]},{"name":"pottedplant","coordinates":[0.5743531381617711,0.48009510040283204,0.044446087416323866,0.08183557987213134]},{"name":"book","coordinates":[0.33299826510125696,0.5081618309020997,0.012909277857348906,0.06258456309636434]},{"name":"book","coordinates":[0.37703751718531775,0.48498204549153645,0.010177275987976755,0.061101309458414715]}]}
