{"src":"https://a0.muscache.com/im/pictures/ed265156-641f-4da9-acb7-e4f3a9376768.jpg?aki_policy=xx_large","name":"Beautiful, large family home near the beach","listingId":18849166,"photoId":"595-0","tags":[{"name":"diningtable","coordinates":[0.20794978671603734,0.7571927388509114,0.3385192447238498,0.322169558207194]},{"name":"chair","coordinates":[0.3150035434299045,0.8182634989420573,0.16586698955959744,0.39416910807291666]},{"name":"chair","coordinates":[0.1466163953145345,0.8768468856811523,0.165276124742296,0.23600689570109049]},{"name":"sink","coordinates":[0.8203865051269531,0.5701260884602865,0.13948873943752713,0.05259927113850912]},{"name":"chair","coordinates":[0.29537503984239366,0.5842692057291666,0.0659772237141927,0.036307044823964435]},{"name":"vase","coordinates":[0.8124874538845486,0.4591173807779948,0.021368916829427084,0.08643714586893718]}]}
