{"src":"https://a0.muscache.com/im/pictures/ff4f020e-e1e8-4e75-89b2-80f9cdc23b45.jpg?aki_policy=xx_large","name":"Beautiful, large family home near the beach","listingId":18849166,"photoId":"595-12","tags":[{"name":"sofa","coordinates":[0.4039937761094835,0.7001512527465821,0.3536779827541775,0.22728455861409505]},{"name":"chair","coordinates":[0.6462779574924045,0.7728978474934896,0.15115722020467123,0.3938534418741862]},{"name":"chair","coordinates":[0.14214031431410049,0.914779535929362,0.06423414018419053,0.14747487703959147]},{"name":"pottedplant","coordinates":[0.16076961093478734,0.3498346964518229,0.07178590562608507,0.1027918815612793]},{"name":"person","coordinates":[0.5875387403700086,0.2739415486653646,0.04150345590379503,0.09457894166310628]}]}
