{"src":"https://a0.muscache.com/im/pictures/ba0610df-5e4e-4632-be8c-c5994ec8f2a0.jpg?aki_policy=xx_large","name":"Beautiful, large family home near the beach","listingId":18849166,"photoId":"595-4","tags":[{"name":"sofa","coordinates":[0.9082089424133301,0.7016227722167969,0.7860977172851562,0.22247781753540039]},{"name":"chair","coordinates":[1.4537965774536132,0.7729235331217448,0.3361098289489746,0.3937127431233724]},{"name":"chair","coordinates":[0.320554518699646,0.9141908009847005,0.1436828851699829,0.14858833948771158]},{"name":"pottedplant","coordinates":[0.362704873085022,0.34935089747111003,0.16055949926376342,0.10206561883290609]},{"name":"person","coordinates":[1.3231696128845214,0.27448829015096027,0.09341849088668823,0.09420453707377116]}]}
