{"src":"https://a0.muscache.com/im/pictures/04bfb900-ce8a-4531-a1bf-cce04acbacc3.jpg?aki_policy=xx_large","name":"Tan An Palace Hotel &amp; Apartment","listingId":17499512,"photoId":"596-4","tags":[{"name":"toilet","coordinates":[0.7664126037640071,0.5719046115875244,0.21958565993637075,0.3018155733744303]},{"name":"chair","coordinates":[0.08395990155652797,0.4837709506352743,0.16623745534550904,0.21145183245340984]},{"name":"sink","coordinates":[0.5780481864711823,0.4785130143165588,0.13550568157140375,0.05736720561981201]},{"name":"vase","coordinates":[0.5600133966123835,0.42797657251358034,0.020851678695837768,0.06787167390187582]},{"name":"vase","coordinates":[0.21035999883952614,0.44219078222910563,0.02641358948814281,0.053447453180948894]}]}
