{"src":"https://a0.muscache.com/im/pictures/bc46a491-ca56-45e2-9519-6199f57b17b5.jpg?aki_policy=xx_large","name":"Tan An Palace Hotel &amp; Apartment","listingId":17499512,"photoId":"596-2","tags":[{"name":"sink","coordinates":[0.7793017103077223,0.6915675481160481,0.2601564790408921,0.1421658198038737]},{"name":"sofa","coordinates":[0.3234475608332609,0.54236265818278,0.18098344729955698,0.16220307350158691]},{"name":"pottedplant","coordinates":[0.7121428489022325,0.5192662556966146,0.07457058756114543,0.19052329063415527]},{"name":"pottedplant","coordinates":[0.47525624586029797,0.46527268091837565,0.04869028161680475,0.09039144515991211]},{"name":"vase","coordinates":[0.709094357043194,0.5651212692260742,0.02615515236393953,0.10069989363352458]},{"name":"vase","coordinates":[0.7677456641710824,0.5419745127360026,0.022286020773330275,0.0817790428797404]},{"name":"vase","coordinates":[0.4773872592865054,0.5030712445576986,0.019156297600211328,0.0585120956103007]},{"name":"toothbrush","coordinates":[0.8552740652417044,0.5755343119303385,0.011464538468181299,0.041105182965596516]}]}
