{"src":"https://a0.muscache.com/im/pictures/9d6b4e0e-c80a-4018-94fd-0b02161fcc8d.jpg?aki_policy=xx_large","name":"Tan An Palace Hotel &amp; Apartment","listingId":17499512,"photoId":"596-7","tags":[{"name":"sink","coordinates":[0.6496981408860948,0.6228306690851848,0.26068333519829645,0.13784518241882324]},{"name":"sofa","coordinates":[0.23378736707899306,0.45748155117034917,0.18024465772840711,0.1659720579783122]},{"name":"pottedplant","coordinates":[0.4516056034300063,0.42035441398620604,0.04766473240322537,0.08945029576619466]},{"name":"vase","coordinates":[0.6966056121720209,0.5136705994606019,0.025150948100619845,0.10101433595021565]},{"name":"vase","coordinates":[0.7564777599440681,0.496682604153951,0.02265018622080485,0.08632864952087402]},{"name":"vase","coordinates":[0.4676335036754608,0.4755752265453338,0.0186351736386617,0.05482666889826457]},{"name":"toothbrush","coordinates":[0.8498622566461562,0.5543204625447591,0.010236254665586683,0.04197362263997396]}]}
