{"src":"https://a0.muscache.com/im/pictures/9d6b4e0e-c80a-4018-94fd-0b02161fcc8d.jpg?aki_policy=xx_large","name":"Tan An Palace Hotel &amp; Apartment","listingId":17499512,"photoId":"596-7","tags":[{"name":"sink","coordinates":[0.780039808485243,0.6917532602945964,0.26068333519829645,0.13784518241882324]},{"name":"sofa","coordinates":[0.32390969594319663,0.5404675801595052,0.18024465772840711,0.1659720579783122]},{"name":"pottedplant","coordinates":[0.47543796963161894,0.4650795618693034,0.04766473240322537,0.08945029576619466]},{"name":"vase","coordinates":[0.7091810862223308,0.5641777674357097,0.025150948100619845,0.10101433595021565]},{"name":"vase","coordinates":[0.7678028530544705,0.539846928914388,0.02265018622080485,0.08632864952087402]},{"name":"vase","coordinates":[0.4769510904947917,0.5029885609944661,0.0186351736386617,0.05482666889826457]},{"name":"toothbrush","coordinates":[0.8549803839789496,0.5753072738647461,0.010236254665586683,0.04197362263997396]}]}
