{"src":"https://a0.muscache.com/im/pictures/9edeef7f-3be2-4708-bcad-2fbda919c1fa.jpg?aki_policy=xx_large","name":"新国际女神聚居地 Divas place@ City centre-Female only","listingId":10106290,"photoId":"6-4","tags":[{"name":"chair","coordinates":[0.2930713865492079,0.8146635055541992,0.15130573908487957,0.3597641626993815]},{"name":"chair","coordinates":[0.415384038289388,0.8046623865763346,0.15350386301676433,0.31321214040120443]},{"name":"tvmonitor","coordinates":[0.35089293585883247,0.30300572713216145,0.1564377572801378,0.1599653720855713]},{"name":"tvmonitor","coordinates":[0.2343936496310764,0.48651167551676433,0.12919991811116535,0.13061335881551106]},{"name":"clock","coordinates":[0.35675392150878904,0.06470195055007935,0.07314828766716851,0.11669363180796305]},{"name":"keyboard","coordinates":[0.2591519249810113,0.594265874226888,0.12527301576402453,0.03757549126942952]},{"name":"mouse","coordinates":[0.3999620649549696,0.5345528920491537,0.025443945990668404,0.02011945446332296]},{"name":"mouse","coordinates":[0.336213493347168,0.5816092809041341,0.02576972908443875,0.018702497084935505]}]}
