{"src":"https://a0.muscache.com/im/pictures/76e37170-ea55-4455-97fc-0dd89f546035.jpg?aki_policy=xx_large","name":"Студия с дизайнерским ремонтом","listingId":11387739,"photoId":"60-2","tags":[{"name":"chair","coordinates":[0.6739043647977289,0.7557811737060547,0.13886596159870698,0.4115055720011393]},{"name":"sink","coordinates":[0.14735461330481503,0.6271876017252604,0.20952671719748048,0.08733464082082112]},{"name":"microwave","coordinates":[0.44398003626242016,0.524895191192627,0.15096458938631122,0.09575526714324951]},{"name":"pottedplant","coordinates":[0.6748953955320706,0.40953922271728516,0.07029583878852189,0.16948404312133789]},{"name":"sink","coordinates":[0.34039910927658135,0.5893616994222005,0.1108780827735484,0.04961689313252767]},{"name":"vase","coordinates":[0.6634961162753947,0.4616845448811849,0.03027756625325059,0.06443542242050171]}]}
