{"src":"https://a0.muscache.com/im/pictures/d58e80fc-b995-432f-a556-00eea6a9f35d.jpg?aki_policy=xx_large","name":"Spacious central loft","listingId":11351023,"photoId":"60-2","tags":[{"name":"sofa","coordinates":[0.28831198024417465,0.6100664138793945,0.4084016700239547,0.2313384215037028]},{"name":"tvmonitor","coordinates":[0.5801198926121516,0.5385298411051432,0.07002627808042519,0.10834196408589682]},{"name":"clock","coordinates":[0.8021340612750436,0.2325564702351888,0.046257577291349085,0.08410770098368327]},{"name":"pottedplant","coordinates":[0.05195819708528419,0.580181630452474,0.04147169000180341,0.04494651953379313]},{"name":"vase","coordinates":[0.7837355557219077,0.5077841440836589,0.02439925562629301,0.06989647547403971]}]}
