{"src":"https://a0.muscache.com/im/pictures/76e37170-ea55-4455-97fc-0dd89f546035.jpg?aki_policy=xx_large","name":"Студия с дизайнерским ремонтом","listingId":11387739,"photoId":"60-2","tags":[{"name":"chair","coordinates":[0.6044713839983754,0.550028387705485,0.13886596159870698,0.4115055720011393]},{"name":"sink","coordinates":[0.04259125470607479,0.5835202813148499,0.20952671719748048,0.08733464082082112]},{"name":"microwave","coordinates":[0.36849774156926457,0.4770175576210022,0.15096458938631122,0.09575526714324951]},{"name":"pottedplant","coordinates":[0.6397474761378096,0.3247972011566162,0.07029583878852189,0.16948404312133789]},{"name":"sink","coordinates":[0.28496006788980716,0.5645532528559367,0.1108780827735484,0.04961689313252767]},{"name":"vase","coordinates":[0.6483573331487694,0.429466833670934,0.03027756625325059,0.06443542242050171]}]}
