{"src":"https://a0.muscache.com/im/pictures/76e37170-ea55-4455-97fc-0dd89f546035.jpg?aki_policy=xx_large","name":"Студия с дизайнерским ремонтом","listingId":11387739,"photoId":"60-2","tags":[{"name":"chair","coordinates":[0.6593967013888888,0.7557811737060547,0.1358764860365126,0.4115055720011393]},{"name":"sink","coordinates":[0.1441823959350586,0.6271876017252604,0.20501607259114582,0.08733464082082112]},{"name":"microwave","coordinates":[0.43442213270399305,0.524895191192627,0.14771465725368924,0.09575526714324951]},{"name":"pottedplant","coordinates":[0.6603663974338108,0.40953922271728516,0.0687825255923801,0.16948404312133789]},{"name":"sink","coordinates":[0.3330710728963216,0.5893616994222005,0.1084911240471734,0.04961689313252767]},{"name":"vase","coordinates":[0.6492125193277994,0.4616845448811849,0.029625757535298666,0.06443542242050171]}]}
