{"src":"https://a0.muscache.com/im/pictures/fbaefbfe-2f3d-4fe5-85c7-8a6a0eb5371f.jpg?aki_policy=xx_large","name":"Spacious central loft","listingId":11351023,"photoId":"60-7","tags":[{"name":"bed","coordinates":[0.6535355885823567,0.710376230875651,0.44330690171983506,0.5761778513590495]},{"name":"sofa","coordinates":[0.6535355885823567,0.710376230875651,0.44330690171983506,0.5761778513590495]},{"name":"tvmonitor","coordinates":[0.020497377713521323,0.42484553654988605,0.04531064563327365,0.22975366910298664]},{"name":"chair","coordinates":[0.8079995897081164,0.4700810750325521,0.0558985710144043,0.15199000040690105]},{"name":"clock","coordinates":[0.1009034898546007,0.07862108548482259,0.04374394946628147,0.09454054832458496]},{"name":"vase","coordinates":[0.14829177856445314,0.3766755739847819,0.020402540100945367,0.0498362143834432]}]}
