{"src":"https://a0.muscache.com/im/pictures/a42050d5-e023-4d22-83f5-de3bd91334fb.jpg?aki_policy=xx_large","name":"Beautiful  house with garden close to the beach","listingId":18951819,"photoId":"600-0","tags":[{"name":"diningtable","coordinates":[0.28227897867498036,0.8386043548583985,0.47245697064047243,0.30096728006998696]},{"name":"oven","coordinates":[0.6347167628247036,0.6379241943359375,0.11062142173947982,0.15504803657531738]},{"name":"chair","coordinates":[0.4014240940578147,0.6999208450317382,0.06106913738170927,0.18059245745340982]},{"name":"chair","coordinates":[0.45630436129816077,0.8491076151529948,0.07724446997649168,0.11507394313812255]},{"name":"wine-glass","coordinates":[0.8195557321630927,0.6826431910196941,0.02077231679833916,0.08971544901529947]},{"name":"wine-glass","coordinates":[0.7982818731204236,0.6798806508382161,0.02146420951002645,0.08485953013102214]},{"name":"pottedplant","coordinates":[0.37786626882300384,0.5464523951212565,0.023155382653825617,0.05238480965296428]},{"name":"bowl","coordinates":[0.9725346053162047,0.6034350713094075,0.03230510961726786,0.03396620750427246]},{"name":"bowl","coordinates":[0.8133971401837081,0.5823933283487955,0.02959267364885019,0.027430695295333863]},{"name":"book","coordinates":[0.5303121271492547,0.3048934618631999,0.008779709309214827,0.06114784081776937]},{"name":"book","coordinates":[0.5472424452607435,0.4105846087137858,0.009203987972839441,0.057539629936218264]},{"name":"book","coordinates":[0.5302407066526107,0.40962003072102865,0.008463964635191935,0.060766172409057614]},{"name":"book","coordinates":[0.5491757359631059,0.3074382146199544,0.00831176646084965,0.05869678656260172]}]}
