{"src":"https://a0.muscache.com/im/pictures/80cf1cb0-4ed3-4081-aa2c-fa60cad91653.jpg?aki_policy=xx_large","name":"Private room in very charming house in city center","listingId":18969992,"photoId":"602-4","tags":[{"name":"diningtable","coordinates":[0.5417152404785156,0.7061978022257487,0.4936428917778863,0.5412855784098307]},{"name":"sofa","coordinates":[0.24931369357638888,0.4326413790384928,0.1713725831773546,0.2540841738382975]},{"name":"chair","coordinates":[0.3087596893310547,0.7759356180826823,0.09664160410563151,0.40565646489461266]},{"name":"chair","coordinates":[0.5869154188368055,0.91424134572347,0.21127391391330294,0.17654536565144857]},{"name":"chair","coordinates":[0.8020365397135417,0.8288530985514323,0.10261414845784506,0.33301706314086915]},{"name":"car","coordinates":[0.3810484568277995,0.26998513539632163,0.19805946350097656,0.09334718386332194]},{"name":"chair","coordinates":[0.3342166476779514,0.615679677327474,0.06353997124565972,0.2315118153889974]},{"name":"chair","coordinates":[0.3492325888739692,0.5188842455546061,0.057532548904418945,0.15370691617329915]},{"name":"vase","coordinates":[0.5061610327826606,0.5388003667195638,0.05914690229627821,0.14392143885294598]},{"name":"car","coordinates":[0.4877809312608507,0.2608154773712158,0.08350570466783312,0.08766575654347737]},{"name":"vase","coordinates":[0.38752157423231337,0.443389892578125,0.017255767186482748,0.03819117943445841]}]}
