{"src":"https://a0.muscache.com/im/pictures/7a1e35fb-0a1e-43f1-b6dc-3c1cb5b57b63.jpg?aki_policy=xx_large","name":"Casita acogedora, lejos del ruido, cerca de todo","listingId":17530880,"photoId":"602-4","tags":[{"name":"diningtable","coordinates":[0.033498525619506836,0.4907436529795328,0.6324692249298096,0.47738682428995766]},{"name":"chair","coordinates":[0.10993412733078003,0.6276820182800293,0.2606130838394165,0.37185128529866535]},{"name":"chair","coordinates":[0.37066446542739867,0.668652073542277,0.22779176235198975,0.3296303113301595]},{"name":"chair","coordinates":[0.528304260969162,0.6460869312286377,0.11548563241958618,0.33639567693074546]},{"name":"chair","coordinates":[0.5730063676834106,0.5458693027496337,0.1021547794342041,0.35539922714233396]},{"name":"clock","coordinates":[0.8200099468231201,0.2330968618392944,0.06233987808227539,0.08453621864318847]},{"name":"chair","coordinates":[0.24045313596725465,0.48779116074244183,0.06888530254364014,0.059344665209452314]},{"name":"bowl","coordinates":[0.24045313596725465,0.48779116074244183,0.06888530254364014,0.059344665209452314]},{"name":"chair","coordinates":[0.12411117255687713,0.4860757609208425,0.07736211419105529,0.04323029120763143]},{"name":"clock","coordinates":[0.44747636541724206,0.18997224966684978,0.014932103455066681,0.03511522610982259]},{"name":"cup","coordinates":[0.47897898107767106,0.34276895225048065,0.01763264834880829,0.027402502298355103]}]}
