{"src":"https://a0.muscache.com/im/pictures/8fcc3ddf-5206-4278-87b7-90a7dca452e7.jpg?aki_policy=xx_large","name":"A luxury apartment located 700m from the beach","listingId":18973646,"photoId":"603-3","tags":[{"name":"diningtable","coordinates":[0.19443075656890868,0.836993662516276,0.3680013656616211,0.2843213399251302]},{"name":"chair","coordinates":[0.3636488676071167,0.846423594156901,0.29242782592773436,0.2754624048868815]},{"name":"oven","coordinates":[0.3796590566635132,0.6820478439331055,0.13117825984954834,0.1916567325592041]},{"name":"chair","coordinates":[0.2072986125946045,0.9293951670328776,0.1568994402885437,0.12071271737416585]},{"name":"sink","coordinates":[0.7777913093566895,0.5715758005777994,0.20777652263641358,0.03180496692657471]}]}
