{"src":"https://a0.muscache.com/im/pictures/a7ef20b7-d433-4308-853d-71c48c2677b8.jpg?aki_policy=xx_large","name":"Casa Paradise @ Hauz Khas Village","listingId":17576469,"photoId":"609-6","tags":[{"name":"sofa","coordinates":[0.08648499382866756,0.5549917856852213,0.3939955393473307,0.33045234680175783]},{"name":"diningtable","coordinates":[0.3171624501546224,0.6945380210876464,0.4017829895019531,0.29915281931559246]},{"name":"chair","coordinates":[0.6734212981330024,0.5989481608072917,0.22486303117540146,0.2962486267089844]},{"name":"chair","coordinates":[0.13189140955607095,0.8489341338475546,0.2387825224134657,0.14147931734720867]},{"name":"chair","coordinates":[0.5446305327945286,0.5905655940373739,0.15776084264119467,0.17603917121887208]},{"name":"chair","coordinates":[0.8963745726479424,0.5356599489847819,0.0701943768395318,0.19148629506429035]},{"name":"bowl","coordinates":[0.48206480344136554,0.719819700717926,0.08269639545016819,0.06127447287241618]},{"name":"chair","coordinates":[0.7723035057385762,0.5256951610247294,0.03860255612267388,0.08190321127573649]},{"name":"chair","coordinates":[0.8095933715502421,0.5327940662701924,0.041939118173387316,0.07269655068715414]},{"name":"clock","coordinates":[0.8477818157937792,0.37574829657872516,0.03061638143327501,0.035504698753356934]}]}
