{"src":"https://a0.muscache.com/im/pictures/a7ef20b7-d433-4308-853d-71c48c2677b8.jpg?aki_policy=xx_large","name":"Casa Paradise @ Hauz Khas Village","listingId":17576469,"photoId":"609-6","tags":[{"name":"sofa","coordinates":[0.2834827635023329,0.7202179590861003,0.3939955393473307,0.33045234680175783]},{"name":"diningtable","coordinates":[0.518053944905599,0.8441144307454427,0.4017829895019531,0.29915281931559246]},{"name":"chair","coordinates":[0.7858528137207031,0.7470724741617839,0.22486303117540146,0.2962486267089844]},{"name":"chair","coordinates":[0.2512826707628038,0.9196737925211589,0.2387825224134657,0.14147931734720867]},{"name":"chair","coordinates":[0.6235109541151259,0.6785851796468099,0.15776084264119467,0.17603917121887208]},{"name":"chair","coordinates":[0.9314717610677083,0.631403096516927,0.0701943768395318,0.19148629506429035]},{"name":"bowl","coordinates":[0.5234130011664496,0.7504569371541341,0.08269639545016819,0.06127447287241618]},{"name":"chair","coordinates":[0.7916047837999132,0.5666467666625976,0.03860255612267388,0.08190321127573649]},{"name":"chair","coordinates":[0.8305629306369358,0.5691423416137695,0.041939118173387316,0.07269655068715414]},{"name":"clock","coordinates":[0.8630900065104167,0.3935006459554036,0.03061638143327501,0.035504698753356934]}]}
