{"src":"https://a0.muscache.com/im/pictures/4a57eb0c-5310-4a7c-b1b5-eb9670cb7620.jpg?aki_policy=xx_large","name":"Casa Paradise @ Hauz Khas Village","listingId":17576469,"photoId":"609-5","tags":[{"name":"sofa","coordinates":[0.255686272515191,0.8261454264322917,0.5068911234537761,0.37450936635335286]},{"name":"bed","coordinates":[0.255686272515191,0.8261454264322917,0.5068911234537761,0.37450936635335286]},{"name":"chair","coordinates":[0.41523297627766925,0.6639357248942057,0.13846807479858397,0.19944392840067546]},{"name":"sofa","coordinates":[0.9004074944390191,0.9254122416178385,0.1849315431382921,0.12641741434733073]},{"name":"chair","coordinates":[0.5463225046793619,0.6478609720865885,0.11751425001356337,0.18183698654174804]},{"name":"tvmonitor","coordinates":[0.930705091688368,0.3910687446594238,0.1330307748582628,0.15708238283793133]},{"name":"chair","coordinates":[0.3552507824367947,0.5693383534749349,0.042505256334940594,0.13821465174357098]},{"name":"clock","coordinates":[0.15124234093560113,0.336796506245931,0.04560496542188856,0.11489259401957194]}]}
