{"src":"https://a0.muscache.com/im/pictures/b73fd805-6897-425e-aefa-9c4397982efd.jpg?aki_policy=xx_large","name":"Beautiful old Farmhouse near Delft","listingId":19072091,"photoId":"609-1","tags":[{"name":"sofa","coordinates":[0.7944652981228298,0.6911020278930664,0.40279803805881076,0.5797049840291341]},{"name":"diningtable","coordinates":[0.5057095421685113,0.7571991602579753,0.2612039142184787,0.4909093221028646]},{"name":"sofa","coordinates":[0.44288380940755206,0.5700520197550456,0.3546583599514431,0.3254359245300293]},{"name":"pottedplant","coordinates":[0.1988334231906467,0.5156766891479492,0.12649397320217556,0.3973749796549479]},{"name":"vase","coordinates":[0.4889725579155816,0.5439940134684245,0.03554784456888835,0.1324027458826701]}]}
