{"src":"https://a0.muscache.com/im/pictures/4a57eb0c-5310-4a7c-b1b5-eb9670cb7620.jpg?aki_policy=xx_large","name":"Casa Paradise @ Hauz Khas Village","listingId":17576469,"photoId":"609-7","tags":[{"name":"sofa","coordinates":[0.0022407107883029576,0.6388907432556152,0.5068911234537761,0.37450936635335286]},{"name":"bed","coordinates":[0.0022407107883029576,0.6388907432556152,0.5068911234537761,0.37450936635335286]},{"name":"chair","coordinates":[0.3459989388783773,0.564213760693868,0.13846807479858397,0.19944392840067546]},{"name":"sofa","coordinates":[0.8079417228698731,0.8622035344441732,0.1849315431382921,0.12641741434733073]},{"name":"chair","coordinates":[0.48756537967258023,0.5569424788157146,0.11751425001356337,0.18183698654174804]},{"name":"tvmonitor","coordinates":[0.8641897042592366,0.31252755324045817,0.1330307748582628,0.15708238283793133]},{"name":"chair","coordinates":[0.3339981542693244,0.5002310276031494,0.042505256334940594,0.13821465174357098]},{"name":"clock","coordinates":[0.12843985822465684,0.279350209236145,0.04560496542188856,0.11489259401957194]}]}
