{"src":"https://a0.muscache.com/im/pictures/6db62445-d8a8-4e8d-bd93-39321c0c5092.jpg?aki_policy=xx_large","name":"Casa Paradise @ Hauz Khas Village","listingId":17576469,"photoId":"609-6","tags":[{"name":"diningtable","coordinates":[0.28398369683159724,0.729441515604655,0.24553309546576607,0.38793729146321615]},{"name":"chair","coordinates":[0.39537730746799044,0.7495070139567057,0.18890618218315972,0.45009082158406577]},{"name":"chair","coordinates":[0.17962557474772137,0.716389528910319,0.17433446248372395,0.38538649876912434]},{"name":"chair","coordinates":[0.279655392964681,0.5089889844258626,0.0866720994313558,0.10144770940144857]},{"name":"clock","coordinates":[0.08817445966932509,0.21294396718343098,0.058992497126261395,0.07246290842692057]},{"name":"sink","coordinates":[0.527448484632704,0.4190619150797526,0.06444013383653428,0.012390253941218059]}]}
