{"src":"https://a0.muscache.com/im/pictures/2fcbaf2d-2d5b-49ff-89d4-612cac26d1f2.jpg?aki_policy=xx_large","name":"旅居洋房公寓客房","listingId":11403926,"photoId":"61-8","tags":[{"name":"sofa","coordinates":[0.20261974334716798,0.5918822288513184,0.8020087242126465,0.4013185501098633]},{"name":"sofa","coordinates":[0.49697098731994627,0.4415485461552938,0.3196733474731445,0.18343084653218586]},{"name":"tvmonitor","coordinates":[0.11623315811157225,0.2976292848587036,0.1415130615234375,0.18391451835632325]},{"name":"pottedplant","coordinates":[0.8034803569316864,0.38040246566136676,0.0632327675819397,0.06839791138966879]},{"name":"book","coordinates":[0.2534671202301979,0.5445290287335713,0.016477891802787782,0.034069943428039554]}]}
