{"src":"https://a0.muscache.com/im/pictures/2fcbaf2d-2d5b-49ff-89d4-612cac26d1f2.jpg?aki_policy=xx_large","name":"旅居洋房公寓客房","listingId":11403926,"photoId":"61-8","tags":[{"name":"sofa","coordinates":[0.6036241054534912,0.79254150390625,0.8020087242126465,0.4013185501098633]},{"name":"sofa","coordinates":[0.6568076610565186,0.5332639694213868,0.3196733474731445,0.18343084653218586]},{"name":"tvmonitor","coordinates":[0.186989688873291,0.3895865440368652,0.1415130615234375,0.18391451835632325]},{"name":"pottedplant","coordinates":[0.8350967407226563,0.41460142135620115,0.0632327675819397,0.06839791138966879]},{"name":"book","coordinates":[0.2617060661315918,0.5615640004475911,0.016477891802787782,0.034069943428039554]}]}
