{"src":"https://a0.muscache.com/im/pictures/4a62b2bc-bbe2-48cb-9bb2-e4295f7c8854.jpg?aki_policy=xx_large","name":"Quarto confortável próx. Boa Viagem","listingId":17579848,"photoId":"610-2","tags":[{"name":"diningtable","coordinates":[0.6459150985729324,0.8756500879923502,0.483699316332324,0.22413633664449056]},{"name":"chair","coordinates":[0.7858790614946064,0.8001370112101237,0.14668206930341005,0.14587682088216145]},{"name":"chair","coordinates":[0.42679828698665784,0.9254488627115885,0.1518973755529665,0.13463266690572104]},{"name":"chair","coordinates":[0.48839250863455713,0.7735815684000651,0.1375072170260456,0.12313707669576009]},{"name":"chair","coordinates":[0.8895974285579107,0.9544448216756185,0.1319627783498829,0.08697196642557779]},{"name":"sink","coordinates":[0.19771865278730602,0.6739829381306967,0.10602344914334548,0.04452281395594279]},{"name":"vase","coordinates":[0.6282897533384983,0.81841615041097,0.027998018228673826,0.11048324902852376]},{"name":"bowl","coordinates":[0.12850308761192397,0.5576536178588867,0.059925018703278765,0.04123835563659668]},{"name":"bottle","coordinates":[0.323739062647852,0.5194027900695801,0.019590962573852077,0.09281456470489502]},{"name":"bottle","coordinates":[0.34235915155865587,0.5176224708557129,0.019251311574354033,0.0932254950205485]},{"name":"bottle","coordinates":[0.2891357098448737,0.5356438954671224,0.015618212380073541,0.07768063545227051]},{"name":"bottle","coordinates":[0.27110850747835447,0.5381703058878581,0.014900317253441995,0.07577078342437744]},{"name":"bottle","coordinates":[0.3051644382289104,0.5341319402058919,0.015127398586922934,0.07429710229237875]},{"name":"bowl","coordinates":[0.3090063495044001,0.6628470102945964,0.02616577957003158,0.025760271151860557]}]}
