{"src":"https://a0.muscache.com/im/pictures/4a62b2bc-bbe2-48cb-9bb2-e4295f7c8854.jpg?aki_policy=xx_large","name":"Quarto confortável próx. Boa Viagem","listingId":17579848,"photoId":"610-2","tags":[{"name":"diningtable","coordinates":[0.6666045665740967,0.8756500879923502,0.49919281005859373,0.22413633664449056]},{"name":"chair","coordinates":[0.8110517501831055,0.8001370112101237,0.1513804793357849,0.14587682088216145]},{"name":"chair","coordinates":[0.44046916961669924,0.9254488627115885,0.15676283836364746,0.13463266690572104]},{"name":"chair","coordinates":[0.5040363311767578,0.7735815684000651,0.14191174507141113,0.12313707669576009]},{"name":"chair","coordinates":[0.9180923461914062,0.9544448216756185,0.1361897110939026,0.08697196642557779]},{"name":"sink","coordinates":[0.20405182838439942,0.6739829381306967,0.10941951274871826,0.04452281395594279]},{"name":"vase","coordinates":[0.6484146595001221,0.81841615041097,0.028894829750061034,0.11048324902852376]},{"name":"bowl","coordinates":[0.1326192021369934,0.5576536178588867,0.061844491958618165,0.04123835563659668]},{"name":"bottle","coordinates":[0.334108829498291,0.5194027900695801,0.020218485593795778,0.09281456470489502]},{"name":"bottle","coordinates":[0.353325343132019,0.5176224708557129,0.01986795514822006,0.0932254950205485]},{"name":"bottle","coordinates":[0.2983970880508423,0.5356438954671224,0.016118483245372774,0.07768063545227051]},{"name":"bottle","coordinates":[0.27979245185852053,0.5381703058878581,0.01537759304046631,0.07577078342437744]},{"name":"bottle","coordinates":[0.31493923664093015,0.5341319402058919,0.015611948072910308,0.07429710229237875]},{"name":"bowl","coordinates":[0.3189042091369629,0.6628470102945964,0.027003902196884155,0.025760271151860557]}]}
