{"src":"https://a0.muscache.com/im/pictures/b7d0de44-cbd5-489d-90ad-d0bf3931616b.jpg?aki_policy=xx_large","name":"Quarto confortável próx. Boa Viagem","listingId":17579848,"photoId":"610-2","tags":[{"name":"pottedplant","coordinates":[0.0016136407852172935,0.25762236913045244,0.20797970294952392,0.7348166783650716]},{"name":"diningtable","coordinates":[0.5977364420890807,0.8425998449325561,0.39423916339874265,0.16727935473124186]},{"name":"chair","coordinates":[0.5882578432559967,0.7884959856669108,0.15126799345016478,0.21251290639241535]},{"name":"vase","coordinates":[0.9387532085180282,0.8646366198857626,0.042338401079177856,0.13409091631571451]},{"name":"pottedplant","coordinates":[0.4027815476059914,0.6129921038945516,0.0481404036283493,0.09837886492411295]},{"name":"vase","coordinates":[0.49481865018606186,0.6355925679206849,0.02598884403705597,0.049530831972757976]}]}
