{"src":"https://a0.muscache.com/im/pictures/4a62b2bc-bbe2-48cb-9bb2-e4295f7c8854.jpg?aki_policy=xx_large","name":"Quarto confortável próx. Boa Viagem","listingId":17579848,"photoId":"610-4","tags":[{"name":"diningtable","coordinates":[0.41700816154479986,0.7635819196701049,0.49919281005859373,0.22413633664449056]},{"name":"chair","coordinates":[0.735361510515213,0.727198600769043,0.1513804793357849,0.14587682088216145]},{"name":"chair","coordinates":[0.3620877504348755,0.8581325292587281,0.15676283836364746,0.13463266690572104]},{"name":"chair","coordinates":[0.43308045864105227,0.7120130300521851,0.14191174507141113,0.12313707669576009]},{"name":"chair","coordinates":[0.849997490644455,0.9109588384628297,0.1361897110939026,0.08697196642557779]},{"name":"sink","coordinates":[0.1493420720100403,0.6517215311527252,0.10941951274871826,0.04452281395594279]},{"name":"vase","coordinates":[0.6339672446250916,0.7631745258967082,0.028894829750061034,0.11048324902852376]},{"name":"bowl","coordinates":[0.10169695615768433,0.5370344400405883,0.061844491958618165,0.04123835563659668]},{"name":"bottle","coordinates":[0.3239995867013931,0.4729955077171326,0.020218485593795778,0.09281456470489502]},{"name":"bottle","coordinates":[0.343391365557909,0.47100972334543867,0.01986795514822006,0.0932254950205485]},{"name":"bottle","coordinates":[0.2903378464281559,0.49680357774098716,0.016118483245372774,0.07768063545227051]},{"name":"bottle","coordinates":[0.2721036553382874,0.5002849141756693,0.01537759304046631,0.07577078342437744]},{"name":"bottle","coordinates":[0.307133262604475,0.4969833890597026,0.015611948072910308,0.07429710229237875]},{"name":"bowl","coordinates":[0.3054022580385208,0.6499668747186661,0.027003902196884155,0.025760271151860557]}]}
