{"src":"https://a0.muscache.com/im/pictures/2964d81d-24f2-4606-a1f1-35c79a061754.jpg?aki_policy=xx_large","name":"【SmileRoom】 游戏在深秋里的一抹绿","listingId":17582915,"photoId":"611-3","tags":[{"name":"sofa","coordinates":[0.6503716655039307,0.4999834696451823,0.6344905638545648,0.9655083974202474]},{"name":"diningtable","coordinates":[0.4843229568195144,0.7517206192016601,0.894486459781098,0.4539025624593099]},{"name":"pottedplant","coordinates":[0.2760342723218164,0.39841489791870116,0.5469417187635728,0.6458617528279622]},{"name":"bed","coordinates":[0.13147913208431963,0.4011473019917806,0.26523255539735713,0.8177836100260417]},{"name":"sofa","coordinates":[0.13147913208431963,0.4011473019917806,0.26523255539735713,0.8177836100260417]},{"name":"vase","coordinates":[0.45755291183927643,0.7993347803751628,0.070271792222925,0.3672661781311035]},{"name":"pottedplant","coordinates":[0.31795140651466947,0.776316769917806,0.1273728318310513,0.19401311874389648]}]}
