{"src":"https://a0.muscache.com/im/pictures/2964d81d-24f2-4606-a1f1-35c79a061754.jpg?aki_policy=xx_large","name":"【SmileRoom】 游戏在深秋里的一抹绿","listingId":17582915,"photoId":"611-3","tags":[{"name":"sofa","coordinates":[0.33312638357664826,0.017229270935058605,0.6344905638545648,0.9655083974202474]},{"name":"diningtable","coordinates":[0.03707972692896544,0.5247693379720052,0.894486459781098,0.4539025624593099]},{"name":"pottedplant","coordinates":[0.0025634129400299854,0.07548402150472006,0.5469417187635728,0.6458617528279622]},{"name":"bed","coordinates":[-0.001137145614358931,-0.0077445030212402455,0.26523255539735713,0.8177836100260417]},{"name":"sofa","coordinates":[-0.001137145614358931,-0.0077445030212402455,0.26523255539735713,0.8177836100260417]},{"name":"vase","coordinates":[0.4224170157278139,0.615701691309611,0.070271792222925,0.3672661781311035]},{"name":"pottedplant","coordinates":[0.2542649905991438,0.6793102105458577,0.1273728318310513,0.19401311874389648]}]}
