{"src":"https://a0.muscache.com/im/pictures/2dd1807e-ebaf-42f4-aa97-7f1726fe69a8.jpg?aki_policy=xx_large","name":"Private retreat in upstairs bedroom","listingId":17623268,"photoId":"615-4","tags":[{"name":"cup","coordinates":[0.8026750988430448,0.43952007691065476,0.16161181131998698,0.12786991596221925]},{"name":"spoon","coordinates":[0.7385426786210803,0.6023567756017049,0.10982429716322158,0.15777920087178549]},{"name":"knife","coordinates":[0.05482202106051974,0.5506847540537516,0.09170585208468968,0.13997138341267903]},{"name":"bottle","coordinates":[0.7437827189763386,0.337000298500061,0.07522024048699273,0.16324400901794434]},{"name":"bottle","coordinates":[0.814561332596673,0.34714115858078,0.07859523031446669,0.1202105442682902]}]}
