{"src":"https://a0.muscache.com/im/pictures/2dd1807e-ebaf-42f4-aa97-7f1726fe69a8.jpg?aki_policy=xx_large","name":"Private retreat in upstairs bedroom","listingId":17623268,"photoId":"615-4","tags":[{"name":"cup","coordinates":[0.8834810045030382,0.5034550348917644,0.16161181131998698,0.12786991596221925]},{"name":"spoon","coordinates":[0.793454827202691,0.6812463760375976,0.10982429716322158,0.15777920087178549]},{"name":"knife","coordinates":[0.10067494710286458,0.6206704457600911,0.09170585208468968,0.13997138341267903]},{"name":"bottle","coordinates":[0.781392839219835,0.4186223030090332,0.07522024048699273,0.16324400901794434]},{"name":"bottle","coordinates":[0.8538589477539062,0.4072464307149251,0.07859523031446669,0.1202105442682902]}]}
