{"src":"https://a0.muscache.com/im/pictures/2dd1807e-ebaf-42f4-aa97-7f1726fe69a8.jpg?aki_policy=xx_large","name":"Private retreat in upstairs bedroom","listingId":17623268,"photoId":"615-1","tags":[{"name":"cup","coordinates":[0.496958065032959,0.5034550348917644,0.09090664386749267,0.12786991596221925]},{"name":"spoon","coordinates":[0.4463183403015137,0.6812463760375976,0.06177616715431213,0.15777920087178549]},{"name":"knife","coordinates":[0.05662965774536133,0.6206704457600911,0.05158454179763794,0.13997138341267903]},{"name":"bottle","coordinates":[0.4395334720611572,0.4186223030090332,0.04231138527393341,0.16324400901794434]},{"name":"bottle","coordinates":[0.48029565811157227,0.4072464307149251,0.044209817051887514,0.1202105442682902]}]}
