{"src":"https://a0.muscache.com/im/pictures/26643164/5be554f7_original.jpg?aki_policy=xx_large","name":"Cozy Bed&amp;Breakfast near Beach","listingId":1917849,"photoId":"615-10","tags":[{"name":"microwave","coordinates":[0.4658452698517907,0.6659169514973958,0.1519751833940912,0.16599427858988444]},{"name":"fork","coordinates":[0.05117005731532239,0.3402094523111979,0.04295420215590773,0.2960723241170247]},{"name":"spoon","coordinates":[0.21461875183360135,0.3619065284729004,0.03658826560072176,0.26552044550577797]},{"name":"spoon","coordinates":[0.14126000119184087,0.3432690938313802,0.029528571435241274,0.2922361373901367]},{"name":"bottle","coordinates":[0.47148614069019473,0.5751466115315755,0.024205771540401707,0.05958642959594727]}]}
