{"src":"https://a0.muscache.com/im/pictures/a5f54d6b-06cc-4ccd-900f-90162811192a.jpg?aki_policy=xx_large","name":"Private retreat in upstairs bedroom","listingId":17623268,"photoId":"615-5","tags":[{"name":"chair","coordinates":[0.016118272145589196,0.6684272130330404,0.3486694124009874,0.33853302001953123]},{"name":"oven","coordinates":[0.5269474029541015,0.41900214354197185,0.19416724310980904,0.22016793886820477]},{"name":"diningtable","coordinates":[-0.00360780821906196,0.7534253358840942,0.11272624333699545,0.21639952659606934]},{"name":"microwave","coordinates":[0.541795751783583,0.33687385320663454,0.17087559170193142,0.07731373310089111]},{"name":"sink","coordinates":[0.21130027770996096,0.4932036240895589,0.19494175381130643,0.029285208384195963]},{"name":"bottle","coordinates":[0.02877172231674194,0.46986434459686277,0.03551931646135118,0.08292215665181478]},{"name":"knife","coordinates":[0.4485164092646705,0.4289819518725077,0.014501808749304877,0.018936514854431152]}]}
