{"src":"https://a0.muscache.com/im/pictures/cf3cf80d-f4d0-4e0a-b732-ac0082b67b73.jpg?aki_policy=xx_large","name":"Nice familyhouse near beach and centre (8 pers)","listingId":19199744,"photoId":"620-2","tags":[{"name":"chair","coordinates":[0.6594607883029514,0.7025122324625651,0.23229609595404732,0.36225754419962564]},{"name":"sofa","coordinates":[0.6594607883029514,0.7025122324625651,0.23229609595404732,0.36225754419962564]},{"name":"sofa","coordinates":[0.07939882808261448,0.8213542938232422,0.1441947513156467,0.3588361422220866]},{"name":"pottedplant","coordinates":[0.06668466991848415,0.3140315055847168,0.1176492691040039,0.17911710739135742]},{"name":"vase","coordinates":[0.060573074552747935,0.37534701029459633,0.07067317432827419,0.07262868086496989]},{"name":"chair","coordinates":[0.7054297977023655,0.5048329671223958,0.05090144475301107,0.046400197347005206]}]}
