{"src":"https://a0.muscache.com/im/pictures/4f73d3e4-eef0-46a0-85e3-a9cae847ffac.jpg?aki_policy=xx_large","name":"Cozy Loft next to the woods. 15 min from  the city","listingId":17667430,"photoId":"623-6","tags":[{"name":"umbrella","coordinates":[-0.10677382857711226,-0.02971134185791019,1.1825844093605324,0.6095035552978516]},{"name":"chair","coordinates":[0.11573915834780085,0.7034567674001058,0.8088887532552084,0.2946398099263509]},{"name":"diningtable","coordinates":[0.16577377319335934,0.5811751206715902,0.8295282999674479,0.1446250597635905]},{"name":"chair","coordinates":[0.0010477772465458668,0.5348042170206706,0.23690867953830294,0.34501978556315105]},{"name":"pottedplant","coordinates":[0.5538760856345848,0.3412201881408692,0.27594612969292537,0.14021994272867838]},{"name":"pottedplant","coordinates":[0.1556474191171152,0.43954257965087895,0.25062255859375,0.14809315999348957]}]}
