{"src":"https://a0.muscache.com/im/pictures/4d403c68-403d-43a8-944d-bec16f4ffa2a.jpg?aki_policy=xx_large","name":"House 5 minutes from the beach + private parking!","listingId":19256134,"photoId":"624-11","tags":[{"name":"sofa","coordinates":[0.13942041616765538,0.6959224065144857,0.27152536405846656,0.26191800435384116]},{"name":"pottedplant","coordinates":[0.22435335700146444,0.3659509023030599,0.15849470240052868,0.4278382937113444]},{"name":"diningtable","coordinates":[0.08882030217395688,0.8925608952840169,0.16484280708197852,0.2027176062266032]},{"name":"diningtable","coordinates":[0.3559004319291725,0.7445959726969401,0.1346987238755957,0.21635905901590982]},{"name":"chair","coordinates":[0.4064257366492504,0.6240620930989583,0.1407799633653321,0.1851209322611491]},{"name":"sofa","coordinates":[0.4064257366492504,0.6240620930989583,0.1407799633653321,0.1851209322611491]},{"name":"chair","coordinates":[0.1637102267967509,0.9012269973754883,0.1273299407352996,0.17739561398824055]}]}
