{"src":"https://a0.muscache.com/im/pictures/866b0019-f6a1-4ea4-82d4-2d7af5bfaff6.jpg?aki_policy=xx_large","name":"House 5 minutes from the beach + private parking!","listingId":19256134,"photoId":"624-5","tags":[{"name":"bowl","coordinates":[0.7923659801483154,0.7779717763264974,0.2259052276611328,0.09349422454833985]},{"name":"pottedplant","coordinates":[0.35244929790496826,0.41927674611409504,0.10725383758544922,0.13404645919799804]},{"name":"sink","coordinates":[0.12352256774902344,0.6590571085611979,0.17812020778656007,0.03358014027277629]},{"name":"bottle","coordinates":[0.7354312419891358,0.47755778630574547,0.03596138954162598,0.07959286371866862]},{"name":"bottle","coordinates":[0.6653875827789306,0.4690999031066895,0.032738760113716125,0.0830395539601644]},{"name":"bottle","coordinates":[0.5510280132293701,0.2747192700703939,0.025390073657035828,0.10014706452687581]},{"name":"bottle","coordinates":[0.5724433898925781,0.27333513895670575,0.023843587934970857,0.09281535943349202]},{"name":"orange","coordinates":[0.8720314979553223,0.7489800771077474,0.04483133554458618,0.041737838586171465]},{"name":"orange","coordinates":[0.8121930122375488,0.7429395039876302,0.039427435398101805,0.044613226254781084]},{"name":"orange","coordinates":[0.7780825614929199,0.7438484827677408,0.03762495219707489,0.0430854320526123]},{"name":"apple","coordinates":[0.7052450180053711,0.7165702184041342,0.03450275957584381,0.03657972017923991]}]}
