{"src":"https://a0.muscache.com/im/pictures/8742ab5d-311c-4c44-ae47-4c68de448212.jpg?aki_policy=xx_large","name":"House 5 minutes from the beach + private parking!","listingId":19256134,"photoId":"624-4","tags":[{"name":"refrigerator","coordinates":[0.20586209297180175,0.3102129300435384,0.41450815200805663,0.6484154383341472]},{"name":"diningtable","coordinates":[0.24651899337768554,0.6786194483439127,0.5994864463806152,0.19932160377502442]},{"name":"chair","coordinates":[0.43066020011901857,0.8221701939900716,0.20767273902893066,0.33768590291341144]},{"name":"chair","coordinates":[0.27301075458526614,0.8644556681315104,0.2174830913543701,0.2814316749572754]},{"name":"chair","coordinates":[0.07296900749206543,0.8372297922770182,0.14848811626434327,0.29854227701822916]},{"name":"bottle","coordinates":[0.05529223084449768,0.5342041651407877,0.058326220512390135,0.23571526209513347]},{"name":"bowl","coordinates":[0.9190650939941406,0.6371964772542318,0.1456679582595825,0.06570587952931722]},{"name":"sink","coordinates":[0.7362549304962158,0.544349479675293,0.12264286279678345,0.0252204696337382]},{"name":"knife","coordinates":[0.5490817546844482,0.4849761644999186,0.011049262434244155,0.07265764077504476]},{"name":"knife","coordinates":[0.5291949272155761,0.48468818664550783,0.009166869521141052,0.08369457721710205]},{"name":"knife","coordinates":[0.5092874526977539,0.4854986508687337,0.009820201992988586,0.07630230585734049]},{"name":"orange","coordinates":[0.9509614944458008,0.6145123799641927,0.028120842576026917,0.021875305970509847]},{"name":"orange","coordinates":[0.9136235237121582,0.6147310256958007,0.022632597386837004,0.025487188498179117]}]}
