{"src":"https://a0.muscache.com/im/pictures/66afe0c9-5d0d-4b35-9766-4fa8b1fe341d.jpg?aki_policy=xx_large","name":"Beautiful townhouse close to city centre","listingId":19258743,"photoId":"625-18","tags":[{"name":"chair","coordinates":[0.4957329644097222,0.7381722768147786,0.43388214111328127,0.42779947916666666]},{"name":"chair","coordinates":[1.1416477627224393,0.8407842636108398,0.5813526153564453,0.27534799575805663]},{"name":"chair","coordinates":[0.16852556864420573,0.5874659856160481,0.29809523688422307,0.35412298838297523]},{"name":"tvmonitor","coordinates":[0.6493543412950303,0.32137587865193684,0.22529034084743924,0.2091119130452474]},{"name":"book","coordinates":[1.34767820570204,0.577656110127767,0.3364632924397786,0.11739675998687744]},{"name":"book","coordinates":[0.9273883395724827,0.4861456553141276,0.17822935316297744,0.06245025396347046]},{"name":"keyboard","coordinates":[0.5177900950113933,0.4716949462890625,0.1563603083292643,0.04678277174631754]},{"name":"mouse","coordinates":[0.5960604773627387,0.5054807662963867,0.0908739513821072,0.02321187456448873]}]}
