{"src":"https://a0.muscache.com/im/pictures/43084ced-4475-4948-8a8b-e4de9cf0ac77.jpg?aki_policy=xx_large","name":"Spacious ap in quiet neighbourhood near the beach","listingId":19276873,"photoId":"626-0","tags":[{"name":"diningtable","coordinates":[0.33380076885223386,0.782320213317871,0.4991661548614502,0.40943883260091146]},{"name":"chair","coordinates":[0.21573400497436523,0.8152770360310873,0.21207783222198487,0.38039255142211914]},{"name":"pottedplant","coordinates":[0.3348820447921753,0.5863379796346029,0.1711941361427307,0.20489528973897297]},{"name":"chair","coordinates":[0.4392807960510254,0.9006860097249348,0.1740002751350403,0.20080410639444987]},{"name":"pottedplant","coordinates":[0.19782350063323975,0.4220396041870117,0.14495460987091063,0.1729314168294271]},{"name":"pottedplant","coordinates":[0.9492300033569336,0.8858678817749024,0.10250608921051026,0.22038296063741047]},{"name":"pottedplant","coordinates":[0.5329197883605957,0.6228691736857096,0.08024755120277405,0.14789118766784667]},{"name":"vase","coordinates":[0.3324317932128906,0.6577538808186849,0.05159499049186707,0.10311811765034994]},{"name":"book","coordinates":[0.8495718002319336,0.76953125,0.0855763852596283,0.05337200164794922]},{"name":"chair","coordinates":[0.4526947498321533,0.621493148803711,0.06335686445236206,0.06794912020365397]},{"name":"book","coordinates":[0.8495308876037597,0.7930323918660481,0.08890801072120666,0.04080975850423177]}]}
