{"src":"https://a0.muscache.com/im/pictures/26af2bc3-7eab-47cb-92a0-cc73f01c0e31.jpg?aki_policy=xx_large","name":"The Other Side Residence Bogor","listingId":17703943,"photoId":"629-10","tags":[{"name":"diningtable","coordinates":[0.8214142628205128,0.6749503453572591,0.49094200721153847,0.6068970362345377]},{"name":"chair","coordinates":[0.3598129507211538,0.6944947560628255,0.5170875275440705,0.5673051198323568]},{"name":"bowl","coordinates":[1.0036636743790064,0.3363693873087565,0.22805653107471954,0.13731374740600585]},{"name":"cup","coordinates":[0.8286820162259615,0.36074708302815756,0.06458197177984776,0.0786499818166097]},{"name":"cup","coordinates":[0.7551827298677884,0.40290298461914065,0.06536695431440305,0.07691671848297119]}]}
