{"src":"https://a0.muscache.com/im/pictures/0a674082-fa0e-4a6c-b5d3-a01189c2aff5.jpg?aki_policy=xx_large","name":"The Other Side Residence Bogor","listingId":17703943,"photoId":"629-14","tags":[{"name":"person","coordinates":[0.40765581130981443,0.5687727610270182,0.35085411071777345,0.8764184951782227]},{"name":"diningtable","coordinates":[0.6006351470947265,0.8265316009521484,0.4321188449859619,0.2919771194458008]},{"name":"chair","coordinates":[0.7973318576812745,0.8761883417765299,0.1424766182899475,0.24250349998474122]},{"name":"bowl","coordinates":[0.535709810256958,0.7450260798136393,0.1439115047454834,0.10534112453460694]},{"name":"bowl","coordinates":[0.664524507522583,0.6983357111612956,0.13751096725463868,0.09961761633555094]},{"name":"clock","coordinates":[0.34223127365112305,0.03500821193059286,0.09451199769973755,0.07724370161692301]},{"name":"bottle","coordinates":[0.2976433038711548,0.3921078681945801,0.03669021129608154,0.09583532015482585]},{"name":"chair","coordinates":[0.707325553894043,0.6473787307739258,0.06957099437713624,0.047364652156829834]}]}
