{"src":"https://a0.muscache.com/im/pictures/d20971d9-0210-486c-9492-3ef35d3b7d72.jpg?aki_policy=xx_large","name":"The Other Side Residence Bogor","listingId":17703943,"photoId":"629-9","tags":[{"name":"diningtable","coordinates":[0.047749280929565485,0.4902826468149821,0.9301734924316406,0.465169366200765]},{"name":"chair","coordinates":[0.8900058686733247,0.5544197718302409,0.10720540285110473,0.4536724090576172]},{"name":"cup","coordinates":[0.4217650532722473,0.6117846727371217,0.1667647123336792,0.17500993410746257]},{"name":"bowl","coordinates":[0.4217650532722473,0.6117846727371217,0.1667647123336792,0.17500993410746257]},{"name":"wine-glass","coordinates":[0.5592858850955963,0.41468925476074214,0.09061115980148315,0.2568253835042318]},{"name":"cup","coordinates":[0.21612933874130252,0.5679703871409099,0.1461357831954956,0.12190707524617513]},{"name":"wine-glass","coordinates":[0.4606903821229935,0.4196793953577677,0.08654341101646423,0.20115437507629394]},{"name":"wine-glass","coordinates":[0.6835123270750045,0.4283963600794474,0.05810752511024475,0.17756733894348145]},{"name":"wine-glass","coordinates":[0.8112821489572525,0.3561651945114136,0.0560926616191864,0.16380162239074708]},{"name":"bowl","coordinates":[0.8777348756790161,0.4536923885345459,0.10033698081970215,0.06783666610717773]},{"name":"bottle","coordinates":[0.870415785908699,0.32503768205642697,0.03868979811668396,0.10531308650970458]},{"name":"bottle","coordinates":[0.9150174766778946,0.3160532553990682,0.03510996699333191,0.09751086235046387]}]}
