{"src":"https://a0.muscache.com/im/pictures/2ce3cbe2-dc22-4976-8687-093942e1de94.jpg?aki_policy=xx_large","name":"The Other Side Residence Bogor","listingId":17703943,"photoId":"629-9","tags":[{"name":"diningtable","coordinates":[0.6542600661057693,0.6881862640380859,1.2440845352564103,0.5578226089477539]},{"name":"pottedplant","coordinates":[0.5321937600160257,0.25962721506754555,0.7720500926482372,0.4994234085083008]},{"name":"vase","coordinates":[0.5218710561899038,0.4031579335530599,0.22230706630608973,0.3392390251159668]},{"name":"bottle","coordinates":[1.1414572065304487,0.3677283604939779,0.12229864658453525,0.44145927429199217]},{"name":"spoon","coordinates":[0.9835298352363782,0.7794823964436849,0.20353177584134616,0.24741487503051757]},{"name":"wine-glass","coordinates":[0.9404597355769231,0.43332411448160807,0.1393794915614984,0.3095438003540039]},{"name":"bowl","coordinates":[1.0679175430689103,0.5628695170084635,0.2291324243790064,0.16192288398742677]},{"name":"cake","coordinates":[0.68972412109375,0.6481728871663411,0.16855482835036056,0.17884138425191243]}]}
