{"src":"https://a0.muscache.com/im/pictures/2ce3cbe2-dc22-4976-8687-093942e1de94.jpg?aki_policy=xx_large","name":"The Other Side Residence Bogor","listingId":17703943,"photoId":"629-10","tags":[{"name":"diningtable","coordinates":[0.02423792709538969,0.40927495956420895,0.9359432267554012,0.5578226089477539]},{"name":"pottedplant","coordinates":[0.10996488877284671,0.009915510813395145,0.5808247224784192,0.4994234085083008]},{"name":"vase","coordinates":[0.308988877284674,0.2335384209950765,0.16724489942009066,0.3392390251159668]},{"name":"bottle","coordinates":[0.8127316251213167,0.1469987233479818,0.09200708365734712,0.44145927429199217]},{"name":"spoon","coordinates":[0.6633640807351948,0.6557749589284261,0.15311997025101273,0.24741487503051757]},{"name":"wine-glass","coordinates":[0.6550931636198067,0.2785522143046061,0.10485725638307171,0.3095438003540039]},{"name":"bowl","coordinates":[0.7172203299439983,0.4819080750147502,0.17237971741476177,0.16192288398742677]},{"name":"cake","coordinates":[0.45548652719568317,0.5587521950403849,0.12680629447654443,0.17884138425191243]}]}
