{"src":"https://a0.muscache.com/im/pictures/2ce3cbe2-dc22-4976-8687-093942e1de94.jpg?aki_policy=xx_large","name":"The Other Side Residence Bogor","listingId":17703943,"photoId":"629-9","tags":[{"name":"diningtable","coordinates":[0.4922095404730903,0.6881862640380859,0.9359432267554012,0.5578226089477539]},{"name":"pottedplant","coordinates":[0.4003772500120563,0.25962721506754555,0.5808247224784192,0.4994234085083008]},{"name":"vase","coordinates":[0.39261132699471935,0.4031579335530599,0.16724489942009066,0.3392390251159668]},{"name":"bottle","coordinates":[0.8587351669499903,0.3677283604939779,0.09200708365734712,0.44145927429199217]},{"name":"spoon","coordinates":[0.7399240658607011,0.7794823964436849,0.15311997025101273,0.24741487503051757]},{"name":"wine-glass","coordinates":[0.7075217918113426,0.43332411448160807,0.10485725638307171,0.3095438003540039]},{"name":"bowl","coordinates":[0.8034101886513793,0.5628695170084635,0.17237971741476177,0.16192288398742677]},{"name":"cake","coordinates":[0.5188896744339554,0.6481728871663411,0.12680629447654443,0.17884138425191243]}]}
