{"src":"https://a0.muscache.com/im/pictures/39324f9e-6eec-4961-821b-9e9020e2cd0d.jpg?aki_policy=xx_large","name":"Furnished Flat in Gleem-Alexandria","listingId":1145748,"photoId":"63-9","tags":[{"name":"diningtable","coordinates":[0.41738255818684894,0.9524755477905273,0.7422164916992188,0.09293582439422607]},{"name":"chair","coordinates":[0.3188036176893446,0.8531662623087565,0.20737232632107205,0.1934058666229248]},{"name":"chair","coordinates":[0.5429083082411025,0.838802719116211,0.2075135972764757,0.16596911748250326]},{"name":"clock","coordinates":[0.44969071282280815,0.3485287666320801,0.14333339267306858,0.21320546468098958]},{"name":"handbag","coordinates":[0.14428769217597115,0.918109130859375,0.19966051313612196,0.13895379702250163]},{"name":"chair","coordinates":[0.9404497782389323,0.899601936340332,0.11745446523030599,0.19826758702596028]}]}
