{"src":"https://a0.muscache.com/im/pictures/97590985-9714-4e1d-9d7c-3aa786822b9f.jpg?aki_policy=xx_large","name":"3 bedroom apartment, 2 mins to beach, Keizerstraat","listingId":19311806,"photoId":"630-3","tags":[{"name":"diningtable","coordinates":[0.5403218163384331,0.5921887079874675,0.5760271708170573,0.4360229810078939]},{"name":"chair","coordinates":[0.7244645012749567,0.6262828191121419,0.2974846098158095,0.4375566164652506]},{"name":"pottedplant","coordinates":[0.5432550218370226,0.36802180608113605,0.18100272284613717,0.2462489128112793]},{"name":"bowl","coordinates":[0.5377148946126302,0.43102728525797523,0.14600247277153863,0.10737380186716715]},{"name":"chair","coordinates":[0.7372044033474392,0.438348929087321,0.09974351459079318,0.1483889897664388]},{"name":"chair","coordinates":[0.6912693447536893,0.41128927866617837,0.09741535186767578,0.10813157558441162]},{"name":"tvmonitor","coordinates":[0.10344932344224718,0.3214850425720215,0.11646296183268229,0.08535091082255046]},{"name":"pottedplant","coordinates":[0.3539327621459961,0.24296606381734212,0.06222885979546441,0.07670261065165201]},{"name":"chair","coordinates":[0.30763176812065973,0.39620478947957355,0.06212462319268121,0.06136906544367472]}]}
