{"src":"https://a0.muscache.com/im/pictures/49a3c7ff-cefe-4bda-8128-f7806fee4d13.jpg?aki_policy=xx_large","name":"Rooftop appartment The Hague near city centre!","listingId":19361380,"photoId":"634-6","tags":[{"name":"diningtable","coordinates":[0.7440978156195747,0.6035866419474284,0.41000018649631076,0.2379648526509603]},{"name":"chair","coordinates":[0.9095691257052951,0.756213633219401,0.17404265933566623,0.47056239446004233]},{"name":"chair","coordinates":[0.7528419494628906,0.8420775095621745,0.23145773145887588,0.31228863398234047]},{"name":"chair","coordinates":[0.603072992960612,0.7176564534505209,0.14882755279541016,0.3491145133972168]},{"name":"sofa","coordinates":[0.44770880805121527,0.4528712590535482,0.1761900160047743,0.20025501251220704]},{"name":"chair","coordinates":[0.20101952022976347,0.5211826642354329,0.12556656731499566,0.2086260477701823]},{"name":"chair","coordinates":[0.528988774617513,0.6354423522949219,0.06954774856567383,0.29478610356648766]},{"name":"pottedplant","coordinates":[0.5883086734347873,0.39846356709798175,0.09556364483303494,0.20903315544128417]},{"name":"pottedplant","coordinates":[0.1386781162685818,0.3989779790242513,0.04359139866299099,0.11429648399353028]},{"name":"chair","coordinates":[0.8431193033854166,0.5391742706298828,0.06532804701063367,0.03508532444636027]},{"name":"cup","coordinates":[0.7005380418565538,0.5379910151163737,0.02390978866153293,0.03702650467554728]},{"name":"cup","coordinates":[0.686493640475803,0.5390687942504883,0.020714222060309515,0.03589684168497721]}]}
