{"src":"https://a0.muscache.com/im/pictures/b3582409-f932-4a9e-ad9c-dc30825891f6.jpg?aki_policy=xx_large","name":"Rooftop appartment The Hague near city centre!","listingId":19361380,"photoId":"634-0","tags":[{"name":"chair","coordinates":[0.41453467475043404,0.6291463216145833,0.1532714949713813,0.329251766204834]},{"name":"pottedplant","coordinates":[0.5831725650363498,0.42628971735636395,0.04478363460964627,0.10979266961415608]},{"name":"cup","coordinates":[0.1491999626159668,0.716049321492513,0.03961800469292535,0.08884658813476562]},{"name":"vase","coordinates":[0.1491999626159668,0.716049321492513,0.03961800469292535,0.08884658813476562]},{"name":"bottle","coordinates":[0.5045065985785591,0.48995129267374676,0.029044055938720705,0.09496918519337973]},{"name":"bottle","coordinates":[0.10221562915378146,0.39419568379720055,0.025425908300611706,0.10729303359985351]},{"name":"bottle","coordinates":[0.12880879508124457,0.3993598302205404,0.0253420803281996,0.09946466286977132]},{"name":"vase","coordinates":[0.5533507029215495,0.44820003509521483,0.016286093658871122,0.07120385964711508]},{"name":"book","coordinates":[0.04755405849880642,0.4364898681640625,0.01238046752081977,0.0822949488957723]}]}
