{"src":"https://a0.muscache.com/im/pictures/4d9406b7-ec08-4f29-a9be-2b315744dff7.jpg?aki_policy=xx_large","name":"33Studio 1+1 &amp; Personal driver!","listingId":17740031,"photoId":"634-5","tags":[{"name":"chair","coordinates":[0.29626419544219973,0.6094176610310872,0.12287780046463012,0.2939670244852702]},{"name":"chair","coordinates":[0.34584071636199953,0.5920797348022461,0.12086491584777832,0.28567845026652017]},{"name":"diningtable","coordinates":[0.4997293472290039,0.862509282430013,0.11711992025375366,0.2817151387532552]},{"name":"tvmonitor","coordinates":[0.18119059801101683,0.33807061513264974,0.13623133897781373,0.15168115297953289]},{"name":"book","coordinates":[0.10392731428146362,0.5712006886800131,0.052800732851028445,0.026167205969492593]},{"name":"remote","coordinates":[0.1883915424346924,0.5469804128011068,0.021321827173233034,0.015017414093017578]}]}
