{"src":"https://a0.muscache.com/im/pictures/770ddae8-0778-423b-9cf9-91314ee76d15.jpg?aki_policy=xx_large","name":"Cozy family house near the centre of The Hague","listingId":19404505,"photoId":"636-2","tags":[{"name":"diningtable","coordinates":[0.4193553924560547,0.6435145696004232,0.8573277791341146,0.6939494450887044]},{"name":"chair","coordinates":[0.7326593187120226,0.6678562164306641,0.2007720947265625,0.275666618347168]},{"name":"chair","coordinates":[0.8202891031901042,0.47689987818400065,0.15575989617241753,0.1191181500752767]},{"name":"cup","coordinates":[0.04282091193728977,0.5867323557535807,0.09087633556789822,0.11745303471883138]},{"name":"chair","coordinates":[0.13741464614868165,0.3949554125467936,0.13476179970635307,0.04808766444524129]},{"name":"chair","coordinates":[0.29761132134331597,0.34836336771647136,0.1177466180589464,0.0431423823038737]},{"name":"bottle","coordinates":[0.39392208523220484,0.39148406982421874,0.05100621117485894,0.08522843519846598]}]}
