{"src":"https://a0.muscache.com/im/pictures/19afca0d-14d5-42a9-8ef6-dbb5d2abfc2c.jpg?aki_policy=xx_large","name":"Cozy family house near the centre of The Hague","listingId":19404505,"photoId":"636-1","tags":[{"name":"diningtable","coordinates":[0.9176954481336805,0.6959588368733723,1.4681443956163194,0.5528359731038411]},{"name":"bed","coordinates":[0.36465424431694876,0.47954003016153973,0.706561024983724,0.21341001192728679]},{"name":"chair","coordinates":[1.2501558939615884,0.8118495305379232,0.4259756300184462,0.3532993952433268]},{"name":"chair","coordinates":[1.6527030097113715,0.6785071055094402,0.24770450592041016,0.33163715998331705]},{"name":"tvmonitor","coordinates":[0.08869629436069065,0.35963869094848633,0.17529531055026584,0.10459102789560953]},{"name":"chair","coordinates":[0.8914468553331163,0.4892106056213379,0.12022357516818577,0.04910122553507487]},{"name":"chair","coordinates":[1.0048088921440972,0.4620568593343099,0.10746615727742513,0.05360655387242635]},{"name":"chair","coordinates":[1.488316175672743,0.44256375630696615,0.1503947681850857,0.033291053771972653]}]}
