{"src":"https://a0.muscache.com/im/pictures/5bc3c1a7-ed00-4cd4-bb9d-63db1af6f580.jpg?aki_policy=xx_large","name":"Cheap large room, fully equipped!!","listingId":19409461,"photoId":"637-2","tags":[{"name":"diningtable","coordinates":[0.7909512042999267,0.7913262685139973,0.41858396530151365,0.39389108022054037]},{"name":"chair","coordinates":[0.16133978366851806,0.6752133051554362,0.22841169834136962,0.34338515599568686]},{"name":"chair","coordinates":[0.6611260890960693,0.8321554819742839,0.23302052021026612,0.2918657938639323]},{"name":"chair","coordinates":[0.341611909866333,0.5844554265340169,0.082840096950531,0.25469303131103516]},{"name":"chair","coordinates":[0.6762929439544678,0.5951278050740559,0.11144928932189942,0.0916276216506958]},{"name":"bowl","coordinates":[0.792817211151123,0.6380412419637044,0.08777577877044677,0.04357437292734782]},{"name":"cup","coordinates":[0.837821102142334,0.677694829305013,0.028296506404876708,0.04399397373199463]}]}
