{"src":"https://a0.muscache.com/im/pictures/febc9002-e6ed-4190-80a8-93d62eddf975.jpg?aki_policy=xx_large","name":"Charming Clean and tidy apartment","listingId":19423071,"photoId":"638-1","tags":[{"name":"sofa","coordinates":[0.1715698136002468,0.770465342203776,0.37822161138928756,0.43544076283772787]},{"name":"tvmonitor","coordinates":[0.9322270212193372,0.4197950045267741,0.13176557929796234,0.310446039835612]},{"name":"pottedplant","coordinates":[0.7053072298245042,0.6815672556559245,0.1258983041316001,0.20727814038594564]},{"name":"clock","coordinates":[0.6291109747412144,0.45911089579264325,0.04651831916909958,0.08335457642873129]},{"name":"chair","coordinates":[0.5086550145159185,0.5786291122436523,0.025691216242504186,0.11086719830830892]}]}
