{"src":"https://a0.muscache.com/im/pictures/28c29d3a-5bf4-41dc-bd2d-b1b7eecb818b.jpg?aki_policy=xx_large","name":"Space Luna","listingId":17774541,"photoId":"638-1","tags":[{"name":"chair","coordinates":[0.1950156509876251,0.5614766279856364,0.1684994578361511,0.3608613650004069]},{"name":"chair","coordinates":[0.05321593284606933,0.6041901429494222,0.14609012603759766,0.3517607053120931]},{"name":"tvmonitor","coordinates":[0.7484377384185792,0.3783012390136719,0.2302607536315918,0.20288194020589193]},{"name":"diningtable","coordinates":[0.07144774198532106,0.5393435796101889,0.20567123889923095,0.08642501831054687]},{"name":"pottedplant","coordinates":[0.12506763339042665,0.4940631588300069,0.08689419031143189,0.08401825428009033]},{"name":"vase","coordinates":[0.14850466102361679,0.5441561738650005,0.038682487607002256,0.042415038744608564]}]}
