{"src":"https://a0.muscache.com/im/pictures/28c29d3a-5bf4-41dc-bd2d-b1b7eecb818b.jpg?aki_policy=xx_large","name":"Space Luna","listingId":17774541,"photoId":"638-1","tags":[{"name":"chair","coordinates":[0.27926537990570066,0.7419073104858398,0.1684994578361511,0.3608613650004069]},{"name":"chair","coordinates":[0.12626099586486816,0.7800704956054687,0.14609012603759766,0.3517607053120931]},{"name":"tvmonitor","coordinates":[0.863568115234375,0.47974220911661786,0.2302607536315918,0.20288194020589193]},{"name":"diningtable","coordinates":[0.17428336143493653,0.5825560887654623,0.20567123889923095,0.08642501831054687]},{"name":"pottedplant","coordinates":[0.16851472854614258,0.5360722859700521,0.08689419031143189,0.08401825428009033]},{"name":"vase","coordinates":[0.16784590482711792,0.5653636932373047,0.038682487607002256,0.042415038744608564]}]}
