{"src":"https://a0.muscache.com/im/pictures/28c29d3a-5bf4-41dc-bd2d-b1b7eecb818b.jpg?aki_policy=xx_large","name":"Space Luna","listingId":17774541,"photoId":"638-1","tags":[{"name":"chair","coordinates":[0.49647178649902346,0.7419073104858398,0.2995545917087131,0.3608613650004069]},{"name":"chair","coordinates":[0.22446399264865452,0.7800704956054687,0.25971577962239584,0.3517607053120931]},{"name":"tvmonitor","coordinates":[1.5352322048611111,0.47974220911661786,0.4093524509006076,0.20288194020589193]},{"name":"diningtable","coordinates":[0.3098370869954427,0.5825560887654623,0.36563775804307724,0.08642501831054687]},{"name":"pottedplant","coordinates":[0.29958173963758683,0.5360722859700521,0.1544785605536567,0.08401825428009033]},{"name":"vase","coordinates":[0.2983927196926541,0.5653636932373047,0.0687688668568929,0.042415038744608564]}]}
