{"src":"https://a0.muscache.com/im/pictures/489c3d64-e2d8-428a-91fb-66c58ca357b0.jpg?aki_policy=xx_large","name":"Spacious familyhouse near The Hague","listingId":11517950,"photoId":"64-1","tags":[{"name":"chair","coordinates":[0.6350303226047092,0.8827009201049805,0.139384036593967,0.2255117098490397]},{"name":"chair","coordinates":[0.5557993570963542,0.8650246302286784,0.09360027313232422,0.2611337979634603]},{"name":"chair","coordinates":[0.4775064680311415,0.7631090164184571,0.07124275101555719,0.22823975880940756]},{"name":"oven","coordinates":[0.30353584289550783,0.6371891657511394,0.09428045484754774,0.16972748438517252]},{"name":"pottedplant","coordinates":[0.8818870544433594,0.6309606552124023,0.07720476256476508,0.10211342175801595]},{"name":"bottle","coordinates":[0.9573452419704861,0.6231491724650066,0.03803483645121256,0.15992433230082195]},{"name":"knife","coordinates":[0.2000040266248915,0.5037723223368327,0.007249124844868978,0.018324710925420127]}]}
