{"src":"https://a0.muscache.com/im/pictures/158c5c1a-b8a4-43f9-afe7-35cad8e5dbff.jpg?aki_policy=xx_large","name":"私人影院,大露台,染成橘色的黃昏,還有夜晚的星辰 毗邻岭南天地 阳台是无遮挡的岭南明珠夜景","listingId":17808675,"photoId":"641-6","tags":[{"name":"diningtable","coordinates":[0.5240385055541992,0.7454065958658854,0.8450254440307617,0.45505975087483724]},{"name":"laptop","coordinates":[0.5992921193440756,0.6419807434082031,0.18772149085998535,0.29535350799560545]},{"name":"chair","coordinates":[0.8984308878580729,0.71209290822347,0.20525395075480143,0.26755148569742837]},{"name":"chair","coordinates":[0.14292314847310383,0.7802735010782877,0.14136896133422852,0.33716497421264646]},{"name":"chair","coordinates":[0.2139226754506429,0.6108757654825846,0.08090736865997314,0.1914776643117269]},{"name":"bottle","coordinates":[0.7209679285685221,0.7616108576456706,0.07089312076568603,0.1884046713511149]},{"name":"bottle","coordinates":[0.30288559595743814,0.6299221674601237,0.05318808555603027,0.14917489687601726]},{"name":"vase","coordinates":[0.4673715909322103,0.5633683522542318,0.0566134770711263,0.1343106746673584]},{"name":"keyboard","coordinates":[0.3780392011006673,0.6062626520792643,0.10921100775400798,0.04290660619735718]},{"name":"bottle","coordinates":[0.3211866696675619,0.5319156010945638,0.04483263889948527,0.10247969627380371]},{"name":"bottle","coordinates":[0.5878730773925781,0.5241357167561849,0.03781251907348633,0.10848786036173502]},{"name":"mouse","coordinates":[0.3675267219543457,0.702755864461263,0.056511362393697105,0.045337084929148355]}]}
