{"src":"https://a0.muscache.com/im/pictures/32bc44bb-2112-41e3-8e42-6fc3b3413c57.jpg?aki_policy=xx_large","name":"The Old Church - Spacious Studio at the beach","listingId":19444832,"photoId":"641-1","tags":[{"name":"sofa","coordinates":[0.8767257690429687,0.5893739700317383,0.26017844676971436,0.15375474294026692]},{"name":"bed","coordinates":[0.8767257690429687,0.5893739700317383,0.26017844676971436,0.15375474294026692]},{"name":"chair","coordinates":[0.5016551494598389,0.56505126953125,0.13128081560134888,0.13904654184977214]},{"name":"chair","coordinates":[0.2829017400741577,0.6066314061482747,0.0856482744216919,0.1846814473470052]},{"name":"pottedplant","coordinates":[0.3385848760604858,0.4916950543721517,0.049116671085357666,0.07286373774210612]},{"name":"pottedplant","coordinates":[0.8317744255065918,0.4491548538208008,0.03103445768356323,0.0400990088780721]}]}
