{"src":"https://a0.muscache.com/im/pictures/a05cf360-ae2a-4b8b-a481-efdb74bc2812.jpg?aki_policy=xx_large","name":"The Old Church - Spacious Studio at the beach","listingId":19444832,"photoId":"641-6","tags":[{"name":"chair","coordinates":[0.13316422568427191,0.6855000178019206,0.0910206158955892,0.2397722562154134]},{"name":"chair","coordinates":[0.23487281799316406,0.6768716812133789,0.08357441160413955,0.23593374888102214]},{"name":"sofa","coordinates":[0.3678616417778863,0.5469233194986979,0.19265418582492405,0.09560443560282389]},{"name":"pottedplant","coordinates":[0.04061073197258843,0.5079634348551433,0.03427584436204698,0.08592228889465332]},{"name":"chair","coordinates":[0.1663265652126736,0.5433744430541992,0.05113210678100586,0.04995967944463094]},{"name":"chair","coordinates":[0.12087463802761501,0.5495287577311198,0.04410965707567003,0.0478443185488383]},{"name":"chair","coordinates":[0.205675654941135,0.5466469446818034,0.03961183494991726,0.045020890235900876]},{"name":"vase","coordinates":[0.2715902540418837,0.4499058723449707,0.015459664662679036,0.02300941546758016]}]}
