{"src":"https://a0.muscache.com/im/pictures/10674db6-ecc6-45e3-932a-d9a29edc8f04.jpg?aki_policy=xx_large","name":"3 Beded AC Room-Summer Happiness @ Lucknow","listingId":17824948,"photoId":"644-3","tags":[{"name":"person","coordinates":[0.13876041836208766,0.49129257202148435,0.23200980292426215,0.6130757649739583]},{"name":"person","coordinates":[0.5669949001736111,0.4359940528869629,0.24043390485975477,0.444188912709554]},{"name":"bottle","coordinates":[0.8974768744574653,0.5265238444010417,0.13916280534532335,0.4014808019002279]},{"name":"bowl","coordinates":[0.7188473171657986,0.7151415506998698,0.2307278315226237,0.1929643154144287]},{"name":"bowl","coordinates":[0.8774656507703993,0.9390291213989258,0.249216800265842,0.11272488435109457]},{"name":"cup","coordinates":[0.6067022535536024,0.923027229309082,0.1879569583468967,0.14666395187377929]},{"name":"cup","coordinates":[0.040844737158881296,0.8531792958577474,0.07942114935980903,0.18270479838053386]},{"name":"bowl","coordinates":[0.6023445129394531,0.654851786295573,0.10013794369167751,0.09901204109191894]},{"name":"spoon","coordinates":[0.6687879774305555,0.6266021728515625,0.06886111365424262,0.08837933540344238]}]}
