{"src":"https://a0.muscache.com/im/pictures/7b3f7cbe-7bf5-4eeb-9ab4-359e5b3a2630.jpg?aki_policy=xx_large","name":"Great appartement, extraordinary location","listingId":19480754,"photoId":"645-2","tags":[{"name":"sofa","coordinates":[0.25685290349200834,0.8868890126546224,0.5032198907933026,0.21164913177490235]},{"name":"pottedplant","coordinates":[0.8914722816408964,0.6867060343424479,0.14289399995996027,0.31470251083374023]},{"name":"diningtable","coordinates":[0.2861863614122763,0.715164311726888,0.12891159428748264,0.13879456520080566]},{"name":"tvmonitor","coordinates":[0.6717259961751868,0.6675504684448242,0.14116564254283573,0.12645994027455648]},{"name":"chair","coordinates":[0.15708160930577875,0.6972113291422526,0.04838241248432342,0.13736181259155272]},{"name":"book","coordinates":[0.6820681255836302,0.8425083160400391,0.07784654035429063,0.04012089570363363]}]}
