{"src":"https://a0.muscache.com/im/pictures/e74a390f-0d61-4c73-ac43-11052d32a9a6.jpg?aki_policy=xx_large","name":"Great appartement, extraordinary location","listingId":19480754,"photoId":"645-1","tags":[{"name":"sofa","coordinates":[0.5645374721950955,0.7352551778157552,0.2936016930474175,0.29594955444335935]},{"name":"pottedplant","coordinates":[0.06974209679497613,0.6320620854695638,0.1284052530924479,0.3720207214355469]},{"name":"chair","coordinates":[0.7875078837076823,0.6841883977254232,0.08337154918246799,0.24009019533793133]},{"name":"tvmonitor","coordinates":[0.868176015218099,0.5615346272786458,0.08120595614115397,0.09034412701924642]},{"name":"pottedplant","coordinates":[0.7992604573567709,0.5403041203816732,0.05780341890123156,0.08323505719502768]}]}
