{"src":"https://a0.muscache.com/im/pictures/2626a028-bb68-4ae3-b367-3860be4988af.jpg?aki_policy=xx_large","name":"Loft nel cuore di Palermo con ampio terrazzo","listingId":17845576,"photoId":"645-1","tags":[{"name":"diningtable","coordinates":[0.1422523856163025,0.8759991327921549,0.2865877151489258,0.23763024012247722]},{"name":"microwave","coordinates":[0.8375899314880371,0.5984215418497721,0.3178036451339722,0.18845580418904623]},{"name":"oven","coordinates":[0.527861213684082,0.7900746663411459,0.13092113733291627,0.33332118988037107]},{"name":"chair","coordinates":[0.08563117980957032,0.738487180074056,0.17802445888519286,0.10904606183369954]},{"name":"sink","coordinates":[0.31777253150939944,0.5225348472595215,0.14101271629333495,0.03674921989440918]},{"name":"bowl","coordinates":[0.8166970252990723,0.46601088841756183,0.08245012760162354,0.04549738168716431]}]}
