{"src":"https://a0.muscache.com/im/pictures/2626a028-bb68-4ae3-b367-3860be4988af.jpg?aki_policy=xx_large","name":"Loft nel cuore di Palermo con ampio terrazzo","listingId":17845576,"photoId":"645-1","tags":[{"name":"diningtable","coordinates":[-0.0010414719581604004,0.7571840127309163,0.2865877151489258,0.23763024012247722]},{"name":"microwave","coordinates":[0.678688108921051,0.504193639755249,0.3178036451339722,0.18845580418904623]},{"name":"oven","coordinates":[0.4624006450176239,0.6234140714009604,0.13092113733291627,0.33332118988037107]},{"name":"chair","coordinates":[-0.0033810496330261147,0.6839641491572063,0.17802445888519286,0.10904606183369954]},{"name":"sink","coordinates":[0.24726617336273196,0.5041602373123169,0.14101271629333495,0.03674921989440918]},{"name":"bowl","coordinates":[0.7754719614982605,0.44326219757397967,0.08245012760162354,0.04549738168716431]}]}
