{"src":"https://a0.muscache.com/im/pictures/d814d5a3-1b21-423f-9e08-aae8febad1df.jpg?aki_policy=xx_large","name":"Charming family house near beach","listingId":19484205,"photoId":"646-0","tags":[{"name":"diningtable","coordinates":[0.5111584615150778,0.7882582982381184,0.8942531006809339,0.36719204584757487]},{"name":"diningtable","coordinates":[0.5211197315023103,0.6997303644816081,0.6872096436496838,0.24107478459676107]},{"name":"chair","coordinates":[0.7420128492065905,0.8386210759480794,0.22022595832320038,0.3392807960510254]},{"name":"chair","coordinates":[0.5538093537208171,0.8403640111287435,0.18721096172406979,0.3143270492553711]},{"name":"chair","coordinates":[0.3629991820814081,0.8701499938964844,0.18473120069689325,0.2406216303507487]},{"name":"pottedplant","coordinates":[0.3742454677240394,0.5832642237345378,0.16616864037420964,0.1903340975443522]},{"name":"chair","coordinates":[0.24515038872507297,0.6386482238769531,0.16924230672042193,0.09702376524607341]},{"name":"umbrella","coordinates":[0.2807111094433974,0.3560876528422038,0.053051496572531616,0.22047204971313478]},{"name":"chair","coordinates":[0.8297442128222277,0.5402637481689453,0.08777478288583718,0.09903226693471273]},{"name":"chair","coordinates":[0.495389114558001,0.5936529795328777,0.1048139045210664,0.0628788153330485]},{"name":"vase","coordinates":[0.37542330374513616,0.6616233825683594,0.03968660822174429,0.09443137645721436]},{"name":"vase","coordinates":[0.43996553532344357,0.6450176239013672,0.03227144530775018,0.09682697455088297]}]}
