{"src":"https://a0.muscache.com/im/pictures/c585258a-ee7b-4fef-918c-9ef882e1a72c.jpg?aki_policy=xx_large","name":"Depto. alberca vista al mar / Apartment on Beach","listingId":17864091,"photoId":"647-0","tags":[{"name":"pottedplant","coordinates":[0.7604811104180301,0.44466660817464193,0.3038018710950282,0.33251756032307944]},{"name":"sofa","coordinates":[0.4406549343888048,0.5685264587402343,0.31354860235883303,0.1852356751759847]},{"name":"chair","coordinates":[0.10039803869437172,0.623615837097168,0.19837965640722144,0.29053678512573244]},{"name":"vase","coordinates":[0.4704403702501227,0.7067942937215169,0.10242403240103996,0.13051618734995524]},{"name":"cat","coordinates":[0.3847271984160259,0.6987027486165365,0.09557720004576038,0.12268096605936686]}]}
