{"src":"https://a0.muscache.com/im/pictures/c585258a-ee7b-4fef-918c-9ef882e1a72c.jpg?aki_policy=xx_large","name":"Depto. alberca vista al mar / Apartment on Beach","listingId":17864091,"photoId":"647-0","tags":[{"name":"pottedplant","coordinates":[0.608580174870516,0.2784078280131022,0.3038018710950282,0.33251756032307944]},{"name":"sofa","coordinates":[0.2838806332093883,0.475908621152242,0.31354860235883303,0.1852356751759847]},{"name":"chair","coordinates":[0.0012082104907610025,0.4783474445343017,0.19837965640722144,0.29053678512573244]},{"name":"vase","coordinates":[0.41922835404960274,0.6415362000465393,0.10242403240103996,0.13051618734995524]},{"name":"cat","coordinates":[0.33693859839314566,0.637362265586853,0.09557720004576038,0.12268096605936686]}]}
