{"src":"https://a0.muscache.com/im/pictures/4341375e-d040-4cf3-88df-9a768602a31d.jpg?aki_policy=xx_large","name":"Depto. alberca vista al mar / Apartment on Beach","listingId":17864091,"photoId":"647-1","tags":[{"name":"diningtable","coordinates":[0.42151614295111767,0.37432738939921056,0.4212913089328342,0.41225614547729494]},{"name":"chair","coordinates":[0.26779282887776695,0.37414573033650717,0.22553545633951824,0.351075553894043]},{"name":"chair","coordinates":[0.7707117716471353,0.390947691599528,0.2371917724609375,0.3168528874715169]},{"name":"sofa","coordinates":[0.0535035875108507,0.34594258467356365,0.2318566640218099,0.26437201499938967]},{"name":"pottedplant","coordinates":[0.19108396106296116,0.21315832138061525,0.2273354212443034,0.23362884521484376]},{"name":"sofa","coordinates":[0.047562228308783636,0.3477552533149719,0.20882636176215277,0.12396384080251058]}]}
