{"src":"https://a0.muscache.com/im/pictures/4341375e-d040-4cf3-88df-9a768602a31d.jpg?aki_policy=xx_large","name":"Depto. alberca vista al mar / Apartment on Beach","listingId":17864091,"photoId":"647-1","tags":[{"name":"diningtable","coordinates":[0.6321617974175348,0.580455462137858,0.4212913089328342,0.41225614547729494]},{"name":"chair","coordinates":[0.38056055704752606,0.5496835072835287,0.22553545633951824,0.351075553894043]},{"name":"chair","coordinates":[0.8893076578776041,0.5493741353352865,0.2371917724609375,0.3168528874715169]},{"name":"sofa","coordinates":[0.16943191952175565,0.4781285921732585,0.2318566640218099,0.26437201499938967]},{"name":"pottedplant","coordinates":[0.30475167168511286,0.3299727439880371,0.2273354212443034,0.23362884521484376]},{"name":"sofa","coordinates":[0.15197540918986002,0.4097371737162272,0.20882636176215277,0.12396384080251058]}]}
