{"src":"https://a0.muscache.com/im/pictures/5d273432-5e12-42d0-98ba-b9cc555d5e6f.jpg?aki_policy=xx_large","name":"Stylish Home Stay in Rau 1BHK","listingId":17867497,"photoId":"648-3","tags":[{"name":"sofa","coordinates":[0.12260246011577494,0.7653729120890299,0.2555486814368915,0.47171707153320314]},{"name":"chair","coordinates":[0.4461420348357093,0.5805372873942057,0.14803693025931197,0.32572288513183595]},{"name":"chair","coordinates":[0.5656595667811196,0.5661190668741862,0.12409609183150969,0.3066005071004232]},{"name":"chair","coordinates":[0.3614832595591751,0.535436503092448,0.07643504666685229,0.3092161496480306]},{"name":"keyboard","coordinates":[0.8987344415529381,0.5537121454874675,0.07208272114251021,0.04803629318873088]},{"name":"vase","coordinates":[0.35312536926693977,0.8992964426676432,0.026721811095597185,0.0649188240369161]}]}
