{"src":"https://a0.muscache.com/im/pictures/5d273432-5e12-42d0-98ba-b9cc555d5e6f.jpg?aki_policy=xx_large","name":"Stylish Home Stay in Rau 1BHK","listingId":17867497,"photoId":"648-3","tags":[{"name":"sofa","coordinates":[-0.00517188060267082,0.5295143763224284,0.2555486814368915,0.47171707153320314]},{"name":"chair","coordinates":[0.3721235697060533,0.4176758448282878,0.14803693025931197,0.32572288513183595]},{"name":"chair","coordinates":[0.5036115208653648,0.41281881332397463,0.12409609183150969,0.3066005071004232]},{"name":"chair","coordinates":[0.32326573622574895,0.38082842826843266,0.07643504666685229,0.3092161496480306]},{"name":"keyboard","coordinates":[0.8626930809816831,0.5296939988931021,0.07208272114251021,0.04803629318873088]},{"name":"vase","coordinates":[0.33976446371914115,0.8668370306491852,0.026721811095597185,0.0649188240369161]}]}
