{"src":"https://a0.muscache.com/im/pictures/c6196548-6bf0-4593-baba-fe388105056d.jpg?aki_policy=xx_large","name":"120m2 appartement 600 mtr van strand Scheveningen","listingId":19502809,"photoId":"649-0","tags":[{"name":"oven","coordinates":[0.5942019992404514,0.7665154774983723,0.24262190924750435,0.5026073455810547]},{"name":"sink","coordinates":[0.23835570017496746,0.9301472981770833,0.328382937113444,0.14674226442972818]},{"name":"sink","coordinates":[0.36876263088650174,0.8701105753580729,0.18928981357150607,0.12834817568461102]},{"name":"bowl","coordinates":[0.3585364023844401,0.7376142501831054,0.15570225185818143,0.15184473991394043]},{"name":"bowl","coordinates":[0.4730385250515408,0.27942991256713867,0.09225204255845812,0.0723947525024414]},{"name":"cup","coordinates":[0.4969485812717014,0.11028027534484863,0.05251779556274414,0.06843406359354655]},{"name":"spoon","coordinates":[0.604622311062283,0.40050977071126304,0.019755637645721434,0.14664505322774252]},{"name":"spoon","coordinates":[0.6229492611355252,0.3953173319498698,0.01761409838994344,0.13418885866800945]}]}
