{"src":"https://a0.muscache.com/im/pictures/5ad5310a-6b3b-4a0e-92c0-69272bb98498.jpg?aki_policy=xx_large","name":"Double room in lovely quiet flat by Cottenham Park","listingId":17874293,"photoId":"650-8","tags":[{"name":"diningtable","coordinates":[0.04498088806737682,0.07267586390177416,0.9197253066763841,0.9075414657592773]},{"name":"bowl","coordinates":[0.005495744886456516,0.7827840805053711,0.23693459202334896,0.20107256571451823]},{"name":"cup","coordinates":[0.3451819981090276,0.747507913907369,0.17685936925301057,0.21324655214945476]},{"name":"cup","coordinates":[0.7138516759498283,0.6776254653930663,0.14986280659124346,0.2209850311279297]},{"name":"bowl","coordinates":[0.7138516759498283,0.6776254653930663,0.14986280659124346,0.2209850311279297]},{"name":"bowl","coordinates":[0.1858512991495307,0.4570576111475626,0.16174253881133527,0.18729888598124186]},{"name":"bowl","coordinates":[0.04919338475753664,0.37853032747904464,0.1522825419019385,0.18197692235310872]},{"name":"bowl","coordinates":[0.11406903986111869,-0.00029013156890869696,0.1904406759566396,0.12799535592397054]},{"name":"cup","coordinates":[0.22053890344674626,0.30664012432098386,0.1431868934797638,0.16017842292785645]},{"name":"bowl","coordinates":[0.22053890344674626,0.30664012432098386,0.1431868934797638,0.16017842292785645]},{"name":"cup","coordinates":[0.6348277244135517,0.22150761286417642,0.12891444478122274,0.15420385996500652]},{"name":"cup","coordinates":[0.835435117340753,0.27382233142852785,0.11616102383255231,0.13662657737731934]},{"name":"fork","coordinates":[0.4465218222234804,0.009761738777160647,0.06523161591294546,0.20223925908406576]},{"name":"knife","coordinates":[0.4465218222234804,0.009761738777160647,0.06523161591294546,0.20223925908406576]},{"name":"fork","coordinates":[0.4839326564186847,0.0033100525538126563,0.05421611050885973,0.2104819933573405]}]}
