{"src":"https://a0.muscache.com/im/pictures/5ad5310a-6b3b-4a0e-92c0-69272bb98498.jpg?aki_policy=xx_large","name":"Double room in lovely quiet flat by Cottenham Park","listingId":17874293,"photoId":"650-8","tags":[{"name":"diningtable","coordinates":[0.5048435414055689,0.5264465967814128,0.9197253066763841,0.9075414657592773]},{"name":"bowl","coordinates":[0.123963040898131,0.8833203633626302,0.23693459202334896,0.20107256571451823]},{"name":"cup","coordinates":[0.4336116827355329,0.8541311899820964,0.17685936925301057,0.21324655214945476]},{"name":"cup","coordinates":[0.7887830792454501,0.7881179809570312,0.14986280659124346,0.2209850311279297]},{"name":"bowl","coordinates":[0.7887830792454501,0.7881179809570312,0.14986280659124346,0.2209850311279297]},{"name":"bowl","coordinates":[0.2667225685551983,0.5507070541381835,0.16174253881133527,0.18729888598124186]},{"name":"bowl","coordinates":[0.12533465570850588,0.469518788655599,0.1522825419019385,0.18197692235310872]},{"name":"bowl","coordinates":[0.2092893778394385,0.06370754639307658,0.1904406759566396,0.12799535592397054]},{"name":"cup","coordinates":[0.29213235018662814,0.3867293357849121,0.1431868934797638,0.16017842292785645]},{"name":"bowl","coordinates":[0.29213235018662814,0.3867293357849121,0.1431868934797638,0.16017842292785645]},{"name":"cup","coordinates":[0.6992849468041631,0.2986095428466797,0.12891444478122274,0.15420385996500652]},{"name":"cup","coordinates":[0.8935156292570292,0.3421356201171875,0.11616102383255231,0.13662657737731934]},{"name":"fork","coordinates":[0.47913763017995314,0.11088136831919353,0.06523161591294546,0.20223925908406576]},{"name":"knife","coordinates":[0.47913763017995314,0.11088136831919353,0.06523161591294546,0.20223925908406576]},{"name":"fork","coordinates":[0.5110407116731146,0.1085510492324829,0.05421611050885973,0.2104819933573405]}]}
