{"src":"https://a0.muscache.com/im/pictures/fabcc14c-0fd7-4948-bb81-fc5d179a6a5e.jpg?aki_policy=xx_large","name":"Historic Delft, you must do !!","listingId":19514496,"photoId":"651-15","tags":[{"name":"pottedplant","coordinates":[0.29145711263020835,0.7816857655843099,0.07016839981079101,0.14036927223205567]},{"name":"person","coordinates":[0.48158370123969185,0.725278663635254,0.02801770634121365,0.11279237270355225]},{"name":"person","coordinates":[0.8347691853841146,0.7147755940755208,0.030331386460198298,0.1028307835261027]},{"name":"bicycle","coordinates":[0.4818699306911892,0.7639598210652669,0.03230520089467367,0.07713034947713217]},{"name":"person","coordinates":[0.04448667102389865,0.7646019617716472,0.020950407452053493,0.08906474908192953]},{"name":"person","coordinates":[0.4009937710232205,0.7279641469319661,0.02396977742513021,0.0743361234664917]},{"name":"clock","coordinates":[0.49097951253255206,0.2522876262664795,0.018690650992923313,0.02799197236696879]}]}
