{"src":"https://a0.muscache.com/im/pictures/a2fed82e-0280-48d8-9edf-c3edafe171ab.jpg?aki_policy=xx_large","name":"pink house","listingId":17881543,"photoId":"651-17","tags":[{"name":"diningtable","coordinates":[0.3292405366897583,0.7732904434204102,0.5337734222412109,0.386719544728597]},{"name":"chair","coordinates":[0.6321455001831054,0.7959324518839518,0.4303779125213623,0.39605913162231443]},{"name":"chair","coordinates":[0.179790198802948,0.844277826944987,0.38378396034240725,0.27941786448160805]},{"name":"pottedplant","coordinates":[0.31973843574523925,0.5079648971557618,0.15216683149337767,0.2902596155802409]},{"name":"vase","coordinates":[0.32232711315155027,0.5754053115844726,0.06214927434921265,0.14287047386169432]},{"name":"pottedplant","coordinates":[0.46753339767456054,0.5348429361979167,0.07029215097427369,0.10032745997111002]}]}
