{"src":"https://a0.muscache.com/im/pictures/b39ce832-29b9-47b7-857a-c717da15a76a.jpg?aki_policy=xx_large","name":"pink house","listingId":17881543,"photoId":"651-6","tags":[{"name":"pottedplant","coordinates":[0.9828124046325684,0.29167811075846356,0.2976577043533325,0.44886639912923176]},{"name":"sink","coordinates":[0.8313264846801758,0.5849974314371745,0.40613470077514646,0.27839905420939126]},{"name":"bowl","coordinates":[0.48562421798706057,0.6309342702229818,0.27152400016784667,0.21340670585632324]},{"name":"bowl","coordinates":[0.4806339740753174,0.5458749771118164,0.21764211654663085,0.17716271082560223]},{"name":"cup","coordinates":[0.4806339740753174,0.5458749771118164,0.21764211654663085,0.17716271082560223]},{"name":"cup","coordinates":[0.25539536476135255,0.6528777440388998,0.1349152445793152,0.23178755442301432]},{"name":"vase","coordinates":[1.099352741241455,0.4533757209777832,0.04812899827957153,0.21230031649271647]},{"name":"spoon","coordinates":[0.21106381416320802,0.47949482599894205,0.05097155570983887,0.1421940008799235]}]}
