{"src":"https://a0.muscache.com/im/pictures/a2fed82e-0280-48d8-9edf-c3edafe171ab.jpg?aki_policy=xx_large","name":"pink house","listingId":17881543,"photoId":"651-17","tags":[{"name":"diningtable","coordinates":[0.06235382556915281,0.5799306710561117,0.5337734222412109,0.386719544728597]},{"name":"chair","coordinates":[0.4169565439224243,0.5979028860727946,0.4303779125213623,0.39605913162231443]},{"name":"chair","coordinates":[-0.012101781368255626,0.7045688947041829,0.38378396034240725,0.27941786448160805]},{"name":"pottedplant","coordinates":[0.2436550199985504,0.36283508936564135,0.15216683149337767,0.2902596155802409]},{"name":"vase","coordinates":[0.2912524759769439,0.5039700746536254,0.06214927434921265,0.14287047386169432]},{"name":"pottedplant","coordinates":[0.4323873221874237,0.48467920621236166,0.07029215097427369,0.10032745997111002]}]}
