{"src":"https://a0.muscache.com/im/pictures/7ce3e355-f898-4ccd-86a0-83507320590d.jpg?aki_policy=xx_large","name":"Historic Delft, you must do !!","listingId":19514496,"photoId":"651-6","tags":[{"name":"diningtable","coordinates":[0.6726341247558594,0.7722337086995442,0.43276243209838866,0.42623697916666664]},{"name":"bed","coordinates":[0.3349167346954346,0.6741149266560872,0.4675875663757324,0.32389920552571616]},{"name":"chair","coordinates":[0.7984861373901367,0.7833323796590169,0.22933781147003174,0.45175158182779945]},{"name":"chair","coordinates":[0.548630666732788,0.7780024210611979,0.19146372079849244,0.3487801233927409]},{"name":"pottedplant","coordinates":[0.029241737723350526,0.47672090530395506,0.05006283521652222,0.2507520039876302]},{"name":"bowl","coordinates":[0.6955527305603028,0.5625243504842122,0.072076416015625,0.0598227063814799]},{"name":"apple","coordinates":[0.6830966472625732,0.5414517084757487,0.021644888818264006,0.025339271624883017]}]}
