{"src":"https://a0.muscache.com/im/pictures/413b01ae-5590-4634-b179-c5f72b126952.jpg?aki_policy=xx_large","name":"Flat na Estrada dos Bandeirantes - Best Western","listingId":17890530,"photoId":"652-1","tags":[{"name":"bench","coordinates":[0.396933831108941,0.7305046081542969,0.5342104593912761,0.45210310618082683]},{"name":"diningtable","coordinates":[0.396933831108941,0.7305046081542969,0.5342104593912761,0.45210310618082683]},{"name":"oven","coordinates":[0.6810927497016059,0.5807957967122396,0.3436495674981011,0.26758238474527996]},{"name":"chair","coordinates":[0.11111945046318902,0.7189130147298177,0.21467823452419704,0.27483628590901693]},{"name":"oven","coordinates":[0.637867906358507,0.44669907887776694,0.11987712648179796,0.05493844350179036]},{"name":"wine-glass","coordinates":[0.7738687303331163,0.3193084716796875,0.025659778383043078,0.052300238609313966]}]}
