{"src":"https://a0.muscache.com/im/pictures/79cf2a61-1e2c-435f-a5b3-9bfed053e8c0.jpg?aki_policy=xx_large","name":"JAPAN TOKYO Disneyland sea 舞浜駅 女王","listingId":17895547,"photoId":"653-17","tags":[{"name":"car","coordinates":[0.6209933810763889,0.5694021860758464,0.4815065595838759,0.603025245666504]},{"name":"bus","coordinates":[0.14478365580240884,0.39140545527140297,0.2736280017428928,0.2669758478800456]},{"name":"truck","coordinates":[0.3760564168294271,0.41539036432902016,0.0921738412645128,0.11006557941436768]},{"name":"traffic-light","coordinates":[0.858827887641059,0.07973752816518148,0.058845700158013235,0.16346559524536133]},{"name":"traffic-light","coordinates":[0.6679737514919705,0.014747294783592223,0.07719207339816624,0.03213109175364177]},{"name":"car","coordinates":[0.4494983673095703,0.4081944147745768,0.04085779454973009,0.04286377827326457]}]}
