{"src":"https://a0.muscache.com/im/pictures/79cf2a61-1e2c-435f-a5b3-9bfed053e8c0.jpg?aki_policy=xx_large","name":"JAPAN TOKYO Disneyland sea 舞浜駅 女王","listingId":17895547,"photoId":"653-17","tags":[{"name":"car","coordinates":[0.38024010128445096,0.2678895632425944,0.4815065595838759,0.603025245666504]},{"name":"bus","coordinates":[0.007969654930962439,0.2579175313313802,0.2736280017428928,0.2669758478800456]},{"name":"truck","coordinates":[0.3299694961971707,0.3603575746218363,0.0921738412645128,0.11006557941436768]},{"name":"traffic-light","coordinates":[0.8294050375620524,-0.0019952694574991853,0.058845700158013235,0.16346559524536133]},{"name":"traffic-light","coordinates":[0.6293777147928874,-0.0013182510932286604,0.07719207339816624,0.03213109175364177]},{"name":"car","coordinates":[0.4290694700347053,0.3867625256379445,0.04085779454973009,0.04286377827326457]}]}
