{"src":"https://a0.muscache.com/im/pictures/7b4c86d6-afd0-4440-8217-e42af50910d2.jpg?aki_policy=xx_large","name":"Unique detached city villa near beach&amp;city centre","listingId":19569266,"photoId":"656-3","tags":[{"name":"diningtable","coordinates":[0.5887031131320529,0.7206965128580729,0.8726706610785591,0.4609658241271973]},{"name":"chair","coordinates":[0.5150363922119141,0.8567441940307617,0.3014974382188585,0.2896076202392578]},{"name":"chair","coordinates":[0.2691058900621202,0.7940793991088867,0.1716452810499403,0.40466957092285155]},{"name":"chair","coordinates":[0.1570564481947157,0.6399876276652018,0.11925451490614149,0.3017299969991048]},{"name":"banana","coordinates":[0.7732054816351996,0.6236982981363932,0.19383987850613063,0.09071315924326578]},{"name":"apple","coordinates":[0.84876463148329,0.7513774871826172,0.11482634014553494,0.09679952462514242]},{"name":"chair","coordinates":[0.5685253567165799,0.4810434023539225,0.08323112063937717,0.1153101921081543]},{"name":"apple","coordinates":[0.9456572638617622,0.7570674260457356,0.10416813956366645,0.07249265511830648]},{"name":"chair","coordinates":[0.22671599917941623,0.49337860743204753,0.1658489121331109,0.035415709018707275]},{"name":"vase","coordinates":[0.6478419409857856,0.35437180201212565,0.027617820103963218,0.037070576349894205]}]}
