{"src":"https://a0.muscache.com/im/pictures/b313bc67-fcee-4bc0-a26c-1997753b72f3.jpg?aki_policy=xx_large","name":"Unique art Pyramids View 1 + Transportations","listingId":17915817,"photoId":"658-11","tags":[{"name":"car","coordinates":[0.23729123716001158,0.5975034077962239,0.4213854471842448,0.31277825037638346]},{"name":"person","coordinates":[0.46053088152850113,0.5661224365234375,0.2546282450358073,0.3343070030212402]},{"name":"person","coordinates":[0.7834693060980903,0.5475023905436198,0.1909187740749783,0.397531255086263]},{"name":"person","coordinates":[0.6500826800311054,0.5441397349039714,0.1819490079526548,0.36366987228393555]},{"name":"person","coordinates":[0.5400934290002893,0.5561743418375651,0.15535042374222366,0.33946800231933594]},{"name":"handbag","coordinates":[0.42042903193721065,0.5906236012776692,0.20337353459110966,0.10090602238972982]},{"name":"handbag","coordinates":[0.8077102095992477,0.6302492777506511,0.1319258937129268,0.11433102289835612]},{"name":"chair","coordinates":[0.8923524079499421,0.5501598358154297,0.12096523708767361,0.11911243597666422]}]}
