{"src":"https://a0.muscache.com/im/pictures/b313bc67-fcee-4bc0-a26c-1997753b72f3.jpg?aki_policy=xx_large","name":"Unique art Pyramids View 1 + Transportations","listingId":17915817,"photoId":"658-11","tags":[{"name":"car","coordinates":[0.02659851356788917,0.4411142826080322,0.4213854471842448,0.31277825037638346]},{"name":"person","coordinates":[0.3332167590105975,0.3989689350128174,0.2546282450358073,0.3343070030212402]},{"name":"person","coordinates":[0.6880099190606012,0.3487367630004883,0.1909187740749783,0.397531255086263]},{"name":"person","coordinates":[0.5591081760547779,0.3623047987620036,0.1819490079526548,0.36366987228393555]},{"name":"person","coordinates":[0.4624182171291775,0.3864403406778971,0.15535042374222366,0.33946800231933594]},{"name":"handbag","coordinates":[0.31874226464165584,0.5401705900828043,0.20337353459110966,0.10090602238972982]},{"name":"handbag","coordinates":[0.7417472627427842,0.5730837663014731,0.1319258937129268,0.11433102289835612]},{"name":"chair","coordinates":[0.8318697894061052,0.4906036178270976,0.12096523708767361,0.11911243597666422]}]}
