{"src":"https://a0.muscache.com/im/pictures/c8a66ecc-bf17-47f5-aba7-f03d05fed9b2.jpg?aki_policy=xx_large","name":"Budget Studio Room near NAIA-3 &amp; RW Manila","listingId":17916730,"photoId":"659-7","tags":[{"name":"diningtable","coordinates":[0.3970524681939019,0.854616928100586,0.5191016303168403,0.20899961789449056]},{"name":"chair","coordinates":[0.8951119316948785,0.8509716669718425,0.2120379130045573,0.2650846163431803]},{"name":"chair","coordinates":[0.21641326480441622,0.7671787897745769,0.19160673353407118,0.19149815241495768]},{"name":"vase","coordinates":[0.39785630967881946,0.800016212463379,0.06092355516221788,0.08119686444600423]},{"name":"car","coordinates":[0.6982581668429905,0.7520865122477214,0.03798883491092258,0.0268047571182251]},{"name":"car","coordinates":[0.6272373199462891,0.7774951299031575,0.03760921160380046,0.02489523688952128]}]}
