{"src":"https://a0.muscache.com/im/pictures/c8a66ecc-bf17-47f5-aba7-f03d05fed9b2.jpg?aki_policy=xx_large","name":"Budget Studio Room near NAIA-3 &amp; RW Manila","listingId":17916730,"photoId":"659-7","tags":[{"name":"diningtable","coordinates":[0.7941049363878038,0.854616928100586,1.0382032606336806,0.20899961789449056]},{"name":"chair","coordinates":[1.790223863389757,0.8509716669718425,0.4240758260091146,0.2650846163431803]},{"name":"chair","coordinates":[0.43282652960883244,0.7671787897745769,0.38321346706814235,0.19149815241495768]},{"name":"vase","coordinates":[0.7957126193576389,0.800016212463379,0.12184711032443576,0.08119686444600423]},{"name":"car","coordinates":[1.396516333685981,0.7520865122477214,0.07597766982184516,0.0268047571182251]},{"name":"car","coordinates":[1.2544746398925781,0.7774951299031575,0.07521842320760092,0.02489523688952128]}]}
