{"src":"https://a0.muscache.com/im/pictures/c8a66ecc-bf17-47f5-aba7-f03d05fed9b2.jpg?aki_policy=xx_large","name":"Budget Studio Room near NAIA-3 &amp; RW Manila","listingId":17916730,"photoId":"659-7","tags":[{"name":"diningtable","coordinates":[0.13750165303548173,0.7501171191533407,0.5191016303168403,0.20899961789449056]},{"name":"chair","coordinates":[0.7890929751925998,0.7184293588002523,0.2120379130045573,0.2650846163431803]},{"name":"chair","coordinates":[0.12060989803738063,0.671429713567098,0.19160673353407118,0.19149815241495768]},{"name":"vase","coordinates":[0.3673945320977105,0.7594177802403769,0.06092355516221788,0.08119686444600423]},{"name":"car","coordinates":[0.6792637493875292,0.7386841336886089,0.03798883491092258,0.0268047571182251]},{"name":"car","coordinates":[0.6084327141443888,0.7650475114583969,0.03760921160380046,0.02489523688952128]}]}
