{"src":"https://a0.muscache.com/im/pictures/e28fb49d-69af-44c8-9c61-b94764093a0b.jpg?aki_policy=xx_large","name":"INHOTIM - CHALÉ  FAMÍLIA /COM ESPAÇO GOURMET.","listingId":11510252,"photoId":"66-17","tags":[{"name":"umbrella","coordinates":[0.5811475347908879,-0.010467720031738292,0.41681973559468444,0.5779352188110352]},{"name":"bench","coordinates":[0.3653981682322453,0.5565256118774413,0.5925891435859266,0.3991160074869792]},{"name":"bench","coordinates":[0.41066908537927027,0.5392871061960857,0.4958621304953712,0.20328130722045898]},{"name":"chair","coordinates":[0.8797001633093652,0.5877620855967204,0.11902816836127651,0.3388180732727051]},{"name":"chair","coordinates":[0.31621142985591966,0.6317461331685383,0.1434659785455059,0.28086236317952473]},{"name":"pottedplant","coordinates":[0.2706922045669237,0.4219679673512776,0.08320294567208959,0.06465603510538737]},{"name":"bowl","coordinates":[0.11469660083839725,0.1522815634806951,0.04564906028779392,0.032553750276565555]}]}
