{"src":"https://a0.muscache.com/im/pictures/4f7a4e36-6a0d-451a-a7cd-8fc952272196.jpg?aki_policy=xx_large","name":"Spacious seaview apartment","listingId":11547962,"photoId":"66-1","tags":[{"name":"chair","coordinates":[0.24435122013092042,0.9234445571899415,0.17035531997680664,0.1583290417989095]},{"name":"car","coordinates":[0.751644229888916,0.6830069859822591,0.2007603883743286,0.10015554428100586]},{"name":"tvmonitor","coordinates":[0.45023021697998045,0.6105618794759115,0.14034435749053956,0.13848309516906737]},{"name":"car","coordinates":[0.9580634117126465,0.6734216054280598,0.07985824346542358,0.10238610903422038]},{"name":"pottedplant","coordinates":[0.3364004850387573,0.6457066853841146,0.07233573198318481,0.09399472077687582]},{"name":"vase","coordinates":[0.2627673387527466,0.6562938054402669,0.058871394395828246,0.0760838508605957]},{"name":"vase","coordinates":[0.3380494356155396,0.6684864044189454,0.029759231209754943,0.039973159631093345]}]}
