{"src":"https://a0.muscache.com/im/pictures/13145cbd-b9a3-4178-a19c-4e7cee892b50.jpg?aki_policy=xx_large","name":"Den Haag Central to cozy rooms: 1.2km on foot 懂汉语","listingId":19599818,"photoId":"661-0","tags":[{"name":"sofa","coordinates":[0.8383068084716797,0.7331650416056316,0.31399619579315186,0.4371959686279297]},{"name":"diningtable","coordinates":[0.2788836479187012,0.6022166570027669,0.23670647144317628,0.24623403549194336]},{"name":"chair","coordinates":[0.5674024105072022,0.6112211227416993,0.15614527463912964,0.3023480097452799]},{"name":"tvmonitor","coordinates":[0.04902667105197907,0.5181610107421875,0.08170490264892578,0.4593923568725586]},{"name":"chair","coordinates":[0.24967691898345948,0.6184475580851237,0.09398727416992188,0.23386201858520508]},{"name":"chair","coordinates":[0.36269915103912354,0.6077540715535482,0.08722368478775025,0.22112223307291667]},{"name":"chair","coordinates":[0.18091608285903932,0.5847265879313152,0.0668852984905243,0.1880947748819987]},{"name":"chair","coordinates":[0.405454158782959,0.5822407404581705,0.053959041833877563,0.1984728972117106]},{"name":"vase","coordinates":[0.28190567493438723,0.48883781433105467,0.027694225311279297,0.050205691655476885]},{"name":"cup","coordinates":[0.22535719871520996,0.48910547892252604,0.025305202603340148,0.038376001516977946]}]}
