{"src":"https://a0.muscache.com/im/pictures/fd08d2b7-d28f-4b10-ba6c-827b2d26bd74.jpg?aki_policy=xx_large","name":"Peaceful house in the city of Peace","listingId":19608004,"photoId":"662-0","tags":[{"name":"book","coordinates":[0.7182897567749024,0.4084038734436035,0.5973535060882569,0.9618174235026041]},{"name":"book","coordinates":[0.7260169982910156,0.20540229479471842,0.6094092845916748,0.4217933336893717]},{"name":"chair","coordinates":[0.4442770957946777,0.8230352401733398,0.3930659770965576,0.3462634722391764]},{"name":"sofa","coordinates":[0.1151652455329895,0.8108479181925455,0.2282932758331299,0.3607293446858724]},{"name":"chair","coordinates":[0.1151652455329895,0.8108479181925455,0.2282932758331299,0.3607293446858724]},{"name":"pottedplant","coordinates":[0.058706992864608766,0.32290480931599935,0.1129073143005371,0.36928567886352537]},{"name":"pottedplant","coordinates":[0.4739807605743408,0.3695461908976237,0.1428183436393738,0.2731433550516764]},{"name":"chair","coordinates":[0.16050903797149657,0.568699328104655,0.11975229978561401,0.174547545115153]}]}
