{"src":"https://a0.muscache.com/im/pictures/5ddd4545-9ace-4b9a-9055-9e94283be590.jpg?aki_policy=xx_large","name":"10 min from Shibuya, with free wifi, women only","listingId":17952669,"photoId":"663-0","tags":[{"name":"bed","coordinates":[0.42462642070149514,0.7554297129313151,0.7571302474954363,0.4903456687927246]},{"name":"bed","coordinates":[0.5604299829135518,0.6212012608846028,0.40193908436739395,0.28027222951253256]},{"name":"pottedplant","coordinates":[0.1712149990118926,0.541845703125,0.177518438729192,0.24310305913289387]},{"name":"chair","coordinates":[0.01782094321429978,0.5982418060302734,0.03513070107832737,0.49778544108072914]},{"name":"clock","coordinates":[0.4133375907972227,0.2549065113067627,0.04024180649716267,0.07438669204711915]}]}
