{"src":"https://a0.muscache.com/im/pictures/5ddd4545-9ace-4b9a-9055-9e94283be590.jpg?aki_policy=xx_large","name":"10 min from Shibuya, with free wifi, women only","listingId":17952669,"photoId":"663-0","tags":[{"name":"bed","coordinates":[0.046061296953776976,0.5102568785349528,0.7571302474954363,0.4903456687927246]},{"name":"bed","coordinates":[0.35946044072985484,0.4810651461283365,0.40193908436739395,0.28027222951253256]},{"name":"pottedplant","coordinates":[0.0824557796472966,0.4202941735585531,0.177518438729192,0.24310305913289387]},{"name":"chair","coordinates":[0.00025559267513609527,0.34934908548990884,0.03513070107832737,0.49778544108072914]},{"name":"clock","coordinates":[0.39321668754864136,0.21771316528320311,0.04024180649716267,0.07438669204711915]}]}
