{"src":"https://a0.muscache.com/im/pictures/f53d12ab-2dbf-4984-b5a1-3867564b1d55.jpg?aki_policy=xx_large","name":"Schönes Zimmer, ruhige Lage, nahe Messe Düsseldorf","listingId":17966752,"photoId":"665-3","tags":[{"name":"chair","coordinates":[0.016683235239230626,0.5818539142608643,0.313155391884204,0.3311719576517741]},{"name":"chair","coordinates":[0.2705158240719938,0.5389695167541504,0.2828341397372159,0.3422978083292643]},{"name":"refrigerator","coordinates":[0.8991826929718754,0.4352166970570882,0.10784226313150437,0.3832299868265788]},{"name":"microwave","coordinates":[0.4200738188508269,0.3781053006649017,0.14522543997401874,0.05542689561843872]},{"name":"pottedplant","coordinates":[0.6247303844161732,0.44651053547859193,0.07962822427555007,0.05126273234685262]},{"name":"bottle","coordinates":[0.5369442681434645,0.4731598178545634,0.015331953045167374,0.03103593985239665]}]}
