{"src":"https://a0.muscache.com/im/pictures/f53d12ab-2dbf-4984-b5a1-3867564b1d55.jpg?aki_policy=xx_large","name":"Schönes Zimmer, ruhige Lage, nahe Messe Düsseldorf","listingId":17966752,"photoId":"665-3","tags":[{"name":"chair","coordinates":[0.17326093118133262,0.7474398930867513,0.313155391884204,0.3311719576517741]},{"name":"chair","coordinates":[0.4119328939406018,0.7101184209187825,0.2828341397372159,0.3422978083292643]},{"name":"refrigerator","coordinates":[0.9531038245376275,0.6268316904703776,0.10784226313150437,0.3832299868265788]},{"name":"microwave","coordinates":[0.49268653883783625,0.4058187484741211,0.14522543997401874,0.05542689561843872]},{"name":"pottedplant","coordinates":[0.6645444965539483,0.47214190165201825,0.07962822427555007,0.05126273234685262]},{"name":"bottle","coordinates":[0.5446102446660482,0.4886777877807617,0.015331953045167374,0.03103593985239665]}]}
