{"src":"https://a0.muscache.com/im/pictures/fdc3aab5-a62f-4989-aaff-c82207f45afc.jpg?aki_policy=xx_large","name":"Charming expat apartment near city, station&amp;sea","listingId":19620112,"photoId":"665-4","tags":[{"name":"sofa","coordinates":[0.7085249900817872,0.7045488357543945,0.46919827461242675,0.5909856160481771]},{"name":"chair","coordinates":[0.5342065811157226,0.42637542088826497,0.1336662769317627,0.2000313440958659]},{"name":"tvmonitor","coordinates":[0.24984631538391114,0.4563186009724935,0.10199537277221679,0.20329469045003254]},{"name":"tvmonitor","coordinates":[0.3998041391372681,0.3416489601135254,0.08176940679550171,0.1294382651646932]},{"name":"car","coordinates":[0.8944588661193847,0.20418047904968262,0.07316184639930726,0.05282572110493978]},{"name":"car","coordinates":[0.7420373439788819,0.22592382431030272,0.07096693515777588,0.05400809446970622]}]}
