{"src":"https://a0.muscache.com/im/pictures/f53d12ab-2dbf-4984-b5a1-3867564b1d55.jpg?aki_policy=xx_large","name":"Schönes Zimmer, ruhige Lage, nahe Messe Düsseldorf","listingId":17966752,"photoId":"665-3","tags":[{"name":"chair","coordinates":[0.11486794822477034,0.7474398930867513,0.20761470630453374,0.3311719576517741]},{"name":"chair","coordinates":[0.2731018817146179,0.7101184209187825,0.1875124247458295,0.3422978083292643]},{"name":"refrigerator","coordinates":[0.6318855614093251,0.6268316904703776,0.07149690015729503,0.3832299868265788]},{"name":"microwave","coordinates":[0.3266396610499308,0.4058187484741211,0.0962810727503027,0.05542689561843872]},{"name":"pottedplant","coordinates":[0.44057747065507763,0.47214190165201825,0.05279165176447907,0.05126273234685262]},{"name":"bottle","coordinates":[0.3610638645448955,0.4886777877807617,0.01016472655762019,0.03103593985239665]}]}
