{"src":"https://a0.muscache.com/im/pictures/3469d0f1-8c68-4f67-8fb6-f7436162988e.jpg?aki_policy=xx_large","name":"Family home in Scheveningen near the beach","listingId":19623341,"photoId":"666-0","tags":[{"name":"diningtable","coordinates":[0.6741000281439887,0.7252206802368164,0.6752115885416666,0.517069403330485]},{"name":"chair","coordinates":[0.3992761823866102,0.744101079305013,0.11120749579535591,0.49102824529012046]},{"name":"pottedplant","coordinates":[0.548321787516276,0.36234169006347655,0.15922891828748914,0.3301585833231608]},{"name":"pottedplant","coordinates":[0.1394161542256673,0.4268376668294271,0.14903185102674696,0.3322712580362956]},{"name":"chair","coordinates":[0.5468591054280599,0.8764204025268555,0.16699959437052408,0.22940945625305176]},{"name":"sofa","coordinates":[0.25198018815782336,0.3643881479899089,0.15570064120822483,0.1409278392791748]},{"name":"chair","coordinates":[0.8642288208007812,0.600680160522461,0.1374097506205241,0.14709188143412272]},{"name":"chair","coordinates":[0.4043597751193576,0.3494884173075358,0.08244965341356066,0.16000526746114094]},{"name":"chair","coordinates":[0.7005707210964627,0.4908554712931315,0.08925238715277778,0.0799379825592041]},{"name":"bottle","coordinates":[0.8173946804470487,0.4519147237141927,0.03720392386118571,0.16856884956359863]},{"name":"vase","coordinates":[0.8173946804470487,0.4519147237141927,0.03720392386118571,0.16856884956359863]},{"name":"chair","coordinates":[0.4716055128309462,0.446659787495931,0.09021544986300999,0.061527649561564125]},{"name":"pottedplant","coordinates":[0.7718027750651042,0.2741956392923991,0.04489989810519748,0.11433367729187012]},{"name":"vase","coordinates":[0.540401119656033,0.46022758483886717,0.04030043284098307,0.10898024241129557]},{"name":"bowl","coordinates":[0.72432861328125,0.30711946487426756,0.06158861054314507,0.048960272471110025]},{"name":"orange","coordinates":[0.7218773735894097,0.29498017628987633,0.031953684488932294,0.02212982972462972]}]}
