{"src":"https://a0.muscache.com/im/pictures/a3cd2b67-8c59-467c-8a11-9984fd930628.jpg?aki_policy=xx_large","name":"Family home in Scheveningen near the beach","listingId":19623341,"photoId":"666-1","tags":[{"name":"sofa","coordinates":[0.4078103807237413,0.6199207941691081,0.3820706685384115,0.35320040384928386]},{"name":"pottedplant","coordinates":[0.06900532510545519,0.6525140762329101,0.13848476409912108,0.46670506795247396]},{"name":"chair","coordinates":[0.9209072536892361,0.5790707270304362,0.15711869133843315,0.3005937258402506]},{"name":"vase","coordinates":[0.03444242477416992,0.828134028116862,0.06288358370463053,0.3175847371419271]},{"name":"pottedplant","coordinates":[0.8200377570258246,0.3655874252319336,0.08317978647020129,0.11347079277038574]},{"name":"pottedplant","coordinates":[0.4575694613986545,0.4078810373942057,0.046376276016235354,0.0616207758585612]},{"name":"vase","coordinates":[0.9131384107801649,0.4067389170328776,0.0325189299053616,0.06098403533299764]},{"name":"pottedplant","coordinates":[0.8785203721788194,0.40428206125895183,0.03554822074042426,0.0550100564956665]}]}
