{"src":"https://a0.muscache.com/im/pictures/586bbf88-2e31-4979-bba6-81bb0a0214ef.jpg?aki_policy=xx_large","name":"Уютная квартира в новом высотном доме.","listingId":17984776,"photoId":"667-1","tags":[{"name":"microwave","coordinates":[0.8626585218641493,0.24766971270243326,0.22828358544243707,0.4377015749613444]},{"name":"tvmonitor","coordinates":[0.8626585218641493,0.24766971270243326,0.22828358544243707,0.4377015749613444]},{"name":"refrigerator","coordinates":[0.16290551291571723,0.6261248270670573,0.16227211422390408,0.39764429728190104]},{"name":"oven","coordinates":[0.28768571217854816,0.7422255833943685,0.18812728457980685,0.3328904469807943]},{"name":"microwave","coordinates":[0.15988066991170247,0.4166452725728353,0.12925006018744575,0.07358946005503336]},{"name":"sink","coordinates":[0.6384632534450955,0.6864930470784505,0.11926187939114041,0.057379929224650066]}]}
