{"src":"https://a0.muscache.com/im/pictures/586bbf88-2e31-4979-bba6-81bb0a0214ef.jpg?aki_policy=xx_large","name":"Уютная квартира в новом высотном доме.","listingId":17984776,"photoId":"667-1","tags":[{"name":"microwave","coordinates":[0.7485167291429308,0.028818925221761077,0.22828358544243707,0.4377015749613444]},{"name":"tvmonitor","coordinates":[0.7485167291429308,0.028818925221761077,0.22828358544243707,0.4377015749613444]},{"name":"refrigerator","coordinates":[0.08176945580376518,0.4273026784261068,0.16227211422390408,0.39764429728190104]},{"name":"oven","coordinates":[0.19362206988864472,0.5757803599039714,0.18812728457980685,0.3328904469807943]},{"name":"microwave","coordinates":[0.09525563981797959,0.3798505425453186,0.12925006018744575,0.07358946005503336]},{"name":"sink","coordinates":[0.5788323137495253,0.6578030824661255,0.11926187939114041,0.057379929224650066]}]}
