{"src":"https://a0.muscache.com/im/pictures/ed902477-f2f9-4a39-b20d-48887c0fe573.jpg?aki_policy=xx_large","name":"Studio Punt Uit, Delft (studio Punt), free parking","listingId":11632137,"photoId":"67-0","tags":[{"name":"diningtable","coordinates":[0.25798651377360027,0.7208827336629232,0.26285493638780383,0.3939801216125488]},{"name":"chair","coordinates":[0.1610253440009223,0.7405640920003255,0.1741381115383572,0.3987829526265462]},{"name":"chair","coordinates":[0.35274505615234375,0.7132726033528646,0.14942139519585504,0.37546701431274415]},{"name":"bowl","coordinates":[0.5249270121256511,0.6933645884195964,0.1067673577202691,0.07471528053283691]},{"name":"chair","coordinates":[0.2928614086574978,0.5175063133239746,0.06866571108500162,0.03825666109720866]},{"name":"bottle","coordinates":[0.24941717783610026,0.49589408238728844,0.028022408485412598,0.08191584746042888]}]}
