{"src":"https://a0.muscache.com/im/pictures/b4c44570-e5e8-463e-89ec-fbf7f14eadf1.jpg?aki_policy=xx_large","name":"Ruim appartement vlakbij het centrum","listingId":19657756,"photoId":"671-3","tags":[{"name":"refrigerator","coordinates":[0.906918716430664,0.6700286229451498,0.17575435638427733,0.5252318382263184]},{"name":"pottedplant","coordinates":[0.7394990444183349,0.676441510518392,0.17652882337570192,0.48449344635009767]},{"name":"chair","coordinates":[0.4438150882720947,0.8709123611450196,0.20020592212677002,0.25794774691263833]},{"name":"chair","coordinates":[0.3130794048309326,0.8541497548421224,0.11945371627807617,0.27572638193766275]},{"name":"chair","coordinates":[0.26039168834686277,0.8331060409545898,0.056345367431640626,0.2647003491719564]},{"name":"clock","coordinates":[0.9655438423156738,0.149764347076416,0.06812682747840881,0.13252031803131104]},{"name":"vase","coordinates":[0.5095598697662354,0.689476203918457,0.04750326871871948,0.09598936239878336]},{"name":"bottle","coordinates":[0.37465462684631345,0.638216209411621,0.01904907524585724,0.04910423755645752]},{"name":"bottle","coordinates":[0.3582724332809448,0.6372278213500977,0.01751904785633087,0.04900506337483724]},{"name":"book","coordinates":[0.5500511169433594,0.6493411382039388,0.009911686927080155,0.03860673904418945]},{"name":"book","coordinates":[0.5861682891845703,0.6504816691080729,0.009430576860904694,0.0404793381690979]},{"name":"book","coordinates":[0.5669742584228515,0.6502789815266927,0.00838358849287033,0.03934325774510702]},{"name":"book","coordinates":[0.642212963104248,0.6605501174926758,0.006732330471277237,0.04146558443705241]},{"name":"book","coordinates":[0.6258939743041992,0.6596055348714193,0.006499781459569931,0.0394930084546407]}]}
