{"src":"https://a0.muscache.com/im/pictures/a3afdad5-7ad2-49f4-8dea-651d3c67e782.jpg?aki_policy=xx_large","name":"Ruim appartement vlakbij het centrum","listingId":19657756,"photoId":"671-5","tags":[{"name":"oven","coordinates":[0.1559475580851237,0.6707274754842122,0.28248526255289713,0.34883524576822916]},{"name":"sink","coordinates":[0.52386048634847,0.5459227244059245,0.19331987698872885,0.06875797907511393]},{"name":"bottle","coordinates":[0.6338440577189127,0.5255097071329753,0.023348462581634522,0.08393159707387289]},{"name":"bowl","coordinates":[0.31462542215983075,0.48650693893432617,0.05767332712809245,0.03138755559921265]},{"name":"book","coordinates":[0.44352149963378906,0.32169679005940754,0.008578766385714214,0.060013035933176674]},{"name":"knife","coordinates":[0.40559151967366536,0.41779425938924153,0.008082922299702961,0.03851372003555298]},{"name":"knife","coordinates":[0.40354010264078777,0.4282602945963542,0.009415140748023987,0.031663499275843304]}]}
