{"src":"https://a0.muscache.com/im/pictures/1da18d84-bdcb-4b87-afd5-97c9ab7a363a.jpg?aki_policy=xx_large","name":"Ruim appartement vlakbij het centrum","listingId":19657756,"photoId":"671-2","tags":[{"name":"diningtable","coordinates":[0.6189992427825928,0.7930944442749024,0.7768336296081543,0.33620414733886717]},{"name":"chair","coordinates":[0.9271698951721191,0.8481583913167318,0.13122297525405885,0.28976713816324867]},{"name":"chair","coordinates":[0.8017922401428222,0.8911692937215169,0.16641707420349122,0.19971644083658854]},{"name":"chair","coordinates":[0.6681641578674317,0.9182401021321615,0.17436801195144652,0.14203303654988605]},{"name":"vase","coordinates":[0.5429740428924561,0.7201218922932943,0.07668015360832214,0.1395147959391276]},{"name":"chair","coordinates":[0.342794394493103,0.7267572402954101,0.12377443313598632,0.05577726761500041]},{"name":"bottle","coordinates":[0.3014582395553589,0.5213870366414388,0.02297535687685013,0.08220976988474528]},{"name":"bottle","coordinates":[0.33091461658477783,0.5203425725301106,0.019384227693080902,0.07809630235036215]},{"name":"bottle","coordinates":[0.3550452947616577,0.5157327651977539,0.018745122849941252,0.07759199937184652]},{"name":"bottle","coordinates":[0.2779793977737427,0.5363438288370769,0.016358630359172822,0.06821489334106445]}]}
