{"src":"https://a0.muscache.com/im/pictures/3d7d478b-917e-4465-9537-e89548c4d62b.jpg?aki_policy=xx_large","name":"Safe quiet 2-bedr apartment Sea-mountain view Lakk","listingId":1807489,"photoId":"679-5","tags":[{"name":"sofa","coordinates":[0.7043224758572049,0.8017036437988281,1.458172494393808,0.40733092625935874]},{"name":"sofa","coordinates":[2.1925437644675925,0.7386442820231119,0.9624472158926505,0.5227485338846842]},{"name":"sofa","coordinates":[1.6141160753038195,0.5448297500610352,0.7304514001916956,0.32737963994344077]},{"name":"chair","coordinates":[1.6141160753038195,0.5448297500610352,0.7304514001916956,0.32737963994344077]},{"name":"laptop","coordinates":[1.362731029369213,0.5935349782307943,0.4925367567274306,0.18023425738016766]},{"name":"laptop","coordinates":[1.3666353578920718,0.6382333119710286,0.3145259998462818,0.08182228406270345]},{"name":"mouse","coordinates":[1.310828653971354,0.6905885696411133,0.10234779781765407,0.027425227562586467]}]}
