{"src":"https://a0.muscache.com/im/pictures/80f9d5f2-b693-4300-81ce-aaf7a3ee08f1.jpg?aki_policy=xx_large","name":"Safe quiet 2-bedr apartment Sea-mountain view Lakk","listingId":1807489,"photoId":"679-5","tags":[{"name":"sofa","coordinates":[0.42678214179144963,0.5085485458374024,0.4441855960422092,0.30089511871337893]},{"name":"chair","coordinates":[0.3226325776841905,0.753627332051595,0.3038531833224826,0.43712247212727867]},{"name":"chair","coordinates":[0.6677325354682074,0.7670385996500652,0.27749159071180557,0.46607608795166017]},{"name":"diningtable","coordinates":[0.5104334513346355,0.7571592330932617,0.29228165944417317,0.4402386983235677]},{"name":"chair","coordinates":[0.875041029188368,0.7484752655029296,0.1923457039727105,0.5025793393452962]},{"name":"chair","coordinates":[0.10266812642415364,0.528216552734375,0.2002520031399197,0.38161802291870117]},{"name":"tvmonitor","coordinates":[0.2584115770128038,0.2908212979634603,0.10691500769721138,0.11084516843159993]}]}
