{"src":"https://a0.muscache.com/im/pictures/80f9d5f2-b693-4300-81ce-aaf7a3ee08f1.jpg?aki_policy=xx_large","name":"Safe quiet 2-bedr apartment Sea-mountain view Lakk","listingId":1807489,"photoId":"679-5","tags":[{"name":"sofa","coordinates":[0.20468934377034503,0.3581009864807129,0.4441855960422092,0.30089511871337893]},{"name":"chair","coordinates":[0.1707059860229492,0.5350660959879557,0.3038531833224826,0.43712247212727867]},{"name":"chair","coordinates":[0.5289867401123046,0.5340005556742351,0.27749159071180557,0.46607608795166017]},{"name":"diningtable","coordinates":[0.3642926216125489,0.5370398839314778,0.29228165944417317,0.4402386983235677]},{"name":"chair","coordinates":[0.7788681772020127,0.49718559583028155,0.1923457039727105,0.5025793393452962]},{"name":"chair","coordinates":[0.002542124854193792,0.33740754127502437,0.2002520031399197,0.38161802291870117]},{"name":"tvmonitor","coordinates":[0.20495407316419811,0.23539871374766033,0.10691500769721138,0.11084516843159993]}]}
