{"src":"https://a0.muscache.com/im/pictures/3d7d478b-917e-4465-9537-e89548c4d62b.jpg?aki_policy=xx_large","name":"Safe quiet 2-bedr apartment Sea-mountain view Lakk","listingId":1807489,"photoId":"679-5","tags":[{"name":"sofa","coordinates":[0.2641209284464518,0.8017036437988281,0.546814685397678,0.40733092625935874]},{"name":"sofa","coordinates":[0.8222039116753472,0.7386442820231119,0.36091770595974393,0.5227485338846842]},{"name":"sofa","coordinates":[0.6052935282389323,0.5448297500610352,0.27391927507188585,0.32737963994344077]},{"name":"chair","coordinates":[0.6052935282389323,0.5448297500610352,0.27391927507188585,0.32737963994344077]},{"name":"laptop","coordinates":[0.5110241360134549,0.5935349782307943,0.18470128377278647,0.18023425738016766]},{"name":"laptop","coordinates":[0.5124882592095269,0.6382333119710286,0.11794724994235568,0.08182228406270345]},{"name":"mouse","coordinates":[0.4915607452392578,0.6905885696411133,0.03838042418162028,0.027425227562586467]}]}
