{"src":"https://a0.muscache.com/im/pictures/33c1f64c-acfa-4618-9312-90dbe10519e5.jpg?aki_policy=xx_large","name":"COSY STUDIO NEAR THE SEA","listingId":11647613,"photoId":"68-2","tags":[{"name":"diningtable","coordinates":[0.4118045383029514,0.8034032821655274,0.5836442735460069,0.4073895772298177]},{"name":"chair","coordinates":[0.2159626219007704,0.7773586908976237,0.3047807269626194,0.40938644409179686]},{"name":"vase","coordinates":[0.486699210272895,0.6273827870686849,0.06937539842393663,0.1160181204477946]},{"name":"chair","coordinates":[0.5460635291205512,0.6108091990152995,0.07478129069010417,0.10022846857706706]},{"name":"bottle","coordinates":[0.2138973871866862,0.5654862085978191,0.034340702162848576,0.13580446243286132]},{"name":"cup","coordinates":[0.28104864756266273,0.6102606455485026,0.029189046223958334,0.039072620868682864]}]}
