{"src":"https://a0.muscache.com/im/pictures/adc2559e-e515-49b2-a2eb-69e6c6204904.jpg?aki_policy=xx_large","name":"Benedenwoning in Bezuidenhout","listingId":19838495,"photoId":"681-3","tags":[{"name":"oven","coordinates":[0.4996943473815918,0.6101884841918945,0.2739252090454102,0.40236339569091795]},{"name":"refrigerator","coordinates":[0.8851376533508301,0.3907363255818685,0.2199474334716797,0.32174676259358725]},{"name":"pottedplant","coordinates":[0.08608289957046508,0.4654407819112142,0.1596934199333191,0.3704183578491211]},{"name":"sink","coordinates":[0.9513737678527832,0.732258160909017,0.09706660509109497,0.18034313519795736]},{"name":"bottle","coordinates":[0.16253174543380738,0.6166467666625977,0.03769642114639282,0.08142024676005045]},{"name":"bottle","coordinates":[0.7169700145721436,0.3743490219116211,0.024917155504226685,0.09294232527414957]},{"name":"bottle","coordinates":[0.23894174098968507,0.8673277537027995,0.03323301374912262,0.03812723557154338]},{"name":"knife","coordinates":[0.29960381984710693,0.3669062614440918,0.009860694408416748,0.051901872952779135]},{"name":"knife","coordinates":[0.31715950965881345,0.3639743169148763,0.008872301876544952,0.04918202559153239]}]}
