{"src":"https://a0.muscache.com/im/pictures/9ad9b4fe-08e5-4d27-9ae2-72b5862b0ed9.jpg?aki_policy=xx_large","name":"Nariska Suite Homestay Lampung, Lantai-2 dgn 3KT","listingId":18087068,"photoId":"682-5","tags":[{"name":"diningtable","coordinates":[0.5716725349426269,0.8068291346232096,0.4589213848114014,0.26425620714823406]},{"name":"chair","coordinates":[0.7143888473510742,0.8664757410685221,0.27382798194885255,0.2685956319173177]},{"name":"chair","coordinates":[0.36969308853149413,0.8318150838216146,0.16144835948944092,0.34455960591634116]},{"name":"chair","coordinates":[0.3238055944442749,0.9020336151123047,0.25009546279907224,0.21000515619913737]},{"name":"chair","coordinates":[0.8423845291137695,0.8512442270914714,0.09601845741271972,0.2765583674112956]},{"name":"chair","coordinates":[0.5624213695526123,0.6389153162638347,0.13139790296554565,0.11518761316935221]},{"name":"chair","coordinates":[0.4737239360809326,0.6948815027872721,0.08753865957260132,0.10899264017740885]},{"name":"chair","coordinates":[0.4158449172973633,0.6601765314737956,0.09779112935066223,0.0925044854482015]},{"name":"chair","coordinates":[0.7388110637664795,0.667759386698405,0.10535776615142822,0.08134094079335531]},{"name":"tvmonitor","coordinates":[0.5546250820159913,0.5430245717366536,0.06905054450035095,0.07598813374837239]},{"name":"vase","coordinates":[0.5673391819000244,0.7524037043253581,0.033780616521835324,0.05819858312606811]},{"name":"clock","coordinates":[0.3092459201812744,0.34918889999389646,0.024996884167194366,0.040387070178985594]}]}
