{"src":"https://a0.muscache.com/im/pictures/9ad9b4fe-08e5-4d27-9ae2-72b5862b0ed9.jpg?aki_policy=xx_large","name":"Nariska Suite Homestay Lampung, Lantai-2 dgn 3KT","listingId":18087068,"photoId":"682-5","tags":[{"name":"diningtable","coordinates":[0.5081533643934462,0.8068291346232096,0.4079301198323568,0.26425620714823406]},{"name":"chair","coordinates":[0.6350123087565104,0.8664757410685221,0.24340265062120225,0.2685956319173177]},{"name":"chair","coordinates":[0.3286160786946615,0.8318150838216146,0.14350965287950304,0.34455960591634116]},{"name":"chair","coordinates":[0.28782719506157767,0.9020336151123047,0.2223070780436198,0.21000515619913737]},{"name":"chair","coordinates":[0.7487862481011285,0.8512442270914714,0.08534973992241754,0.2765583674112956]},{"name":"chair","coordinates":[0.4999301062689887,0.6389153162638347,0.11679813596937391,0.11518761316935221]},{"name":"chair","coordinates":[0.4210879431830512,0.6948815027872721,0.07781214184231228,0.10899264017740885]},{"name":"chair","coordinates":[0.36963992648654515,0.6601765314737956,0.08692544831169977,0.0925044854482015]},{"name":"chair","coordinates":[0.656720945570204,0.667759386698405,0.09365134769015843,0.08134094079335531]},{"name":"tvmonitor","coordinates":[0.4930000729031033,0.5430245717366536,0.061378261778089735,0.07598813374837239]},{"name":"vase","coordinates":[0.504301495022244,0.7524037043253581,0.030027214686075845,0.05819858312606811]},{"name":"clock","coordinates":[0.27488526238335503,0.34918889999389646,0.02221945259306166,0.040387070178985594]}]}
