{"src":"https://a0.muscache.com/im/pictures/a36771ac-d7d6-486b-a12c-4157ff6e3d4f.jpg?aki_policy=xx_large","name":"Scheveningen beach","listingId":19845931,"photoId":"683-6","tags":[{"name":"sofa","coordinates":[0.5697283850775825,0.5225439707438151,0.914265865749783,0.3062016487121582]},{"name":"bird","coordinates":[0.5726230621337891,0.18388697306315105,0.2769121593899197,0.3077119509379069]},{"name":"pottedplant","coordinates":[0.12126517825656467,0.4397282600402832,0.23973301781548395,0.34696372350056964]},{"name":"pottedplant","coordinates":[0.4617511325412326,0.609133783976237,0.12517884572347004,0.14321475028991698]},{"name":"cup","coordinates":[0.6767956627739801,0.6594552993774414,0.0682541741265191,0.06487859884897867]},{"name":"cup","coordinates":[0.7605114407009549,0.6512104670206705,0.07193787362840441,0.05941609144210815]}]}
