{"src":"https://a0.muscache.com/im/pictures/f91eb56e-15d0-4ee6-bb38-9028b37fc244.jpg?aki_policy=xx_large","name":"Scheveningen beach","listingId":19845931,"photoId":"683-0","tags":[{"name":"sofa","coordinates":[0.7290472507476806,0.6898965835571289,0.42743968963623047,0.29105253219604493]},{"name":"chair","coordinates":[0.27516422271728513,0.8351790746053059,0.20961837768554686,0.30122305552164713]},{"name":"chair","coordinates":[0.4826862335205078,0.8321807861328125,0.1672823190689087,0.32068182627360026]},{"name":"bird","coordinates":[0.6882922649383545,0.3664237022399902,0.09786291122436523,0.16189977327982585]},{"name":"chair","coordinates":[0.45765371322631837,0.6590437571207682,0.08598437309265136,0.08265446027119955]},{"name":"pottedplant","coordinates":[0.8923747062683105,0.7237857182820638,0.05260380506515503,0.10606682300567627]},{"name":"vase","coordinates":[0.3055527448654175,0.6345266977945964,0.04138311743736267,0.07419054508209229]}]}
