{"src":"https://a0.muscache.com/im/pictures/b5f8d721-a10e-4783-bf16-73aebe2bb33d.jpg?aki_policy=xx_large","name":"Suite in Modern Apartment","listingId":18099057,"photoId":"683-5","tags":[{"name":"diningtable","coordinates":[0.32200529310438364,0.49843419392903643,0.5200465732150608,0.3497306823730469]},{"name":"chair","coordinates":[0.6639015197753906,0.5064123471577961,0.3041212293836806,0.3953756332397461]},{"name":"chair","coordinates":[0.19614526960584852,0.5608315944671631,0.26637297736273874,0.36795231501261394]},{"name":"diningtable","coordinates":[0.31747459835476344,0.5136487404505412,0.5162806616889106,0.15300278663635253]},{"name":"chair","coordinates":[0.7788135316636827,0.5044746319452922,0.10285877651638455,0.11529046694437663]},{"name":"bowl","coordinates":[0.4746391932169596,0.5376220732927321,0.17816361321343316,0.031070830424626668]},{"name":"chair","coordinates":[0.6842374854617649,0.5133780121803284,0.07023132112291124,0.07554258505503336]},{"name":"vase","coordinates":[0.5406672464476691,0.506394769748052,0.03099604977501763,0.03579743305842082]}]}
