{"src":"https://a0.muscache.com/im/pictures/b5f8d721-a10e-4783-bf16-73aebe2bb33d.jpg?aki_policy=xx_large","name":"Suite in Modern Apartment","listingId":18099057,"photoId":"683-5","tags":[{"name":"diningtable","coordinates":[0.582028579711914,0.6732995351155598,0.5200465732150608,0.3497306823730469]},{"name":"chair","coordinates":[0.8159621344672309,0.7041001637776693,0.3041212293836806,0.3953756332397461]},{"name":"chair","coordinates":[0.3293317582872179,0.74480775197347,0.26637297736273874,0.36795231501261394]},{"name":"diningtable","coordinates":[0.5756149291992188,0.5901501337687175,0.5162806616889106,0.15300278663635253]},{"name":"chair","coordinates":[0.830242919921875,0.5621198654174805,0.10285877651638455,0.11529046694437663]},{"name":"bowl","coordinates":[0.5637209998236762,0.5531574885050455,0.17816361321343316,0.031070830424626668]},{"name":"chair","coordinates":[0.7193531460232205,0.5511493047078451,0.07023132112291124,0.07554258505503336]},{"name":"vase","coordinates":[0.5561652713351779,0.5242934862772624,0.03099604977501763,0.03579743305842082]}]}
