{"src":"https://a0.muscache.com/im/pictures/c1c821b2-b5e8-42b5-b235-b2fcb2b9d05a.jpg?aki_policy=xx_large","name":"SIMPLE FOR  MODEST PEOPLE","listingId":18116345,"photoId":"684-2","tags":[{"name":"person","coordinates":[0.0968750476837158,0.15321842829386395,0.6424483299255371,0.8397534052530925]},{"name":"diningtable","coordinates":[0.6407723426818848,0.43752737045288087,0.366925048828125,0.5484612147013347]},{"name":"person","coordinates":[0.008518290519714367,0.4251470565795899,0.3472994565963745,0.564630126953125]},{"name":"person","coordinates":[0.4982340574264526,0.19777917861938477,0.2926648616790771,0.606532096862793]},{"name":"person","coordinates":[0.7813697338104247,0.1844370365142822,0.20652990341186522,0.27243248621622723]},{"name":"pizza","coordinates":[0.8780449092388153,0.730877947807312,0.11511646509170533,0.10645610491434733]},{"name":"cup","coordinates":[0.7613891780376435,0.6472676515579223,0.06431671380996704,0.1511910915374756]},{"name":"cup","coordinates":[0.8414820313453675,0.5224583049615225,0.05759150981903076,0.06644101540247599]},{"name":"bottle","coordinates":[0.814097860455513,0.39282224973042806,0.03808998465538025,0.09654550552368164]}]}
