{"src":"https://a0.muscache.com/im/pictures/c1c821b2-b5e8-42b5-b235-b2fcb2b9d05a.jpg?aki_policy=xx_large","name":"SIMPLE FOR  MODEST PEOPLE","listingId":18116345,"photoId":"684-2","tags":[{"name":"person","coordinates":[0.41809921264648436,0.5730951309204102,0.6424483299255371,0.8397534052530925]},{"name":"diningtable","coordinates":[0.8242348670959473,0.7117579778035482,0.366925048828125,0.5484612147013347]},{"name":"person","coordinates":[0.18216801881790162,0.7074621200561524,0.3472994565963745,0.564630126953125]},{"name":"person","coordinates":[0.6445664882659912,0.5010452270507812,0.2926648616790771,0.606532096862793]},{"name":"person","coordinates":[0.8846346855163574,0.3206532796223958,0.20652990341186522,0.27243248621622723]},{"name":"pizza","coordinates":[0.935603141784668,0.7841060002644856,0.11511646509170533,0.10645610491434733]},{"name":"cup","coordinates":[0.793547534942627,0.7228631973266602,0.06431671380996704,0.1511910915374756]},{"name":"cup","coordinates":[0.8702777862548828,0.5556788126627604,0.05759150981903076,0.06644101540247599]},{"name":"bottle","coordinates":[0.8331428527832031,0.4410950024922689,0.03808998465538025,0.09654550552368164]}]}
