{"src":"https://a0.muscache.com/im/pictures/d145fa71-f545-47fd-b26c-434b2b2a6f6e.jpg?aki_policy=xx_large","name":"城市花园，免费停车，八角洋房与您相约悦航之家。","listingId":18124364,"photoId":"685-9","tags":[{"name":"bed","coordinates":[0.6245791965060764,0.778999137878418,0.7574351840549045,0.37137451171875]},{"name":"chair","coordinates":[0.15613492329915366,0.7684520721435547,0.10509605407714843,0.14729412396748862]},{"name":"tvmonitor","coordinates":[0.08068887922498914,0.5642417907714844,0.08915368186102973,0.14905727704366048]},{"name":"pottedplant","coordinates":[0.573598141140408,0.6339881896972657,0.04714389377170139,0.09384194215138754]},{"name":"vase","coordinates":[0.5700134701199002,0.6599400202433269,0.025583548016018337,0.043930681546529134]}]}
