{"src":"https://a0.muscache.com/im/pictures/38f3f923-62ec-4091-aec5-d73890a53931.jpg?aki_policy=xx_large","name":"城市花园，免费停车，八角洋房与您相约悦航之家。","listingId":18124364,"photoId":"685-14","tags":[{"name":"car","coordinates":[0.5583497365315755,0.713835080464681,0.161850643157959,0.1641077995300293]},{"name":"bus","coordinates":[0.8128289964463976,0.6449936548868815,0.15309563742743598,0.1588121255238851]},{"name":"person","coordinates":[0.06002094480726454,0.7222997665405273,0.03768516646491157,0.09866665999094645]},{"name":"clock","coordinates":[0.7476778666178385,0.06074721813201904,0.03857339488135444,0.04077002207438151]},{"name":"person","coordinates":[0.12476204766167534,0.7113629023234049,0.020984703964657254,0.06904087861378988]},{"name":"car","coordinates":[0.6259883456759983,0.6594322204589844,0.013193497392866347,0.038663033644358316]},{"name":"person","coordinates":[0.6259883456759983,0.6594322204589844,0.013193497392866347,0.038663033644358316]},{"name":"person","coordinates":[0.6838854471842448,0.658250363667806,0.011344350708855522,0.04218999942143758]},{"name":"person","coordinates":[0.6454793294270833,0.6589045206705729,0.008294280370076497,0.03861895402272542]},{"name":"person","coordinates":[0.666083738538954,0.65149351755778,0.007020715872446696,0.032502786318461103]}]}
