{"src":"https://a0.muscache.com/im/pictures/d145fa71-f545-47fd-b26c-434b2b2a6f6e.jpg?aki_policy=xx_large","name":"城市花园，免费停车，八角洋房与您相约悦航之家。","listingId":18124364,"photoId":"685-9","tags":[{"name":"bed","coordinates":[0.24586160447862415,0.5933118820190431,0.7574351840549045,0.37137451171875]},{"name":"chair","coordinates":[0.10358689626057943,0.6948050101598104,0.10509605407714843,0.14729412396748862]},{"name":"tvmonitor","coordinates":[0.03611203829447428,0.48971315224965417,0.08915368186102973,0.14905727704366048]},{"name":"pottedplant","coordinates":[0.5500261942545572,0.5870672186215719,0.04714389377170139,0.09384194215138754]},{"name":"vase","coordinates":[0.5572216961118911,0.6379746794700623,0.025583548016018337,0.043930681546529134]}]}
