{"src":"https://a0.muscache.com/im/pictures/38f3f923-62ec-4091-aec5-d73890a53931.jpg?aki_policy=xx_large","name":"城市花园，免费停车，八角洋房与您相约悦航之家。","listingId":18124364,"photoId":"685-14","tags":[{"name":"car","coordinates":[0.6281434535980225,0.713835080464681,0.18208197355270386,0.1641077995300293]},{"name":"bus","coordinates":[0.9144326210021972,0.6449936548868815,0.17223259210586547,0.1588121255238851]},{"name":"person","coordinates":[0.0675235629081726,0.7222997665405273,0.04239581227302551,0.09866665999094645]},{"name":"clock","coordinates":[0.8411375999450683,0.06074721813201904,0.04339506924152374,0.04077002207438151]},{"name":"person","coordinates":[0.14035730361938475,0.7113629023234049,0.023607791960239412,0.06904087861378988]},{"name":"car","coordinates":[0.7042368888854981,0.6594322204589844,0.01484268456697464,0.038663033644358316]},{"name":"person","coordinates":[0.7042368888854981,0.6594322204589844,0.01484268456697464,0.038663033644358316]},{"name":"person","coordinates":[0.7693711280822754,0.658250363667806,0.012762394547462464,0.04218999942143758]},{"name":"person","coordinates":[0.7261642456054688,0.6589045206705729,0.009331065416336059,0.03861895402272542]},{"name":"person","coordinates":[0.7493442058563232,0.65149351755778,0.007898305356502534,0.032502786318461103]}]}
