{"src":"https://a0.muscache.com/im/pictures/8ff29a4f-1d8a-4836-8030-a0439c9f4741.jpg?aki_policy=xx_large","name":"LOGEA VIR","listingId":18130660,"photoId":"686-14","tags":[{"name":"cup","coordinates":[0.632061258951823,0.4510262807210286,0.32141599301938656,0.2154386043548584]},{"name":"spoon","coordinates":[2.3964846010561343,0.6010162989298503,0.37166420265480327,0.16420485178629557]},{"name":"bottle","coordinates":[1.6072265625,0.564485232035319,0.29460550944010416,0.1863312562306722]},{"name":"cup","coordinates":[1.0921367503978587,0.596425183614095,0.2491605970594618,0.20677685737609863]},{"name":"bottle","coordinates":[1.7965008770978008,0.6239540735880534,0.2955825240523727,0.16544583638509114]},{"name":"knife","coordinates":[0.33851691351996527,0.6302348454793294,0.7545916521990741,0.061416761080423994]},{"name":"knife","coordinates":[0.3396283750180845,0.11439514954884847,0.17715194137008103,0.18278544743855793]},{"name":"knife","coordinates":[2.4413892957899304,0.1985593318939209,0.4132408424660012,0.06185135841369629]},{"name":"fork","coordinates":[0.18476029855233653,0.464084529876709,0.40875286526150173,0.06173725525538127]},{"name":"spoon","coordinates":[1.11197668004919,0.6836462020874023,0.11689137352837456,0.12077258427937826]}]}
