{"src":"https://a0.muscache.com/im/pictures/934743b4-dc78-4b59-b269-db1c0d6adeb6.jpg?aki_policy=xx_large","name":"LOGEA VIR","listingId":18130660,"photoId":"686-17","tags":[{"name":"diningtable","coordinates":[-0.04812181260850695,0.019735018412272154,1.089995433666088,0.9842846552530925]},{"name":"bowl","coordinates":[0.5839422014024522,0.0731647570927938,0.29286953961407697,0.13589860598246256]},{"name":"bottle","coordinates":[0.2129341337415907,0.004124879837036133,0.18591829935709636,0.20700958569844563]},{"name":"banana","coordinates":[0.8576218640362774,0.12204054991404215,0.1538121258770978,0.15728138287862142]},{"name":"broccoli","coordinates":[0.44184438917371965,0.714574925104777,0.08504358927408855,0.08389463424682617]},{"name":"knife","coordinates":[0.49943074120415587,0.119309139251709,0.03798193754973235,0.08039792378743489]}]}
