{"src":"https://a0.muscache.com/im/pictures/8ff29a4f-1d8a-4836-8030-a0439c9f4741.jpg?aki_policy=xx_large","name":"LOGEA VIR","listingId":18130660,"photoId":"686-14","tags":[{"name":"cup","coordinates":[0.2370229721069336,0.4510262807210286,0.12053099738226997,0.2154386043548584]},{"name":"spoon","coordinates":[0.8986817253960504,0.6010162989298503,0.1393740759955512,0.16420485178629557]},{"name":"bottle","coordinates":[0.6027099609375,0.564485232035319,0.11047706604003907,0.1863312562306722]},{"name":"cup","coordinates":[0.40955128139919705,0.596425183614095,0.09343522389729818,0.20677685737609863]},{"name":"bottle","coordinates":[0.6736878289116753,0.6239540735880534,0.11084344651963976,0.16544583638509114]},{"name":"knife","coordinates":[0.12694384256998698,0.6302348454793294,0.28297186957465276,0.061416761080423994]},{"name":"knife","coordinates":[0.12736064063178168,0.11439514954884847,0.06643197801378038,0.18278544743855793]},{"name":"knife","coordinates":[0.915520985921224,0.1985593318939209,0.15496531592475044,0.06185135841369629]},{"name":"fork","coordinates":[0.0692851119571262,0.464084529876709,0.15328232447306314,0.06173725525538127]},{"name":"spoon","coordinates":[0.4169912550184462,0.6836462020874023,0.04383426507314046,0.12077258427937826]}]}
