{"src":"https://a0.muscache.com/im/pictures/84fa5103-ba27-4167-a913-6ccfac34400e.jpg?aki_policy=xx_large","name":"LOGEA VIR","listingId":18130660,"photoId":"686-1","tags":[{"name":"sink","coordinates":[0.3717019964147497,0.5246355911095937,0.243572348135489,0.03374451398849487]},{"name":"cup","coordinates":[0.4430767624466508,0.23631383180618284,0.12898025512695313,0.050726580619812014]},{"name":"bottle","coordinates":[0.6529175122578939,0.11209877332051595,0.05509501563178169,0.08805646896362304]},{"name":"bottle","coordinates":[0.7107760906219482,0.12259297768274943,0.0512997203403049,0.07465158303578695]},{"name":"bottle","coordinates":[0.5188065105014377,0.13718174695968627,0.045273173296893086,0.06423577467600504]},{"name":"bottle","coordinates":[0.5595373136025887,0.13467077414194742,0.04395728287873445,0.0659847100575765]},{"name":"bowl","coordinates":[0.21065577047842524,0.5187526921431224,0.08864114549424913,0.02010919650395711]},{"name":"cup","coordinates":[0.7047949314117431,0.24051527182261148,0.0389770543133771,0.041549189885457354]},{"name":"cup","coordinates":[0.6639051455038565,0.245880792538325,0.038956518526430485,0.0358637531598409]},{"name":"cup","coordinates":[0.610721618157846,0.259167343378067,0.039187279453984016,0.02734599510828654]}]}
