{"src":"https://a0.muscache.com/im/pictures/45020762-e4f4-4042-9f1c-882b6618e4b4.jpg?aki_policy=xx_large","name":"LOGEA VIR","listingId":18130660,"photoId":"686-14","tags":[{"name":"diningtable","coordinates":[0.06603211296929257,-0.053159046173095637,0.8752610948350694,1.1078295389811197]},{"name":"bowl","coordinates":[0.7362680117289225,0.4145268917083741,0.23183917999267578,0.34209604263305665]},{"name":"bottle","coordinates":[0.8071358468797472,-0.0005699952443440626,0.12119532691107857,0.4110079765319824]},{"name":"bottle","coordinates":[0.6788643413119846,0.11170593897501627,0.12712866465250652,0.34314422607421874]},{"name":"bottle","coordinates":[0.7336970859103733,0.133833646774292,0.12453070746527778,0.3325442949930827]},{"name":"bottle","coordinates":[0.5304411517249213,-0.00951416889826457,0.07073763741387261,0.1140158494313558]},{"name":"banana","coordinates":[0.2768110222286648,0.027077658971150713,0.11366065343221028,0.06745623747507731]},{"name":"banana","coordinates":[0.6461656994289822,0.0831342339515686,0.07221548292371961,0.06762505372365316]}]}
