{"src":"https://a0.muscache.com/im/pictures/f7051a3f-9142-458d-ad0b-05c2634e3cee.jpg?aki_policy=xx_large","name":"LOGEA VIR","listingId":18130660,"photoId":"686-17","tags":[{"name":"bed","coordinates":[1.5577328152126737,0.3532766024271647,0.6374752892388238,0.32202380498250327]},{"name":"person","coordinates":[0.4211627536349826,0.4154280344645182,0.3980073716905382,0.3219434420267741]},{"name":"bed","coordinates":[1.2796390109592013,0.8592114766438802,0.43601981268988715,0.257152795791626]},{"name":"bed","coordinates":[0.5016113705105252,0.8961148579915365,0.5609515296088324,0.18270953496297201]},{"name":"chair","coordinates":[1.7054438273111978,0.8970694224039714,0.3518567615085178,0.1837503751118978]},{"name":"diningtable","coordinates":[0.18489695654975044,0.9268136978149414,0.29530268775092233,0.11988550027211507]},{"name":"chair","coordinates":[0.2647526635064019,0.9468888600667318,0.3537455028957791,0.09775078296661377]}]}
