{"src":"https://a0.muscache.com/im/pictures/934743b4-dc78-4b59-b269-db1c0d6adeb6.jpg?aki_policy=xx_large","name":"LOGEA VIR","listingId":18130660,"photoId":"686-13","tags":[{"name":"diningtable","coordinates":[0.49687590422453703,0.5118773460388184,1.089995433666088,0.9842846552530925]},{"name":"bowl","coordinates":[0.7303769712094907,0.14111406008402508,0.29286953961407697,0.13589860598246256]},{"name":"bottle","coordinates":[0.3058932834201389,0.10762967268625895,0.18591829935709636,0.20700958569844563]},{"name":"banana","coordinates":[0.9345279269748263,0.20068124135335286,0.1538121258770978,0.15728138287862142]},{"name":"broccoli","coordinates":[0.4843661838107639,0.7565222422281901,0.08504358927408855,0.08389463424682617]},{"name":"knife","coordinates":[0.518421709979022,0.15950810114542643,0.03798193754973235,0.08039792378743489]}]}
