{"src":"https://a0.muscache.com/im/pictures/3a75a0df-0dfc-4c4f-92fb-0e1f84f2c98c.jpg?aki_policy=xx_large","name":"LOGEA VIR","listingId":18130660,"photoId":"686-23","tags":[{"name":"person","coordinates":[1.9242336697048612,0.7448514938354492,0.6330676043475115,0.40856701532999673]},{"name":"diningtable","coordinates":[0.5414167050962095,0.8745874404907227,0.9635249385127315,0.2666075865427653]},{"name":"diningtable","coordinates":[2.0288431803385416,0.34509992599487305,0.6925252278645834,0.28948672612508136]},{"name":"person","coordinates":[0.5831827799479167,0.6861934026082357,0.5754616066261574,0.28483991622924804]},{"name":"person","coordinates":[1.6301579228153935,0.28503325780232747,0.38254917286060475,0.37767934799194336]},{"name":"person","coordinates":[0.7600823861581308,0.2467790126800537,0.41366938838252315,0.33042271931966144]},{"name":"person","coordinates":[0.44552188449435765,0.25502169926961266,0.40460643061885126,0.3254145622253418]},{"name":"person","coordinates":[2.424024341724537,0.28738463719685875,0.28955230712890623,0.4276007334391276]},{"name":"person","coordinates":[2.1681981969762734,0.17271124521891276,0.22062304461443866,0.17169957160949706]},{"name":"cup","coordinates":[0.6505484686957466,0.8062355041503906,0.20120750709816262,0.16520304679870607]},{"name":"laptop","coordinates":[0.5147216796875,0.23560546239217123,0.1674918563277633,0.07854792277018229]},{"name":"bottle","coordinates":[1.767436726888021,0.24228615760803224,0.06900515379729094,0.13465773264567057]},{"name":"chair","coordinates":[2.29579173900463,0.22520511945088703,0.11250619535092954,0.07701197465260824]},{"name":"bowl","coordinates":[2.0221347384982638,0.29306869506835936,0.11297506403040003,0.04033488829930623]},{"name":"cup","coordinates":[2.011103877314815,0.354107666015625,0.0644352806939019,0.05517605145772298]},{"name":"cup","coordinates":[1.8749449553313078,0.29618956247965494,0.05758745758621781,0.05729373693466187]}]}
