{"src":"https://a0.muscache.com/im/pictures/21d20b30-c4c4-447e-a510-922fb129b84e.jpg?aki_policy=xx_large","name":"Spacious studio in Old Centre (kidsproof)","listingId":19879636,"photoId":"686-1","tags":[{"name":"chair","coordinates":[0.1634885311126709,0.9140823364257813,0.2220778226852417,0.15883057912190754]},{"name":"sofa","coordinates":[0.39880311489105225,0.5883000691731771,0.19484685659408568,0.11415925820668539]},{"name":"tvmonitor","coordinates":[0.26437375545501707,0.5480251312255859,0.0905074119567871,0.10747703711191813]},{"name":"book","coordinates":[0.7223117351531982,0.4864089330037435,0.008464738726615906,0.05328013896942139]},{"name":"book","coordinates":[0.6435582160949707,0.48356374104817706,0.008451666682958603,0.040629824002583824]},{"name":"book","coordinates":[0.6429094791412353,0.4032830874125163,0.008984375,0.037760011355082196]},{"name":"book","coordinates":[0.6252280235290527,0.40421889623006185,0.008561858534812927,0.0359115203221639]}]}
