{"src":"https://a0.muscache.com/im/pictures/93ffe86d-6899-4c74-991e-bdded83ce8e7.jpg?aki_policy=xx_large","name":"LOGEA VIR","listingId":18130660,"photoId":"686-10","tags":[{"name":"diningtable","coordinates":[0.06559744940863715,0.7676448901494344,0.8889289573386864,0.22471133867899576]},{"name":"person","coordinates":[0.23295418068214696,0.5474469661712646,0.6342879683883101,0.2612853686014811]},{"name":"chair","coordinates":[0.5348326930293331,0.46834897994995117,0.43675144336841726,0.33398278554280597]},{"name":"cup","coordinates":[0.5377443525526259,0.7180842638015746,0.1649961400915075,0.1349796454111735]},{"name":"spoon","coordinates":[0.557408751381768,0.6893492579460143,0.05262397130330403,0.06795993645985922]}]}
