{"src":"https://a0.muscache.com/im/pictures/3a75a0df-0dfc-4c4f-92fb-0e1f84f2c98c.jpg?aki_policy=xx_large","name":"LOGEA VIR","listingId":18130660,"photoId":"686-23","tags":[{"name":"person","coordinates":[0.7459340858870244,0.7448514938354492,0.24541027017060751,0.40856701532999673]},{"name":"diningtable","coordinates":[0.20988156550750403,0.8745874404907227,0.3735128979159189,0.2666075865427653]},{"name":"diningtable","coordinates":[0.7864862292769652,0.34509992599487305,0.2684591694521716,0.28948672612508136]},{"name":"person","coordinates":[0.22607229086279612,0.6861934026082357,0.22307915834754127,0.28483991622924804]},{"name":"person","coordinates":[0.6319348731660535,0.28503325780232747,0.1482961617693658,0.37767934799194336]},{"name":"person","coordinates":[0.29464787403114906,0.2467790126800537,0.16035999262495512,0.33042271931966144]},{"name":"person","coordinates":[0.17270769391741073,0.25502169926961266,0.1568467139513135,0.3254145622253418]},{"name":"person","coordinates":[0.9396792135902728,0.28738463719685875,0.11224568976999955,0.4276007334391276]},{"name":"person","coordinates":[0.8405075566167893,0.17271124521891276,0.08552508549303436,0.17169957160949706]},{"name":"cup","coordinates":[0.25218677178442434,0.8062355041503906,0.07799860289519585,0.16520304679870607]},{"name":"laptop","coordinates":[0.19953317087670494,0.23560546239217123,0.06492864495117888,0.07854792277018229]},{"name":"bottle","coordinates":[0.6851513514138774,0.24228615760803224,0.026750023726157292,0.13465773264567057]},{"name":"chair","coordinates":[0.8899695183506819,0.22520511945088703,0.04361331334494038,0.07701197465260824]},{"name":"bowl","coordinates":[0.7838856847014088,0.29306869506835936,0.04379507148342858,0.04033488829930623]},{"name":"cup","coordinates":[0.7796095432519742,0.354107666015625,0.024978500771505405,0.05517605145772298]},{"name":"cup","coordinates":[0.7268271901499685,0.29618956247965494,0.022323924692431885,0.05729373693466187]}]}
