{"src":"https://a0.muscache.com/im/pictures/93ffe86d-6899-4c74-991e-bdded83ce8e7.jpg?aki_policy=xx_large","name":"LOGEA VIR","listingId":18130660,"photoId":"686-10","tags":[{"name":"diningtable","coordinates":[0.5100619280779803,0.8800005594889323,0.8889289573386864,0.22471133867899576]},{"name":"person","coordinates":[0.550098164876302,0.6780896504720052,0.6342879683883101,0.2612853686014811]},{"name":"chair","coordinates":[0.7532084147135417,0.6353403727213541,0.43675144336841726,0.33398278554280597]},{"name":"cup","coordinates":[0.6202424225983796,0.7855740865071614,0.1649961400915075,0.1349796454111735]},{"name":"spoon","coordinates":[0.5837207370334201,0.723329226175944,0.05262397130330403,0.06795993645985922]}]}
