{"src":"https://a0.muscache.com/im/pictures/45020762-e4f4-4042-9f1c-882b6618e4b4.jpg?aki_policy=xx_large","name":"LOGEA VIR","listingId":18130660,"photoId":"686-14","tags":[{"name":"diningtable","coordinates":[0.5036626603868273,0.5007557233174642,0.8752610948350694,1.1078295389811197]},{"name":"bowl","coordinates":[0.8521876017252604,0.5855749130249024,0.23183917999267578,0.34209604263305665]},{"name":"bottle","coordinates":[0.8677335103352865,0.20493399302164714,0.12119532691107857,0.4110079765319824]},{"name":"bottle","coordinates":[0.7424286736382378,0.28327805201212564,0.12712866465250652,0.34314422607421874]},{"name":"bottle","coordinates":[0.7959624396430122,0.30010579427083334,0.12453070746527778,0.3325442949930827]},{"name":"bottle","coordinates":[0.5658099704318577,0.04749375581741333,0.07073763741387261,0.1140158494313558]},{"name":"banana","coordinates":[0.33364134894477,0.06080577770868937,0.11366065343221028,0.06745623747507731]},{"name":"banana","coordinates":[0.682273440890842,0.11694676081339518,0.07221548292371961,0.06762505372365316]}]}
