{"src":"https://a0.muscache.com/im/pictures/45020762-e4f4-4042-9f1c-882b6618e4b4.jpg?aki_policy=xx_large","name":"LOGEA VIR","listingId":18130660,"photoId":"686-10","tags":[{"name":"diningtable","coordinates":[1.343100427698206,0.5007557233174642,2.3340295862268516,1.1078295389811197]},{"name":"bowl","coordinates":[2.272500271267361,0.5855749130249024,0.6182378133138021,0.34209604263305665]},{"name":"bottle","coordinates":[2.313956027560764,0.20493399302164714,0.32318753842954284,0.4110079765319824]},{"name":"bottle","coordinates":[1.9798097963686343,0.28327805201212564,0.339009772406684,0.34314422607421874]},{"name":"bottle","coordinates":[2.122566505714699,0.30010579427083334,0.33208188657407406,0.3325442949930827]},{"name":"bottle","coordinates":[1.508826587818287,0.04749375581741333,0.18863369977032696,0.1140158494313558]},{"name":"banana","coordinates":[0.8897102638527199,0.06080577770868937,0.30309507581922746,0.06745623747507731]},{"name":"banana","coordinates":[1.8193958423755787,0.11694676081339518,0.192574621129919,0.06762505372365316]}]}
