{"src":"https://a0.muscache.com/im/pictures/8ff29a4f-1d8a-4836-8030-a0439c9f4741.jpg?aki_policy=xx_large","name":"LOGEA VIR","listingId":18130660,"photoId":"686-18","tags":[{"name":"cup","coordinates":[0.17675747341579862,0.34330697854359943,0.12053099738226997,0.2154386043548584]},{"name":"spoon","coordinates":[0.8289946873982748,0.5189138730367026,0.1393740759955512,0.16420485178629557]},{"name":"bottle","coordinates":[0.5474714279174804,0.47131960391998284,0.11047706604003907,0.1863312562306722]},{"name":"cup","coordinates":[0.36283366945054796,0.4930367549260457,0.09343522389729818,0.20677685737609863]},{"name":"bottle","coordinates":[0.6182661056518555,0.5412311553955078,0.11084344651963976,0.16544583638509114]},{"name":"knife","coordinates":[-0.014542092217339403,0.5995264649391174,0.28297186957465276,0.061416761080423994]},{"name":"knife","coordinates":[0.0941446516248915,0.023002425829569503,0.06643197801378038,0.18278544743855793]},{"name":"knife","coordinates":[0.8380383279588488,0.16763365268707275,0.15496531592475044,0.06185135841369629]},{"name":"fork","coordinates":[-0.007356050279405377,0.43321590224901835,0.15328232447306314,0.06173725525538127]},{"name":"spoon","coordinates":[0.39507412248187596,0.6232599099477132,0.04383426507314046,0.12077258427937826]}]}
