{"src":"https://a0.muscache.com/im/pictures/97a2e57f-14e4-4e30-bdb4-547c2898d4b5.jpg?aki_policy=xx_large","name":"近夫子庙老门东虹悦城商圈咖啡工作室楼上独立公寓","listingId":18134104,"photoId":"687-15","tags":[{"name":"refrigerator","coordinates":[0.6473514980740017,0.8152196248372395,0.2129200193617079,0.3577064196268717]},{"name":"toilet","coordinates":[0.6473514980740017,0.8152196248372395,0.2129200193617079,0.3577064196268717]},{"name":"toilet","coordinates":[0.47116856045193145,0.8179700215657552,0.1478369500901964,0.36948010126749675]},{"name":"sink","coordinates":[0.1806700176662869,0.8120025634765625,0.1887956831190321,0.15008227030436197]},{"name":"bottle","coordinates":[0.35015731387668186,0.4381697336832682,0.016332467397054035,0.06286735932032267]},{"name":"bottle","coordinates":[0.33263094160291884,0.432498836517334,0.015228870179918077,0.06552925904591879]}]}
