{"src":"https://a0.muscache.com/im/pictures/97a2e57f-14e4-4e30-bdb4-547c2898d4b5.jpg?aki_policy=xx_large","name":"近夫子庙老门东虹悦城商圈咖啡工作室楼上独立公寓","listingId":18134104,"photoId":"687-15","tags":[{"name":"refrigerator","coordinates":[0.5408914883931477,0.6363664150238036,0.2129200193617079,0.3577064196268717]},{"name":"toilet","coordinates":[0.5408914883931477,0.6363664150238036,0.2129200193617079,0.3577064196268717]},{"name":"toilet","coordinates":[0.39725008540683326,0.6332299709320068,0.1478369500901964,0.36948010126749675]},{"name":"sink","coordinates":[0.08627217610677085,0.7369614283243815,0.1887956831190321,0.15008227030436197]},{"name":"bottle","coordinates":[0.3419910801781548,0.40673605402310686,0.016332467397054035,0.06286735932032267]},{"name":"bottle","coordinates":[0.3250165065129598,0.3997342069943746,0.015228870179918077,0.06552925904591879]}]}
