{"src":"https://a0.muscache.com/im/pictures/0a7e9961-3e76-439d-9544-8847a0ab267f.jpg?aki_policy=xx_large","name":"Cosy apartment near the beach","listingId":19909143,"photoId":"689-2","tags":[{"name":"diningtable","coordinates":[0.6516407641211345,0.7584485371907552,0.3855564947174687,0.3427671750386556]},{"name":"chair","coordinates":[0.5875998278969771,0.8282353083292643,0.17578356161641115,0.36704956690470375]},{"name":"bed","coordinates":[0.31831252765456697,0.5850816090901693,0.159287516982958,0.17849170366923015]},{"name":"chair","coordinates":[0.47600762723136725,0.7514589309692383,0.08965935087435936,0.27142470677693686]},{"name":"book","coordinates":[0.007657393719936262,0.3924300193786621,0.00785635576387343,0.10775259335835775]}]}
