{"src":"https://a0.muscache.com/im/pictures/e578f4ac-713b-410f-ab63-f30e7c77816e.jpg?aki_policy=xx_large","name":"Large ensuite room in quiet cul de sac","listingId":11594898,"photoId":"69-1","tags":[{"name":"bed","coordinates":[0.32941608428955077,0.8679204305013021,0.6477736949920654,0.21559661229451496]},{"name":"sofa","coordinates":[0.1802204966545105,0.6019782384236654,0.3026213407516479,0.31302420298258465]},{"name":"chair","coordinates":[0.9053930282592774,0.7298041025797526,0.18342876434326172,0.4714106877644857]},{"name":"chair","coordinates":[0.8186797142028809,0.6882143020629883,0.1495068073272705,0.35765082041422525]},{"name":"bottle","coordinates":[0.27187013626098633,0.41096843083699547,0.015786291658878328,0.07132385571797689]}]}
