{"src":"https://a0.muscache.com/im/pictures/f156d4b3-c95d-44af-8a1b-a07bebe9f450.jpg?aki_policy=xx_large","name":"Unique Spacious Room, Town Centre.","listingId":11661995,"photoId":"69-1","tags":[{"name":"diningtable","coordinates":[0.6607036590576172,0.6309667587280273,0.5010708702935113,0.6555291493733724]},{"name":"bed","coordinates":[0.35335826873779297,0.4723216692606608,0.4981980217827691,0.3008117357889811]},{"name":"chair","coordinates":[0.797021484375,0.6513321558634441,0.24537342919243707,0.5496821085611979]},{"name":"chair","coordinates":[0.45025270250108507,0.6945236206054688,0.1976154539320204,0.47067012786865237]},{"name":"chair","coordinates":[0.6369969262017144,0.5940818786621094,0.10208847257826063,0.22201226552327474]},{"name":"chair","coordinates":[0.02837365468343099,0.4025567054748535,0.05310390790303548,0.22919007937113445]},{"name":"vase","coordinates":[0.6986470964219835,0.3081845283508301,0.029192402627733018,0.1429002285003662]}]}
