{"src":"https://a0.muscache.com/im/pictures/e578f4ac-713b-410f-ab63-f30e7c77816e.jpg?aki_policy=xx_large","name":"Large ensuite room in quiet cul de sac","listingId":11594898,"photoId":"69-1","tags":[{"name":"bed","coordinates":[0.0055292367935180775,0.7601221243540446,0.6477736949920654,0.21559661229451496]},{"name":"sofa","coordinates":[0.028909826278686546,0.445466136932373,0.3026213407516479,0.31302420298258465]},{"name":"chair","coordinates":[0.8136786460876465,0.49409875869750974,0.18342876434326172,0.4714106877644857]},{"name":"chair","coordinates":[0.7439263105392456,0.5093888918558757,0.1495068073272705,0.35765082041422525]},{"name":"bottle","coordinates":[0.26397699043154715,0.37530650297800705,0.015786291658878328,0.07132385571797689]}]}
