{"src":"https://a0.muscache.com/im/pictures/3fb3bd8b-4c39-47fc-9373-ddc8ec7daf82.jpg?aki_policy=xx_large","name":"Unique Spacious Room, Town Centre.","listingId":11661995,"photoId":"69-6","tags":[{"name":"diningtable","coordinates":[0.44007577896118166,0.6348638534545898,0.3537470817565918,0.21275490125020344]},{"name":"bench","coordinates":[0.15117453336715697,0.6291755040486654,0.3071582555770874,0.2375916322072347]},{"name":"chair","coordinates":[0.7627781867980957,0.597993278503418,0.24741647243499756,0.241350523630778]},{"name":"pottedplant","coordinates":[0.9405308723449707,0.7454294204711914,0.23622615337371827,0.1939407507578532]},{"name":"pottedplant","coordinates":[0.8440412521362305,0.9178908665974935,0.22216348648071288,0.15509740511576334]},{"name":"pottedplant","coordinates":[0.3188068628311157,0.7044722874959309,0.23520817756652831,0.14176154136657715]},{"name":"vase","coordinates":[0.30504772663116453,0.9166348139444987,0.20546696186065674,0.15769650141398112]},{"name":"pottedplant","coordinates":[0.8307699203491211,0.0675944725672404,0.06854785084724427,0.09442153771718344]}]}
