{"src":"https://a0.muscache.com/im/pictures/cbea8e08-5035-4e64-8982-c15f38a93dd4.jpg?aki_policy=xx_large","name":"Apartment near centre and beach","listingId":19909339,"photoId":"690-1","tags":[{"name":"chair","coordinates":[1.0806748390197753,0.8130413691202799,0.2951153039932251,0.31188348134358723]},{"name":"diningtable","coordinates":[1.0891476631164552,0.6460642496744792,0.41187872886657717,0.14222739537556967]},{"name":"chair","coordinates":[1.2803746223449708,0.7647609710693359,0.17519601583480834,0.3311748186747233]},{"name":"chair","coordinates":[0.8891549110412598,0.5743967056274414,0.11403101682662964,0.12149821917215983]},{"name":"bowl","coordinates":[1.1138145446777343,0.6281428019205729,0.17820502519607545,0.043349480628967284]},{"name":"chair","coordinates":[1.2663965225219727,0.6047756830851237,0.0706121265888214,0.05543243885040283]},{"name":"bottle","coordinates":[1.753363037109375,0.5479138692220052,0.030129536986351013,0.06430884599685668]},{"name":"bottle","coordinates":[1.7093544006347656,0.549597422281901,0.029731369018554686,0.06292239427566529]}]}
