{"src":"https://z0.muscache.cn/im/pictures/87a9d007-f75c-4573-8ec6-d9f5f0e67e64.jpg?aki_policy=xx_large","name":"The Hellshire Beach House","listingId":18151400,"photoId":"690-5","tags":[{"name":"diningtable","coordinates":[0.28667132059733075,0.8106813430786133,0.31240162319607206,0.3671020825703939]},{"name":"refrigerator","coordinates":[0.6674874623616537,0.6267569224039714,0.1795330259535048,0.4944525082906087]},{"name":"chair","coordinates":[0.40051939222547744,0.7982343673706055,0.17825660705566407,0.3910712242126465]},{"name":"chair","coordinates":[0.12750476201375324,0.8821559270222982,0.21830827924940321,0.19209494590759277]},{"name":"microwave","coordinates":[0.5472045474582248,0.5338565826416015,0.07310498555501302,0.07002569039662679]},{"name":"pottedplant","coordinates":[0.6667229546440973,0.3162161509195964,0.06468870374891493,0.07684764862060547]},{"name":"wine-glass","coordinates":[0.24258708953857422,0.6336599349975586,0.02504779232872857,0.07418458461761475]},{"name":"book","coordinates":[0.8750801934136285,0.25802040100097656,0.007860307561026679,0.05546071529388428]}]}
