{"src":"https://z0.muscache.cn/im/pictures/793de0d5-9543-43de-bcc5-e92d78cb4177.jpg?aki_policy=xx_large","name":"The Hellshire Beach House","listingId":18151400,"photoId":"690-13","tags":[{"name":"sofa","coordinates":[0.5646561516655816,0.2817002932230631,0.4339474148220486,0.6804371515909831]},{"name":"bed","coordinates":[-0.053865941365559944,0.7089522361755372,1.0667119344075522,0.26925500233968097]},{"name":"refrigerator","coordinates":[0.48861699104309086,0.1711556593577067,0.13142326143052843,0.39150768915812173]},{"name":"suitcase","coordinates":[0.3297250429789226,0.5495024840037028,0.22964530520968968,0.17379331588745117]},{"name":"chair","coordinates":[0.19318131340874567,0.35121787389119463,0.1294607374403212,0.27812697092692057]}]}
