{"src":"https://z0.muscache.cn/im/pictures/793de0d5-9543-43de-bcc5-e92d78cb4177.jpg?aki_policy=xx_large","name":"The Hellshire Beach House","listingId":18151400,"photoId":"690-13","tags":[{"name":"sofa","coordinates":[0.7816298590766059,0.6219188690185546,0.4339474148220486,0.6804371515909831]},{"name":"bed","coordinates":[0.47949002583821615,0.8435797373453776,1.0667119344075522,0.26925500233968097]},{"name":"refrigerator","coordinates":[0.5543286217583551,0.3669095039367676,0.13142326143052843,0.39150768915812173]},{"name":"suitcase","coordinates":[0.4445476955837674,0.6363991419474284,0.22964530520968968,0.17379331588745117]},{"name":"chair","coordinates":[0.25791168212890625,0.49028135935465494,0.1294607374403212,0.27812697092692057]}]}
