{"src":"https://a0.muscache.com/im/pictures/94434e73-a725-4020-917c-1e6ba1645463.jpg?aki_policy=xx_large","name":"Spacious room","listingId":19941045,"photoId":"691-0","tags":[{"name":"chair","coordinates":[0.12262817621231079,0.7012095133463542,0.24231514930725098,0.5955982208251953]},{"name":"diningtable","coordinates":[0.32859439849853517,0.6731182734171549,0.3435937166213989,0.3771512031555176]},{"name":"bed","coordinates":[0.8229063987731934,0.8364363352457682,0.3356168270111084,0.30894463857014975]},{"name":"chair","coordinates":[0.5611846446990967,0.5597825368245443,0.22817347049713135,0.40867493947347006]},{"name":"vase","coordinates":[0.3045983791351318,0.4801629384358724,0.04729922413825989,0.05868553717931112]}]}
