{"src":"https://a0.muscache.com/im/pictures/374cdc29-cf4a-4f57-aa55-fa2aa8e7875d.jpg?aki_policy=xx_large","name":"The Gem of the Lake Shore","listingId":18159793,"photoId":"691-0","tags":[{"name":"sofa","coordinates":[0.5697986602783203,0.8216642379760742,0.9637262132432726,0.3536531448364258]},{"name":"sofa","coordinates":[0.7265619913736979,0.5870093027750651,0.46953226725260416,0.267448361714681]},{"name":"pottedplant","coordinates":[0.4788632286919488,0.4902369499206543,0.19400083753797742,0.2279179890950521]},{"name":"chair","coordinates":[0.0865706443786621,0.5936243693033855,0.18464830186631945,0.19852161407470703]},{"name":"book","coordinates":[0.3088535308837891,0.6424750010172526,0.13289773729112414,0.02998064160346985]}]}
