{"src":"https://a0.muscache.com/im/pictures/374cdc29-cf4a-4f57-aa55-fa2aa8e7875d.jpg?aki_policy=xx_large","name":"The Gem of the Lake Shore","listingId":18159793,"photoId":"691-0","tags":[{"name":"sofa","coordinates":[0.08793555365668398,0.6448376655578614,0.9637262132432726,0.3536531448364258]},{"name":"sofa","coordinates":[0.49179585774739587,0.45328512191772463,0.46953226725260416,0.267448361714681]},{"name":"pottedplant","coordinates":[0.38186280992296007,0.37627795537312825,0.19400083753797742,0.2279179890950521]},{"name":"chair","coordinates":[-0.00575350655449762,0.49436356226603195,0.18464830186631945,0.19852161407470703]},{"name":"book","coordinates":[0.24240466223822701,0.6274846802155177,0.13289773729112414,0.02998064160346985]}]}
