{"src":"https://a0.muscache.com/im/pictures/3e637ef8-f9a9-4112-ac2b-67c99ae8f2ce.jpg?aki_policy=xx_large","name":"Cute &amp; clean - Centre of The Hague!","listingId":10208780,"photoId":"7-6","tags":[{"name":"sofa","coordinates":[0.6741354483145254,0.8594602584838867,1.3119398328993055,0.26184027989705405]},{"name":"sofa","coordinates":[1.040495130750868,0.7118058522542318,0.6220143070927373,0.20144594510396321]},{"name":"chair","coordinates":[0.7946077700014468,0.6416762669881185,0.460890621609158,0.19955062866210938]},{"name":"tvmonitor","coordinates":[0.4835554899992766,0.5450612386067708,0.27854684900354454,0.1014758825302124]},{"name":"pottedplant","coordinates":[0.6773460105613426,0.5466121673583985,0.12597006338614006,0.10163822174072265]},{"name":"book","coordinates":[0.0367383427090115,0.567348035176595,0.016193347507052952,0.06826277573903401]},{"name":"book","coordinates":[0.10137176513671875,0.5736081441243489,0.020194564042267975,0.05271370013554891]},{"name":"book","coordinates":[0.06901852643048322,0.5706254323323567,0.015212541156344943,0.06155217091242472]}]}
