{"src":"https://a0.muscache.com/im/pictures/8822d252-c010-404c-85b4-c9747315c66c.jpg?aki_policy=xx_large","name":"The first room is beautiful!!!","listingId":11627275,"photoId":"70-11","tags":[{"name":"chair","coordinates":[0.3150738751446759,0.483486286799113,0.6240227593315972,0.5166556358337402]},{"name":"diningtable","coordinates":[0.3150738751446759,0.483486286799113,0.6240227593315972,0.5166556358337402]},{"name":"chair","coordinates":[0.30411501283998843,0.4078242103258769,0.2957917955186632,0.09859845638275147]},{"name":"chair","coordinates":[0.7323447757297092,0.41861013571421307,0.2631421407063802,0.07853360176086426]},{"name":"bowl","coordinates":[0.37231169100160955,0.46525704065958656,0.17408417595757378,0.04215526580810547]},{"name":"cup","coordinates":[0.941245248582628,0.5052383343378702,0.06034533182779948,0.051166931788126625]},{"name":"cup","coordinates":[0.7321921843069571,0.4968629896640777,0.070560179816352,0.03555303017298381]}]}
