{"src":"https://a0.muscache.com/im/pictures/6d72ef8b-50c1-42cc-8146-0ae78cfe0ae5.jpg?aki_policy=xx_large","name":"Seaside resort","listingId":11672082,"photoId":"70-20","tags":[{"name":"sofa","coordinates":[0.328474489847819,0.7786628087361653,0.6174062940809462,0.4215449015299479]},{"name":"tvmonitor","coordinates":[0.3200875812106662,0.5280290285746256,0.17751589881049262,0.20836540857950847]},{"name":"pottedplant","coordinates":[0.08366861873202854,0.5359035491943359,0.16142423417833116,0.22353347142537436]},{"name":"pottedplant","coordinates":[0.9556536356608073,0.5745203653971355,0.08281672795613607,0.16926563580830892]},{"name":"vase","coordinates":[0.6325991312662761,0.6766712188720703,0.062233956654866536,0.11058566570281983]},{"name":"book","coordinates":[0.145138676961263,0.42079232533772787,0.029670190811157227,0.13977378209431965]},{"name":"book","coordinates":[0.12569743262396918,0.4194824536641439,0.02332766850789388,0.14239699045817059]},{"name":"book","coordinates":[0.16496214336819118,0.4240505854288737,0.019256802399953206,0.13806974093119304]},{"name":"vase","coordinates":[0.3245549519856771,0.14783417383829753,0.03282927407158746,0.0760250727335612]},{"name":"book","coordinates":[0.1821863810221354,0.42777636845906575,0.0195302234755622,0.12510689894358318]}]}
