{"src":"https://a0.muscache.com/im/pictures/a58978d3-a0ad-4187-bdea-62ab5a5b7d79.jpg?aki_policy=xx_large","name":"Seaside resort","listingId":11672082,"photoId":"70-3","tags":[{"name":"oven","coordinates":[0.2812345928615994,0.7662791570027669,0.15363568200005426,0.40935525894165037]},{"name":"sink","coordinates":[0.780531734890408,0.6553307215372721,0.30339910719129776,0.09146686395009358]},{"name":"pottedplant","coordinates":[0.3111203087700738,0.17935770352681477,0.13082948260837132,0.13801240921020508]},{"name":"spoon","coordinates":[0.6051513671875,0.4629288037618001,0.03019284142388238,0.1907480557759603]},{"name":"spoon","coordinates":[0.5455171373155382,0.45545549392700196,0.027554326587253146,0.1446096102396647]},{"name":"spoon","coordinates":[0.5305546654595269,0.45584017435709634,0.027341532707214355,0.1417306423187256]},{"name":"bottle","coordinates":[0.4105375501844618,0.17887566884358724,0.02514600223965115,0.10552310943603516]}]}
