{"src":"https://a0.muscache.com/im/pictures/3b01c733-8b70-4b2f-b08f-549ced76d397.jpg?aki_policy=xx_large","name":"The first room is beautiful!!!","listingId":11627275,"photoId":"70-5","tags":[{"name":"diningtable","coordinates":[0.7430963304307726,0.8199851989746094,0.5557895236545138,0.3057339350382487]},{"name":"chair","coordinates":[0.5771265665690104,0.8845905939737956,0.2296669430202908,0.23550340334574382]},{"name":"chair","coordinates":[0.6877321031358506,0.5831179936726888,0.15624831517537435,0.2947203000386556]},{"name":"chair","coordinates":[0.861454349093967,0.9225015640258789,0.2668948491414388,0.15029179255167643]},{"name":"chair","coordinates":[0.7923631456163195,0.569233767191569,0.13159665001763238,0.30178635915120444]},{"name":"vase","coordinates":[0.9550762600368924,0.7480529149373373,0.06400272051493326,0.2147456645965576]},{"name":"bowl","coordinates":[0.7208369784884983,0.7741821924845378,0.09944001303778754,0.08602267901102702]},{"name":"vase","coordinates":[0.03400784068637424,0.4863995869954427,0.06575159496731228,0.10888830820719402]},{"name":"cup","coordinates":[0.8130102369520399,0.7539649963378906,0.033792980511983234,0.08710849285125732]},{"name":"bottle","coordinates":[0.5318767971462673,0.44723151524861654,0.031712510850694445,0.08872559865315756]},{"name":"cup","coordinates":[0.7827291700575086,0.748106575012207,0.03287001980675591,0.0852145512898763]}]}
