{"src":"https://a0.muscache.com/im/pictures/4e61b756-5651-4800-ab89-dea2da8d0061.jpg?aki_policy=xx_large","name":"Seaside resort","listingId":11672082,"photoId":"70-5","tags":[{"name":"sofa","coordinates":[0.14665426678127713,0.7638135274251302,0.31239556206597224,0.43330790201822916]},{"name":"sofa","coordinates":[0.5026923285590278,0.6297523498535156,0.38748597039116756,0.25878310203552246]},{"name":"tvmonitor","coordinates":[0.8881412929958767,0.5962928136189779,0.05703777207268609,0.2534650325775146]},{"name":"book","coordinates":[0.602578862508138,0.8568615595499675,0.08063730663723416,0.06770127614339193]},{"name":"vase","coordinates":[0.5038565317789714,0.6973616917928059,0.04966067208184136,0.10188811620076497]},{"name":"book","coordinates":[0.40893300374348956,0.8830272674560546,0.08552078670925564,0.037233861287434895]},{"name":"book","coordinates":[0.4096001519097222,0.8660438537597657,0.08040066825018989,0.038774760564168294]},{"name":"pottedplant","coordinates":[0.36156654357910156,0.488153616587321,0.04337084028455946,0.06397186120351156]},{"name":"book","coordinates":[0.5113434685601128,0.882566261291504,0.07240368525187174,0.019293800989786784]},{"name":"book","coordinates":[0.487663565741645,0.8401203155517578,0.04748459392123752,0.028981995582580567]}]}
