{"src":"https://a0.muscache.com/im/pictures/acc7a4f1-43b9-4c64-ab38-1f19789e1e5b.jpg?aki_policy=xx_large","name":"The first room is beautiful!!!","listingId":11627275,"photoId":"70-6","tags":[{"name":"diningtable","coordinates":[1.348184543185764,0.7020384470621744,2.397476083260995,0.6570143381754557]},{"name":"chair","coordinates":[1.9518550166377315,0.36506544748942055,0.6641786363389757,0.2832533200581869]},{"name":"chair","coordinates":[1.2604340729890047,0.31571842829386393,0.437694662588614,0.2954018910725911]},{"name":"bowl","coordinates":[1.2030419243706598,0.7618758519490559,0.46898495709454574,0.188367493947347]},{"name":"bowl","coordinates":[0.16696092111093028,0.6229642232259115,0.34937498304578996,0.15733807881673176]},{"name":"vase","coordinates":[0.8482661494502315,0.47798582712809246,0.22082320319281684,0.24343994458516438]},{"name":"fork","coordinates":[0.76118084942853,0.8042286554972331,0.32404553448712387,0.1655632495880127]},{"name":"bowl","coordinates":[1.7278713650173612,0.4950869878133138,0.38669555098922165,0.12959918181101482]},{"name":"knife","coordinates":[0.4350966559516059,0.7415906906127929,0.3463764897099248,0.14432916641235352]},{"name":"knife","coordinates":[1.6102568449797454,0.9106871922810872,0.2365377355504919,0.1924764633178711]},{"name":"cup","coordinates":[1.071134779188368,0.5887065887451172,0.19090714631257233,0.19132013320922853]},{"name":"cup","coordinates":[1.273175048828125,0.5773586908976237,0.20046530829535592,0.1787311871846517]},{"name":"cup","coordinates":[1.1685936821831597,0.5836864471435547,0.1769188774956597,0.19052359263102214]}]}
