{"src":"https://a0.muscache.com/im/pictures/b6a9aae9-8f3e-4e09-b627-a18fd7fee77d.jpg?aki_policy=xx_large","name":"Seaside resort","listingId":11672082,"photoId":"70-6","tags":[{"name":"sofa","coordinates":[0.14482179217868382,0.7495867411295573,0.27635010613335503,0.47552878061930337]},{"name":"sofa","coordinates":[0.40927280849880643,0.6303077697753906,0.3453338411119249,0.2708500862121582]},{"name":"tvmonitor","coordinates":[0.7903439839680989,0.5276096979777019,0.12225731743706597,0.1909512201944987]},{"name":"pottedplant","coordinates":[0.6315035078260633,0.5381907780965169,0.08600631290011936,0.15088809331258138]},{"name":"pottedplant","coordinates":[0.18624807993570963,0.45098237991333007,0.07883817884657118,0.14804197947184244]},{"name":"pottedplant","coordinates":[0.55546629163954,0.5705276489257812,0.06669617229037815,0.17181708017985026]},{"name":"pottedplant","coordinates":[0.26571888393825954,0.490169620513916,0.06621111763848199,0.07667685349782308]},{"name":"vase","coordinates":[0.5561977810329861,0.6184759140014648,0.04592716428968641,0.07929776509602865]}]}
