{"src":"https://a0.muscache.com/im/pictures/acc7a4f1-43b9-4c64-ab38-1f19789e1e5b.jpg?aki_policy=xx_large","name":"The first room is beautiful!!!","listingId":11627275,"photoId":"70-6","tags":[{"name":"diningtable","coordinates":[0.5055692036946614,0.7020384470621744,0.8990535312228732,0.6570143381754557]},{"name":"chair","coordinates":[0.7319456312391494,0.36506544748942055,0.24906698862711588,0.2832533200581869]},{"name":"chair","coordinates":[0.47266277737087675,0.31571842829386393,0.16413549847073025,0.2954018910725911]},{"name":"bowl","coordinates":[0.4511407216389974,0.7618758519490559,0.17586935891045463,0.188367493947347]},{"name":"bowl","coordinates":[0.06261034541659885,0.6229642232259115,0.13101561864217123,0.15733807881673176]},{"name":"vase","coordinates":[0.3180998060438368,0.47798582712809246,0.08280870119730631,0.24343994458516438]},{"name":"fork","coordinates":[0.2854428185356988,0.8042286554972331,0.12151707543267144,0.1655632495880127]},{"name":"bowl","coordinates":[0.6479517618815104,0.4950869878133138,0.14501083162095812,0.12959918181101482]},{"name":"knife","coordinates":[0.16316124598185222,0.7415906906127929,0.1298911836412218,0.14432916641235352]},{"name":"knife","coordinates":[0.6038463168674045,0.9106871922810872,0.08870165083143446,0.1924764633178711]},{"name":"cup","coordinates":[0.401675542195638,0.5887065887451172,0.07159017986721462,0.19132013320922853]},{"name":"cup","coordinates":[0.47744064331054686,0.5773586908976237,0.07517449061075847,0.1787311871846517]},{"name":"cup","coordinates":[0.4382226308186849,0.5836864471435547,0.06634457906087239,0.19052359263102214]}]}
