{"src":"https://a0.muscache.com/im/pictures/ff648350-e2b8-4c45-baab-9f11c24894ae.jpg?aki_policy=xx_large","name":"Wonderful modern apartment perfectly located","listingId":20206648,"photoId":"700-2","tags":[{"name":"tvmonitor","coordinates":[0.6112435331596618,0.19763277371724447,0.4894126075033684,0.28546600341796874]},{"name":"vase","coordinates":[0.4952024584519515,0.5544739405314127,0.29951591650866005,0.2857254346211751]},{"name":"vase","coordinates":[0.23115533184109874,0.7495913823445638,0.3218386972398188,0.24687517484029134]},{"name":"pottedplant","coordinates":[0.19434056394786595,0.26382225354512534,0.08960460721202951,0.133515469233195]},{"name":"remote","coordinates":[0.7843821476497306,0.3489447911580404,0.09654849162519559,0.02857292890548706]}]}
