{"src":"https://a0.muscache.com/im/pictures/9cee4d14-1004-48b8-be49-0237afe8988e.jpg?aki_policy=xx_large","name":"Scheveningen Beach Apartment 2","listingId":20209275,"photoId":"701-0","tags":[{"name":"sofa","coordinates":[0.6607128567165799,0.6408772786458333,0.3260085635715061,0.25745978355407717]},{"name":"chair","coordinates":[0.4265352037217882,0.7467091242472331,0.20646002027723526,0.3236555099487305]},{"name":"pottedplant","coordinates":[0.3622964223225911,0.5276193618774414,0.11902795367770724,0.3222495714823405]},{"name":"pottedplant","coordinates":[0.9148769802517361,0.6576128005981445,0.125027592976888,0.15421346028645833]},{"name":"pottedplant","coordinates":[0.8723169114854601,0.7093041737874349,0.07392434544033474,0.22195088068644206]},{"name":"pottedplant","coordinates":[0.931628672281901,0.6948748270670573,0.08334266344706218,0.16814516385396322]},{"name":"pottedplant","coordinates":[0.5234143151177301,0.5453409830729167,0.07571800020005968,0.09871141115824382]},{"name":"pottedplant","coordinates":[0.8615948147243924,0.7709877014160156,0.05784475008646647,0.11809505621592203]},{"name":"tvmonitor","coordinates":[0.5634286244710286,0.4786386807759603,0.06170138253106011,0.06338211297988891]},{"name":"vase","coordinates":[0.5170217725965712,0.572203254699707,0.022466174761454263,0.03753980000813802]}]}
