{"src":"https://a0.muscache.com/im/pictures/d1ac2f62-0d07-4713-8b3e-74adb522d43d.jpg?aki_policy=xx_large","name":"BEACHFRONT VACATION HOUSE","listingId":18248851,"photoId":"702-8","tags":[{"name":"refrigerator","coordinates":[0.2000888188680013,0.6794944763183594,0.15908208423190648,0.6223531087239583]},{"name":"oven","coordinates":[0.8825594584147135,0.8090449015299479,0.21433660719129774,0.3657575925191244]},{"name":"sink","coordinates":[0.6627006106906467,0.601283073425293,0.198680051167806,0.04127993186314901]},{"name":"pottedplant","coordinates":[0.5421848297119141,0.5386665344238282,0.04066580666436089,0.07867956161499023]},{"name":"wine-glass","coordinates":[0.4157542758517795,0.34961299896240233,0.024881317880418564,0.04215176900227865]},{"name":"spoon","coordinates":[0.7795337253146701,0.5153193473815918,0.016196424431271023,0.05963302850723266]},{"name":"wine-glass","coordinates":[0.4148903316921658,0.2556368192036947,0.018875008159213596,0.05043026606241862]},{"name":"spoon","coordinates":[0.7995621575249566,0.5211037953694662,0.018166556623246934,0.04950345754623413]},{"name":"wine-glass","coordinates":[0.39399541219075523,0.34971383412679036,0.020255661010742186,0.041174503167470296]},{"name":"wine-glass","coordinates":[0.39531712002224395,0.2580609957377116,0.01844688653945923,0.04347211519877116]},{"name":"wine-glass","coordinates":[0.3762976328531901,0.2569345156351725,0.01776116026772393,0.039366348584493]},{"name":"wine-glass","coordinates":[0.3566266801622179,0.25276622772216795,0.017033076286315917,0.04002360105514526]},{"name":"cup","coordinates":[0.3749354044596354,0.34549935658772785,0.01681498686472575,0.040255037943522136]},{"name":"cup","coordinates":[0.3554998609754774,0.3407142639160156,0.01612938510047065,0.04133271376291911]},{"name":"wine-glass","coordinates":[0.34115532769097223,0.2517680803934733,0.013927388191223144,0.040421720345815024]}]}
