{"src":"https://a0.muscache.com/im/pictures/d1ac2f62-0d07-4713-8b3e-74adb522d43d.jpg?aki_policy=xx_large","name":"BEACHFRONT VACATION HOUSE","listingId":18248851,"photoId":"702-12","tags":[{"name":"refrigerator","coordinates":[0.12054777675204807,0.3683179219563802,0.15908208423190648,0.6223531087239583]},{"name":"oven","coordinates":[0.7753911548190646,0.6261661052703857,0.21433660719129774,0.3657575925191244]},{"name":"sink","coordinates":[0.5633605851067437,0.5806431074937185,0.198680051167806,0.04127993186314901]},{"name":"pottedplant","coordinates":[0.5218519263797337,0.49932675361633305,0.04066580666436089,0.07867956161499023]},{"name":"wine-glass","coordinates":[0.4033136169115702,0.328537114461263,0.024881317880418564,0.04215176900227865]},{"name":"spoon","coordinates":[0.7714355130990346,0.4855028331279755,0.016196424431271023,0.05963302850723266]},{"name":"wine-glass","coordinates":[0.405452827612559,0.23042168617248537,0.018875008159213596,0.05043026606241862]},{"name":"spoon","coordinates":[0.7904788792133332,0.4963520665963491,0.018166556623246934,0.04950345754623413]},{"name":"wine-glass","coordinates":[0.38386758168538415,0.3291265825430552,0.020255661010742186,0.041174503167470296]},{"name":"wine-glass","coordinates":[0.3860936767525143,0.236324938138326,0.01844688653945923,0.04347211519877116]},{"name":"wine-glass","coordinates":[0.3674170527193282,0.237251341342926,0.01776116026772393,0.039366348584493]},{"name":"wine-glass","coordinates":[0.34811014201905993,0.23275442719459533,0.017033076286315917,0.04002360105514526]},{"name":"cup","coordinates":[0.36652791102727256,0.3253718376159668,0.01681498686472575,0.040255037943522136]},{"name":"cup","coordinates":[0.3474351684252421,0.32004790703455605,0.01612938510047065,0.04133271376291911]},{"name":"wine-glass","coordinates":[0.33419163359536064,0.2315572202205658,0.013927388191223144,0.040421720345815024]}]}
