{"src":"https://a0.muscache.com/im/pictures/f0d9f512-b514-48d2-9de6-d86456d44984.jpg?aki_policy=xx_large","name":"[HOT!] Peaceful vicinity of U8","listingId":18263283,"photoId":"704-8","tags":[{"name":"diningtable","coordinates":[0.19296836853027344,0.565230909983317,0.425907039642334,0.41778367360432944]},{"name":"chair","coordinates":[0.0303138494491577,0.6645339806874593,0.2273423433303833,0.3217843691507975]},{"name":"chair","coordinates":[0.5685928404331207,0.5318111101786296,0.11176823377609253,0.3266032536824544]},{"name":"bowl","coordinates":[0.4356057524681091,0.5554550369580586,0.08302443027496338,0.03336075941721598]},{"name":"cup","coordinates":[0.3486323282122612,0.5995726684729259,0.04414202272891998,0.03379877010981242]},{"name":"cup","coordinates":[0.3801529571413994,0.5518417437871297,0.037966218590736386,0.035561990737915036]}]}
