{"src":"https://a0.muscache.com/im/pictures/104385ff-2d4d-4271-b5ba-feceff7900f2.jpg?aki_policy=xx_large","name":"The Hague-homestay","listingId":20224615,"photoId":"705-1","tags":[{"name":"pottedplant","coordinates":[0.8832940101623535,0.5948823293050131,0.2171416997909546,0.7528985977172852]},{"name":"diningtable","coordinates":[0.5047879695892334,0.7872472127278646,0.3996888160705566,0.40628121693929037]},{"name":"chair","coordinates":[0.561464786529541,0.8304578781127929,0.19391889572143556,0.31945699055989585]},{"name":"chair","coordinates":[0.3594454288482666,0.8008253733317058,0.11769292354583741,0.37245607376098633]},{"name":"chair","coordinates":[0.6838861465454101,0.7755222956339518,0.09685965776443481,0.44215323130289713]},{"name":"pottedplant","coordinates":[0.49491090774536134,0.5620558420817058,0.11405708789825439,0.1404649257659912]},{"name":"car","coordinates":[0.4110850811004639,0.5070378303527832,0.08233814239501953,0.0781725804011027]},{"name":"car","coordinates":[0.16796196699142457,0.5583922704060872,0.08418092131614685,0.07194167772928874]},{"name":"car","coordinates":[0.3256147146224976,0.5106005668640137,0.053028297424316403,0.09298776785532634]},{"name":"bicycle","coordinates":[0.48595609664916994,0.4621600151062012,0.06386799812316894,0.04445581833521525]},{"name":"person","coordinates":[0.4893000602722168,0.43489885330200195,0.02096651345491409,0.050028204917907715]}]}
