{"src":"https://a0.muscache.com/im/pictures/1e61f354-ac8c-4594-a657-455b642b7d6d.jpg?aki_policy=xx_large","name":"Casa Christopher","listingId":18266702,"photoId":"706-22","tags":[{"name":"diningtable","coordinates":[0.0157623291015625,0.5574398358662923,0.7733928680419921,0.23954664866129557]},{"name":"chair","coordinates":[0.1838837504386902,0.6846474965413412,0.2590123414993286,0.3170116424560547]},{"name":"chair","coordinates":[0.45552055835723876,0.65246745745341,0.2289210796356201,0.3563471794128418]},{"name":"bench","coordinates":[0.8238972663879395,0.5187394936879476,0.17900867462158204,0.32596731185913086]},{"name":"chair","coordinates":[0.13952449560165406,0.494806190331777,0.16476852893829347,0.09784769217173259]},{"name":"chair","coordinates":[0.3447300314903259,0.4830021580060323,0.14720804691314698,0.0872202475865682]},{"name":"wine-glass","coordinates":[0.11125449538230896,0.5789141376813253,0.0526222825050354,0.12327816486358642]},{"name":"wine-glass","coordinates":[0.42089596688747405,0.5510652939478556,0.036440640687942505,0.07850689888000488]}]}
