{"src":"https://a0.muscache.com/im/pictures/a6b9305e-4bca-4ea2-82ce-6393c530b332.jpg?aki_policy=xx_large","name":"Beautiful family home near the beach","listingId":20229282,"photoId":"706-1","tags":[{"name":"pottedplant","coordinates":[1.1810557895236544,0.3681452433268229,0.30895118713378905,0.2904161135355631]},{"name":"oven","coordinates":[0.6607984754774305,0.5641577402750652,0.3192191229926215,0.26068002382914224]},{"name":"chair","coordinates":[1.542625257703993,0.7341911951700847,0.2026625951131185,0.337438170115153]},{"name":"vase","coordinates":[0.08106248113844129,0.411879030863444,0.1363159285651313,0.21931436856587727]},{"name":"vase","coordinates":[1.1243336147732206,0.4686900774637858,0.08946214252048068,0.10725036462148031]},{"name":"bottle","coordinates":[0.9092151217990452,0.40468654632568357,0.05119670232137044,0.0808690627415975]},{"name":"bottle","coordinates":[0.2876098420884874,0.4105141321818034,0.02800371381971571,0.07673446337381999]},{"name":"bottle","coordinates":[0.32422487470838757,0.4140101432800293,0.028774290614657933,0.07296725114186604]},{"name":"bottle","coordinates":[0.35717252095540364,0.4134836514790853,0.027463380495707193,0.06255990266799927]},{"name":"bottle","coordinates":[0.39332945081922743,0.40801871617635094,0.024193946520487467,0.05121184190114339]}]}
