{"src":"https://a0.muscache.com/im/pictures/a204502f-5125-49df-a669-c3cfa3febedd.jpg?aki_policy=xx_large","name":"Casa Christopher","listingId":18266702,"photoId":"706-17","tags":[{"name":"chair","coordinates":[0.815057373046875,0.8113211949666341,0.3475053071975708,0.3253533363342285]},{"name":"tvmonitor","coordinates":[0.7395625591278077,0.3022488594055176,0.20799808502197265,0.212308136622111]},{"name":"pottedplant","coordinates":[0.8710098266601562,0.567334238688151,0.15568950176239013,0.24892131487528482]},{"name":"chair","coordinates":[0.1306259036064148,0.6370301564534505,0.16384479999542237,0.22045623461405436]},{"name":"handbag","coordinates":[0.2074641227722168,0.7227739969889323,0.17324661016464232,0.18089578946431478]},{"name":"chair","coordinates":[0.27915306091308595,0.6165159225463868,0.14107394218444824,0.20884780883789061]},{"name":"bottle","coordinates":[0.6975072860717774,0.6665810902913412,0.036391162872314455,0.13410779635111492]}]}
