{"src":"https://a0.muscache.com/im/pictures/a204502f-5125-49df-a669-c3cfa3febedd.jpg?aki_policy=xx_large","name":"Casa Christopher","listingId":18266702,"photoId":"706-17","tags":[{"name":"chair","coordinates":[0.7244954427083333,0.8113211949666341,0.3088936063978407,0.3253533363342285]},{"name":"tvmonitor","coordinates":[0.6573889414469402,0.3022488594055176,0.1848871866861979,0.212308136622111]},{"name":"pottedplant","coordinates":[0.77423095703125,0.567334238688151,0.13839066823323568,0.24892131487528482]},{"name":"chair","coordinates":[0.11611191431681316,0.6370301564534505,0.14563982221815322,0.22045623461405436]},{"name":"handbag","coordinates":[0.1844125535753038,0.7227739969889323,0.1539969868130154,0.18089578946431478]},{"name":"chair","coordinates":[0.24813605414496528,0.6165159225463868,0.12539905971950954,0.20884780883789061]},{"name":"bottle","coordinates":[0.6200064765082465,0.6665810902913412,0.03234770033094618,0.13410779635111492]}]}
