{"src":"https://a0.muscache.com/im/pictures/6012613c-d87c-45cd-8f48-7d4577d90353.jpg?aki_policy=xx_large","name":"城市中心公寓，喧闹的城市，寂静的小舍","listingId":18276340,"photoId":"708-1","tags":[{"name":"bed","coordinates":[0.3978991746902466,0.724557367960612,0.7197367668151855,0.5128372192382813]},{"name":"sofa","coordinates":[0.1798720121383667,0.47526203791300453,0.2148608684539795,0.18316046396891275]},{"name":"diningtable","coordinates":[0.43593950271606446,0.4325370788574219,0.13559550046920776,0.13872330983479816]},{"name":"chair","coordinates":[0.36301259994506835,0.42076457341512047,0.06789414882659912,0.12682216962178547]},{"name":"chair","coordinates":[0.48350186347961427,0.44051917394002277,0.059465992450714114,0.13845988909403484]},{"name":"chair","coordinates":[0.4331498622894287,0.4349628448486328,0.08015262484550476,0.09693517684936523]},{"name":"diningtable","coordinates":[0.4309054374694824,0.38184820810953773,0.1375739336013794,0.03667950630187988]}]}
