{"src":"https://a0.muscache.com/im/pictures/6012613c-d87c-45cd-8f48-7d4577d90353.jpg?aki_policy=xx_large","name":"城市中心公寓，喧闹的城市，寂静的小舍","listingId":18276340,"photoId":"708-1","tags":[{"name":"bed","coordinates":[0.03803079128265385,0.46813875834147134,0.7197367668151855,0.5128372192382813]},{"name":"sofa","coordinates":[0.07244157791137695,0.38368180592854817,0.2148608684539795,0.18316046396891275]},{"name":"diningtable","coordinates":[0.3681417524814606,0.3631754239400228,0.13559550046920776,0.13872330983479816]},{"name":"chair","coordinates":[0.32906552553176877,0.3573534886042277,0.06789414882659912,0.12682216962178547]},{"name":"chair","coordinates":[0.4537688672542572,0.37128922939300535,0.059465992450714114,0.13845988909403484]},{"name":"chair","coordinates":[0.3930735498666763,0.38649525642395016,0.08015262484550476,0.09693517684936523]},{"name":"diningtable","coordinates":[0.3621184706687927,0.3635084549585978,0.1375739336013794,0.03667950630187988]}]}
