{"src":"https://a0.muscache.com/im/pictures/4d1eddba-9b3e-4de1-8223-9735096a4bf7.jpg?aki_policy=xx_large","name":"Bright modern beach front apartment","listingId":20291035,"photoId":"709-8","tags":[{"name":"sofa","coordinates":[0.14375750223795572,0.5239225069681803,0.2852205276489258,0.4046515464782715]},{"name":"pottedplant","coordinates":[0.8203767564561631,0.35593430201212567,0.23544705708821614,0.2876582145690918]},{"name":"refrigerator","coordinates":[0.7205491807725695,0.2788432439168294,0.10978528128729927,0.2743673006693522]},{"name":"chair","coordinates":[0.32397937774658203,0.3998657862345378,0.10173657735188803,0.22887940406799318]},{"name":"chair","coordinates":[0.4565265655517578,0.375341542561849,0.0946205563015408,0.17785396575927734]}]}
