{"src":"https://a0.muscache.com/im/pictures/1512fc7d-8d38-4ded-b545-ff664fb114d0.jpg?aki_policy=xx_large","name":"Bright modern beach front apartment","listingId":20291035,"photoId":"709-1","tags":[{"name":"tvmonitor","coordinates":[0.7969134279718989,0.531069819132487,0.18594896901059763,0.2189184029897054]},{"name":"pottedplant","coordinates":[0.6294037777156446,0.5355111440022786,0.14417959800439215,0.2464196999867757]},{"name":"chair","coordinates":[0.32350174597023756,0.5908672332763671,0.1322424532722648,0.1932806332906087]},{"name":"refrigerator","coordinates":[0.4950917385119875,0.47335793177286783,0.08768816239474299,0.24397854804992675]},{"name":"chair","coordinates":[0.17964118284181724,0.5643370946248373,0.1147009111925328,0.08400560220082601]}]}
