{"src":"https://a0.muscache.com/im/pictures/5502f2b7-9eb7-44cc-b1dc-281648df8446.jpg?aki_policy=xx_large","name":"Cozy and stylish Villa. Only 10 minutes to airport","listingId":18297266,"photoId":"710-0","tags":[{"name":"chair","coordinates":[0.7084687974717881,0.8336830774943034,0.3068585713704427,0.35306148529052733]},{"name":"pottedplant","coordinates":[0.8902603149414062,0.5267165184020997,0.19414770338270398,0.2896316846211751]},{"name":"sofa","coordinates":[0.5954071892632379,0.6092069625854493,0.23887769911024306,0.1638627847035726]},{"name":"pottedplant","coordinates":[0.7784996880425348,0.6330872217814127,0.20256019168429903,0.1507108688354492]},{"name":"pottedplant","coordinates":[0.21086739434136284,0.625866444905599,0.09037512673272027,0.17641711235046387]},{"name":"tvmonitor","coordinates":[0.3551505830552843,0.5323387463887532,0.11033508512708876,0.11412491798400878]},{"name":"pottedplant","coordinates":[0.4584425608317057,0.5356121063232422,0.06540995173984104,0.1750036080678304]}]}
