{"src":"https://a0.muscache.com/im/pictures/b32f4054-90c7-4e00-a996-347b0196951a.jpg?aki_policy=xx_large","name":"Art beachhouse Scheveningen","listingId":20295518,"photoId":"710-0","tags":[{"name":"diningtable","coordinates":[0.2986358430650499,0.7547088623046875,0.24592035081651475,0.32261746724446616]},{"name":"chair","coordinates":[0.28368246290418836,0.7844571431477865,0.11804190741644965,0.294107182820638]},{"name":"chair","coordinates":[0.35979521009657117,0.7453521092732748,0.09555758370293511,0.32784833908081057]},{"name":"chair","coordinates":[0.18516938951280382,0.7472362518310547,0.10735974841647677,0.2610880692799886]},{"name":"sofa","coordinates":[0.44242994520399304,0.5869223912556966,0.10390197965833876,0.15773574511210123]},{"name":"chair","coordinates":[0.4157627953423394,0.6690697987874349,0.05101200209723578,0.1584755738576253]},{"name":"chair","coordinates":[0.283995246887207,0.5917060852050782,0.05307014253404405,0.03769906759262085]},{"name":"bowl","coordinates":[0.21834744347466362,0.6004739125569661,0.05016083717346191,0.03682581981023152]}]}
