{"src":"https://a0.muscache.com/im/pictures/da67cf94-6966-4bc2-85ee-c2cdb4282907.jpg?aki_policy=xx_large","name":"Cozy and stylish Villa. Only 10 minutes to airport","listingId":18297266,"photoId":"710-5","tags":[{"name":"diningtable","coordinates":[0.2041004392835829,0.6736411889394124,0.5721391889784071,0.28823397954305013]},{"name":"chair","coordinates":[0.20295615196228028,0.7034590403238933,0.1663998179965549,0.30369974772135416]},{"name":"chair","coordinates":[0.4762842496236166,0.8972358067830404,0.3337735282050239,0.09760729471842448]},{"name":"oven","coordinates":[0.1596629778544108,0.4847493569056193,0.12026225195990668,0.17935077349344888]},{"name":"microwave","coordinates":[0.16643147468566896,0.3506146510442098,0.11113021638658312,0.09605927467346191]},{"name":"vase","coordinates":[0.31734698083665636,0.47073078950246183,0.03125460942586263,0.09965945879618326]},{"name":"sink","coordinates":[0.3874794006347656,0.5647681256135305,0.13540725708007811,0.01732374429702759]},{"name":"clock","coordinates":[0.12689206335279676,0.29101268847783407,0.0336613655090332,0.06883509159088134]},{"name":"orange","coordinates":[0.5531815939479403,0.5894473771254222,0.027607115109761556,0.03514727354049683]},{"name":"orange","coordinates":[0.5720443858040704,0.5856936037540436,0.027765459484524198,0.0326317032178243]},{"name":"orange","coordinates":[0.5672328101264106,0.6090391278266907,0.035062154134114586,0.02426920731862386]},{"name":"orange","coordinates":[0.5356385933028328,0.5945109486579895,0.02739495966169569,0.02923893133799235]},{"name":"orange","coordinates":[0.5517036517461141,0.6067887594302496,0.030757294760810003,0.02498322129249573]}]}
