{"src":"https://a0.muscache.com/im/pictures/f1c9df29-2def-4686-b31d-6c3630dcc116.jpg?aki_policy=xx_large","name":"Cozy and stylish Villa. Only 10 minutes to airport","listingId":18297266,"photoId":"710-15","tags":[{"name":"sofa","coordinates":[0.0012377787192971723,0.43524370193481443,0.4239509552833171,0.5343750635782878]},{"name":"diningtable","coordinates":[0.09130315520884,0.6724664529164632,0.4884040802833171,0.3106509208679199]},{"name":"bed","coordinates":[0.7810867012706711,0.44825003941853836,0.2214353568822957,0.3640146255493164]},{"name":"chair","coordinates":[0.4436274903293714,0.43923102219899496,0.21053749411022618,0.24536480903625488]},{"name":"pottedplant","coordinates":[0.6274634929018725,0.4138866980870564,0.19969192683000972,0.24521931012471518]}]}
