{"src":"https://a0.muscache.com/im/pictures/f1c9df29-2def-4686-b31d-6c3630dcc116.jpg?aki_policy=xx_large","name":"Cozy and stylish Villa. Only 10 minutes to airport","listingId":18297266,"photoId":"710-15","tags":[{"name":"sofa","coordinates":[0.21321325636095573,0.7024312337239583,0.4239509552833171,0.5343750635782878]},{"name":"diningtable","coordinates":[0.33550519535049855,0.8277919133504231,0.4884040802833171,0.3106509208679199]},{"name":"bed","coordinates":[0.891804379711819,0.6302573521931966,0.2214353568822957,0.3640146255493164]},{"name":"chair","coordinates":[0.5488962373844845,0.5619134267171224,0.21053749411022618,0.24536480903625488]},{"name":"pottedplant","coordinates":[0.7273094563168774,0.536496353149414,0.19969192683000972,0.24521931012471518]}]}
