{"src":"https://a0.muscache.com/im/pictures/5502f2b7-9eb7-44cc-b1dc-281648df8446.jpg?aki_policy=xx_large","name":"Cozy and stylish Villa. Only 10 minutes to airport","listingId":18297266,"photoId":"710-0","tags":[{"name":"chair","coordinates":[0.5550395117865667,0.6571523348490397,0.3068585713704427,0.35306148529052733]},{"name":"pottedplant","coordinates":[0.7931864632500543,0.3819006760915121,0.19414770338270398,0.2896316846211751]},{"name":"sofa","coordinates":[0.47596833970811636,0.527275570233663,0.23887769911024306,0.1638627847035726]},{"name":"pottedplant","coordinates":[0.6772195922003853,0.5577317873636881,0.20256019168429903,0.1507108688354492]},{"name":"pottedplant","coordinates":[0.16567983097500272,0.537657888730367,0.09037512673272027,0.17641711235046387]},{"name":"tvmonitor","coordinates":[0.2999830404917399,0.4752762873967488,0.11033508512708876,0.11412491798400878]},{"name":"pottedplant","coordinates":[0.42573758496178515,0.44811030228932697,0.06540995173984104,0.1750036080678304]}]}
