{"src":"https://a0.muscache.com/im/pictures/6f916f94-c4af-440a-b152-8fd4710823cc.jpg?aki_policy=xx_large","name":"Gorgeous canal house in The Hague city","listingId":20304445,"photoId":"711-1","tags":[{"name":"bed","coordinates":[0.48513997395833336,0.7364558537801107,0.5094918992784289,0.4457783381144206]},{"name":"tvmonitor","coordinates":[0.910392083062066,0.45416043599446615,0.14452506171332466,0.18504525820414225]},{"name":"pottedplant","coordinates":[0.9564800686306424,0.4625271161397298,0.07822044690450032,0.19221461613972982]},{"name":"pottedplant","coordinates":[0.21717308892144097,0.5088441212972005,0.07698750495910645,0.14932958285013834]},{"name":"chair","coordinates":[0.6440473768446181,0.5698827107747396,0.0715303103129069,0.14270668029785155]},{"name":"vase","coordinates":[0.21273064083523222,0.5427918752034505,0.027105606926812065,0.07358282407124837]}]}
