{"src":"https://a0.muscache.com/im/pictures/c96292e8-7e54-412a-bf4a-8416d11518fd.jpg?aki_policy=xx_large","name":"Hermoso duplex!! a 30 cuadras de costanera centro","listingId":18311072,"photoId":"712-11","tags":[{"name":"diningtable","coordinates":[0.6680171542697483,0.7369921366373698,0.38139296637641057,0.3232657750447591]},{"name":"pottedplant","coordinates":[0.7015195634629992,0.28992919921875,0.1531510459052192,0.30006526311238607]},{"name":"chair","coordinates":[0.832033199734158,0.7417505264282227,0.14726598527696397,0.30618321100870766]},{"name":"chair","coordinates":[0.5537114885118273,0.8877731323242187,0.20406483544243706,0.21487922668457032]},{"name":"tvmonitor","coordinates":[0.9263862609863281,0.13087965647379557,0.13566966586642795,0.23758565584818522]},{"name":"chair","coordinates":[0.5532144758436415,0.6419756571451823,0.14053033192952474,0.21349269549051922]},{"name":"chair","coordinates":[0.543330807156033,0.5687978744506836,0.10475480821397569,0.09355731010437011]},{"name":"vase","coordinates":[0.6753637949625652,0.6622882843017578,0.04256653520796034,0.0918203353881836]}]}
