{"src":"https://a0.muscache.com/im/pictures/c96292e8-7e54-412a-bf4a-8416d11518fd.jpg?aki_policy=xx_large","name":"Hermoso duplex!! a 30 cuadras de costanera centro","listingId":18311072,"photoId":"712-11","tags":[{"name":"diningtable","coordinates":[0.47732067108154297,0.5753592491149903,0.38139296637641057,0.3232657750447591]},{"name":"pottedplant","coordinates":[0.6249440405103895,0.13989656766255695,0.1531510459052192,0.30006526311238607]},{"name":"chair","coordinates":[0.758400207095676,0.5886589209238688,0.14726598527696397,0.30618321100870766]},{"name":"chair","coordinates":[0.45167907079060876,0.7803335189819336,0.20406483544243706,0.21487922668457032]},{"name":"tvmonitor","coordinates":[0.8585514280531141,0.012086828549702958,0.13566966586642795,0.23758565584818522]},{"name":"chair","coordinates":[0.4829493098788791,0.5352293093999227,0.14053033192952474,0.21349269549051922]},{"name":"chair","coordinates":[0.49095340304904517,0.5220192193984986,0.10475480821397569,0.09355731010437011]},{"name":"vase","coordinates":[0.654080527358585,0.616378116607666,0.04256653520796034,0.0918203353881836]}]}
