{"src":"https://a0.muscache.com/im/pictures/0fc6246a-1fcc-477e-b278-d02d09c4f50b.jpg?aki_policy=xx_large","name":"Hermoso duplex!! a 30 cuadras de costanera centro","listingId":18311072,"photoId":"712-9","tags":[{"name":"diningtable","coordinates":[0.5431172264946831,0.43030374844868974,0.4181631300184462,0.33778867721557615]},{"name":"chair","coordinates":[0.5097165531582302,0.5324281692504882,0.2550120671590169,0.46847394307454426]},{"name":"chair","coordinates":[0.7451294157240126,0.5327261606852214,0.248291990492079,0.4176287333170573]},{"name":"pottedplant","coordinates":[0.005124547746446412,0.06886649131774902,0.2707556406656901,0.3216821034749349]},{"name":"vase","coordinates":[0.09895454512702093,0.23883404731750488,0.08333707385592991,0.1890547752380371]},{"name":"vase","coordinates":[0.7409041086832683,0.39454442660013833,0.05172059800889757,0.134038511912028]}]}
