{"src":"https://a0.muscache.com/im/pictures/0fc6246a-1fcc-477e-b278-d02d09c4f50b.jpg?aki_policy=xx_large","name":"Hermoso duplex!! a 30 cuadras de costanera centro","listingId":18311072,"photoId":"712-9","tags":[{"name":"diningtable","coordinates":[0.7521987915039062,0.5991980870564778,0.4181631300184462,0.33778867721557615]},{"name":"chair","coordinates":[0.6372225867377387,0.7666651407877604,0.2550120671590169,0.46847394307454426]},{"name":"chair","coordinates":[0.8692754109700521,0.74154052734375,0.248291990492079,0.4176287333170573]},{"name":"pottedplant","coordinates":[0.14050236807929145,0.22970754305521648,0.2707556406656901,0.3216821034749349]},{"name":"vase","coordinates":[0.1406230820549859,0.3333614349365234,0.08333707385592991,0.1890547752380371]},{"name":"vase","coordinates":[0.766764407687717,0.4615636825561523,0.05172059800889757,0.134038511912028]}]}
