{"src":"https://a0.muscache.com/im/pictures/4785dac1-6041-4b2e-8239-743ad7531e72.jpg?aki_policy=xx_large","name":"CCH (homestay)","listingId":18357225,"photoId":"716-16","tags":[{"name":"sofa","coordinates":[0.5863885190751817,0.5886006514231363,0.1576769616868761,0.15009247461954753]},{"name":"pottedplant","coordinates":[0.2423580116695828,0.5373128652572632,0.06770817438761394,0.22854822476704914]},{"name":"tvmonitor","coordinates":[0.17822681532965765,0.7739377975463867,0.09085556666056314,0.16238606770833333]},{"name":"sofa","coordinates":[0.39958633846706815,0.5983937501907348,0.10240482754177517,0.14099911053975422]},{"name":"chair","coordinates":[0.39958633846706815,0.5983937501907348,0.10240482754177517,0.14099911053975422]},{"name":"sofa","coordinates":[0.46270358297559944,0.5796409765879312,0.08933545218573677,0.13857571283976236]},{"name":"chair","coordinates":[0.46270358297559944,0.5796409765879312,0.08933545218573677,0.13857571283976236]},{"name":"vase","coordinates":[0.559893888897366,0.5530439893404643,0.023272779252794053,0.047650933265686035]}]}
