{"src":"https://a0.muscache.com/im/pictures/27904271/5d1e8929_original.jpg?aki_policy=xx_large","name":"Cozy B&amp;B only 100m from the Beach","listingId":2035974,"photoId":"717-12","tags":[{"name":"sofa","coordinates":[0.5198678346933675,0.7553452173868815,0.35435753240041507,0.2077203432718913]},{"name":"bench","coordinates":[0.2588504159898188,0.677976417541504,0.1404666184384236,0.12220482031504314]},{"name":"vase","coordinates":[0.436668852274209,0.8391509373982747,0.06995686304254227,0.16969094276428223]},{"name":"chair","coordinates":[0.04745318926093641,0.6776697794596355,0.08062274068055134,0.1154271682103475]},{"name":"pottedplant","coordinates":[0.4682748765375087,0.6326250076293946,0.0838661512181225,0.0801674763361613]},{"name":"chair","coordinates":[0.12086718138799547,0.6686368942260742,0.049864926822328105,0.1051936149597168]},{"name":"pottedplant","coordinates":[0.3538429355753977,0.6301868438720704,0.06713762137422309,0.07715233961741129]}]}
