{"src":"https://a0.muscache.com/im/pictures/b4ed5330-e12f-4d64-8e9c-cd26944274ba.jpg?aki_policy=xx_large","name":"豌豆尖 | 花果园北欧风小清新智能公寓30","listingId":18372063,"photoId":"718-4","tags":[{"name":"bed","coordinates":[0.04031694200303826,0.5463777383168539,0.9336842007107204,0.4455979983011881]},{"name":"pottedplant","coordinates":[0.01717493798997667,0.17077196439107262,0.13949896494547526,0.5072971661885579]},{"name":"chair","coordinates":[0.35329966545104985,0.5149789810180664,0.13090312745836047,0.22769152323404948]},{"name":"chair","coordinates":[0.22409452332390678,0.5242780049641927,0.10543224546644422,0.2803429921468099]},{"name":"chair","coordinates":[0.12284249199761284,0.49957365989685054,0.10554370880126954,0.2738593737284342]},{"name":"teddy-bear","coordinates":[0.6998930984073216,0.6996095498402913,0.11549564997355143,0.10464239120483398]}]}
