{"src":"https://a0.muscache.com/im/pictures/27904345/128df332_original.jpg?aki_policy=xx_large","name":"Beautiful Room near Beach &amp; Kurhaus","listingId":2035975,"photoId":"718-14","tags":[{"name":"diningtable","coordinates":[0.44379638332319193,0.594708251953125,0.7637238270384215,0.7669834136962891]},{"name":"chair","coordinates":[0.11344560562155011,0.7108769734700521,0.2174035338931024,0.5834375381469726]},{"name":"chair","coordinates":[0.6807418207797288,0.32065725326538086,0.18432733909808544,0.24242219924926758]},{"name":"bottle","coordinates":[0.7916452463545288,0.49513270060221354,0.12177966334060436,0.29059562683105467]},{"name":"vase","coordinates":[0.6293062042957884,0.7336090087890625,0.10492637326554893,0.30852959950764974]},{"name":"bowl","coordinates":[0.09310896108147167,0.414659055074056,0.19028026172282467,0.12478946050008138]},{"name":"chair","coordinates":[0.4555028668696758,0.21523571014404297,0.12517460596246413,0.17705653508504232]},{"name":"toaster","coordinates":[0.19648961264831796,0.15902560551961262,0.12353108158031989,0.15565048853556315]},{"name":"fork","coordinates":[0.37104285907347445,0.7343685785929362,0.12421259130655642,0.12537494500478108]},{"name":"knife","coordinates":[0.23163291708318845,0.5834904352823893,0.16612432530261215,0.09192704359690348]},{"name":"bowl","coordinates":[0.35589676009431503,0.41110013326009115,0.12015934547562261,0.10354560216267904]},{"name":"banana","coordinates":[0.14849715571078537,0.3585726102193197,0.09107801413502913,0.07530585130055746]},{"name":"bowl","coordinates":[0.41611817085361613,0.3073327382405599,0.07492469713319823,0.07209628423055013]},{"name":"cup","coordinates":[0.316791433618198,0.4870681444803874,0.04583049981086742,0.1040534257888794]},{"name":"apple","coordinates":[0.040732737874122585,0.3346331278483073,0.056249430182911925,0.0715612014134725]},{"name":"cup","coordinates":[0.6136709751771123,0.3896077473958333,0.043655138188177754,0.07956914901733399]},{"name":"orange","coordinates":[0.09345265522454146,0.3407089869181315,0.054942776994347076,0.06025508244832357]},{"name":"orange","coordinates":[0.04847906693629661,0.37911961873372396,0.039904839803512636,0.03907573620478312]}]}
