{"src":"https://a0.muscache.com/im/pictures/11f18ccb-24e3-4a61-ab4b-59e4eb274c81.jpg?aki_policy=xx_large","name":"Luxery Familie House near Beach and city","listingId":11687768,"photoId":"72-9","tags":[{"name":"diningtable","coordinates":[0.49920823956795085,0.892152468363444,0.9958215306582262,0.19222232500712078]},{"name":"refrigerator","coordinates":[0.28300712537732364,0.6470383326212565,0.1500290797103023,0.3755747477213542]},{"name":"chair","coordinates":[0.7996939844021456,0.7821984608968099,0.23543302046913003,0.1138885498046875]},{"name":"chair","coordinates":[0.4279655790560936,0.7823158264160156,0.21951851702299774,0.11085250377655029]},{"name":"car","coordinates":[0.9302271882057853,0.6001820882161458,0.13017404435656815,0.17414135932922364]},{"name":"bowl","coordinates":[0.22131273430034965,0.9556283315022787,0.11304556055976915,0.0789939800898234]},{"name":"oven","coordinates":[0.6244051299052076,0.6058733622233073,0.1763627063573608,0.03131495118141174]}]}
