{"src":"https://a0.muscache.com/im/pictures/15cabe5c-64fc-4036-add2-c41b491459c8.jpg?aki_policy=xx_large","name":"Agadir  villa dans un petit village proche Agadir","listingId":18399245,"photoId":"720-6","tags":[{"name":"pottedplant","coordinates":[0.24075043201446533,0.471451473236084,0.12644625902175904,0.31318737665812174]},{"name":"chair","coordinates":[0.32459325790405275,0.6999212900797526,0.08764652609825134,0.21679115295410156]},{"name":"chair","coordinates":[0.2370304822921753,0.6432078043619792,0.07779039740562439,0.17333265940348308]},{"name":"diningtable","coordinates":[0.3233985424041748,0.5955281575520833,0.16454027891159057,0.07597615718841552]},{"name":"vase","coordinates":[0.0953188955783844,0.605363400777181,0.059352540969848634,0.19203457832336426]},{"name":"chair","coordinates":[0.400829553604126,0.6387048085530599,0.062003546953201295,0.17783541679382325]},{"name":"pottedplant","coordinates":[0.31935577392578124,0.48529844284057616,0.03178800642490387,0.06662610769271851]}]}
