{"src":"https://a0.muscache.com/im/pictures/15cabe5c-64fc-4036-add2-c41b491459c8.jpg?aki_policy=xx_large","name":"Agadir  villa dans un petit village proche Agadir","listingId":18399245,"photoId":"720-9","tags":[{"name":"pottedplant","coordinates":[0.4280007680257161,0.471451473236084,0.22479334937201606,0.31318737665812174]},{"name":"chair","coordinates":[0.577054680718316,0.6999212900797526,0.15581604639689128,0.21679115295410156]},{"name":"chair","coordinates":[0.4213875240749783,0.6432078043619792,0.13829403983222113,0.17333265940348308]},{"name":"diningtable","coordinates":[0.5749307420518663,0.5955281575520833,0.29251605139838327,0.07597615718841552]},{"name":"vase","coordinates":[0.16945581436157225,0.605363400777181,0.10551562839084201,0.19203457832336426]},{"name":"chair","coordinates":[0.7125858730740018,0.6387048085530599,0.1102285279168023,0.17783541679382325]},{"name":"pottedplant","coordinates":[0.5677435980902777,0.48529844284057616,0.056512011422051325,0.06662610769271851]}]}
