{"src":"https://a0.muscache.com/im/pictures/551de361-ed42-4b7b-8b14-8145601a362b.jpg?aki_policy=xx_large","name":"Agadir  villa dans un petit village proche Agadir","listingId":18399245,"photoId":"720-20","tags":[{"name":"diningtable","coordinates":[0.543297981982899,0.8937419255574545,0.8971816072246539,0.20639360745747884]},{"name":"pottedplant","coordinates":[0.12480354930368232,0.48382918039957684,0.24371126653317132,0.4011345545450846]},{"name":"bottle","coordinates":[0.8610865689255904,0.793074099222819,0.04840268374265987,0.22000830968221027]},{"name":"wine-glass","coordinates":[0.24403281941864313,0.8370491027832031,0.05176576496335505,0.12795267899831136]},{"name":"wine-glass","coordinates":[0.6853642665602097,0.7989894866943359,0.04994929186295997,0.12425206502278646]}]}
