{"src":"https://a0.muscache.com/im/pictures/15cabe5c-64fc-4036-add2-c41b491459c8.jpg?aki_policy=xx_large","name":"Agadir  villa dans un petit village proche Agadir","listingId":18399245,"photoId":"720-9","tags":[{"name":"pottedplant","coordinates":[0.31560409333970807,0.3148577849070231,0.22479334937201606,0.31318737665812174]},{"name":"chair","coordinates":[0.49914665751987036,0.5915257136027018,0.15581604639689128,0.21679115295410156]},{"name":"chair","coordinates":[0.35224050415886776,0.5565414746602377,0.13829403983222113,0.17333265940348308]},{"name":"diningtable","coordinates":[0.4286727163526747,0.5575400789578756,0.29251605139838327,0.07597615718841552]},{"name":"vase","coordinates":[0.11669800016615126,0.5093461116154988,0.10551562839084201,0.19203457832336426]},{"name":"chair","coordinates":[0.6574716091156007,0.5497871001561483,0.1102285279168023,0.17783541679382325]},{"name":"pottedplant","coordinates":[0.539487592379252,0.4519853889942169,0.056512011422051325,0.06662610769271851]}]}
