{"src":"https://a0.muscache.com/im/pictures/1a28de40-d923-4b76-9ba9-569f4efcd0f1.jpg?aki_policy=xx_large","name":"Furnished Flat in city center Nature View Ankara","listingId":18404276,"photoId":"722-1","tags":[{"name":"sofa","coordinates":[0.24871554374694824,0.783440907796224,0.5116641998291016,0.4170018196105957]},{"name":"chair","coordinates":[0.5097967147827148,0.6048472086588542,0.2315908432006836,0.39524526596069337]},{"name":"diningtable","coordinates":[0.2581266164779663,0.5715792338053386,0.26129581928253176,0.28507165908813475]},{"name":"chair","coordinates":[0.6558462142944336,0.5331408818562825,0.21574797630310058,0.2708569526672363]},{"name":"chair","coordinates":[0.3275544881820679,0.5744784673055013,0.12053971290588379,0.32349932988484703]},{"name":"chair","coordinates":[0.10461990833282471,0.4893597284952799,0.13975112438201903,0.20160638491312663]},{"name":"pottedplant","coordinates":[0.2168067216873169,0.41269137064615885,0.09322755932807922,0.08989269733428955]},{"name":"remote","coordinates":[0.9543742179870606,0.7532038370768229,0.07224009037017823,0.03636743227640788]}]}
