{"src":"https://a0.muscache.com/im/pictures/1a28de40-d923-4b76-9ba9-569f4efcd0f1.jpg?aki_policy=xx_large","name":"Furnished Flat in city center Nature View Ankara","listingId":18404276,"photoId":"722-1","tags":[{"name":"sofa","coordinates":[-0.007116556167602567,0.5749399979909262,0.5116641998291016,0.4170018196105957]},{"name":"chair","coordinates":[0.39400129318237304,0.40722457567850756,0.2315908432006836,0.39524526596069337]},{"name":"diningtable","coordinates":[0.12747870683670043,0.4290434042612712,0.26129581928253176,0.28507165908813475]},{"name":"chair","coordinates":[0.5479722261428833,0.39771240552266435,0.21574797630310058,0.2708569526672363]},{"name":"chair","coordinates":[0.267284631729126,0.41272880236307785,0.12053971290588379,0.32349932988484703]},{"name":"chair","coordinates":[0.034744346141815194,0.3885565360387166,0.13975112438201903,0.20160638491312663]},{"name":"pottedplant","coordinates":[0.17019294202327728,0.3677450219790141,0.09322755932807922,0.08989269733428955]},{"name":"remote","coordinates":[0.9182541728019714,0.735020120938619,0.07224009037017823,0.03636743227640788]}]}
