{"src":"https://a0.muscache.com/im/pictures/41a5e6ff-8cab-4796-aef4-75e48e06198b.jpg?aki_policy=xx_large","name":"Modern 3 room apartment in Hague city center","listingId":20436078,"photoId":"723-1","tags":[{"name":"sofa","coordinates":[0.6321367263793946,0.801133410135905,0.770648717880249,0.3564255396525065]},{"name":"oven","coordinates":[0.5180106639862061,0.5679400761922201,0.1233056664466858,0.1325840950012207]},{"name":"tvmonitor","coordinates":[0.5254051685333252,0.4406999270121256,0.11907888650894165,0.11655650933583578]},{"name":"chair","coordinates":[0.8224081039428711,0.608745829264323,0.12238559722900391,0.07164743741353354]},{"name":"chair","coordinates":[0.9575647354125977,0.6124851862589519,0.08574933409690857,0.08055238723754883]},{"name":"chair","coordinates":[0.7360229969024659,0.6065880457560221,0.06537321209907532,0.052860808372497556]},{"name":"bottle","coordinates":[0.6270882606506347,0.480268923441569,0.014287012815475463,0.053075873851776124]},{"name":"bottle","coordinates":[0.43311076164245604,0.4905758221944173,0.012291279435157777,0.03879810571670532]}]}
