{"src":"https://a0.muscache.com/im/pictures/6266b6dd-2713-4468-9948-3a93dc1736ea.jpg?aki_policy=xx_large","name":"Comfy Room &amp; En-suite Bathroom - Malabar Hill","listingId":18409554,"photoId":"723-0","tags":[{"name":"diningtable","coordinates":[0.3084696451822917,0.559360122680664,0.5299172295464409,0.4297131856282552]},{"name":"chair","coordinates":[0.33477490743001304,0.6441935698191326,0.13226937188042534,0.37348368962605794]},{"name":"tvmonitor","coordinates":[0.0002008967929416211,0.4588736216227214,0.22095396253797744,0.2211925506591797]},{"name":"chair","coordinates":[0.4469458950890435,0.7138892650604248,0.16690151426527236,0.28895603815714516]},{"name":"chair","coordinates":[0.7780487325456407,0.7189037164052328,0.12311446931627061,0.27347097396850584]},{"name":"pottedplant","coordinates":[0.518094097243415,0.4808507919311524,0.08398002518547906,0.19730428059895833]},{"name":"chair","coordinates":[0.6128230412801107,0.6208330631256104,0.09179751078287761,0.03243996302286784]},{"name":"vase","coordinates":[0.5438054045041403,0.5882100939750671,0.031576100985209146,0.09270123640696208]}]}
