{"src":"https://a0.muscache.com/im/pictures/86bd8088-c105-4784-a1a0-71409d0dd621.jpg?aki_policy=xx_large","name":"Comfy Room &amp; En-suite Bathroom - Malabar Hill","listingId":18409554,"photoId":"723-1","tags":[{"name":"chair","coordinates":[0.09609408908420139,0.8378915150960287,0.18160567813449435,0.3279313087463379]},{"name":"chair","coordinates":[0.31997979482014977,0.8100480397542318,0.14720119900173612,0.3563295046488444]},{"name":"sofa","coordinates":[0.40772649976942277,0.6043060302734375,0.1381866349114312,0.11522123813629151]},{"name":"pottedplant","coordinates":[0.2972839567396376,0.55098082224528,0.07969489627414279,0.16275177001953126]},{"name":"chair","coordinates":[0.39380387200249567,0.7193870544433594,0.055764495001898874,0.20345535278320312]},{"name":"chair","coordinates":[0.6034356858995226,0.6001045862833659,0.08639434178670248,0.09916657606760661]},{"name":"vase","coordinates":[0.2955068588256836,0.6007167180379231,0.02623959912194146,0.06027747392654419]}]}
