{"src":"https://a0.muscache.com/im/pictures/6266b6dd-2713-4468-9948-3a93dc1736ea.jpg?aki_policy=xx_large","name":"Comfy Room &amp; En-suite Bathroom - Malabar Hill","listingId":18409554,"photoId":"723-0","tags":[{"name":"diningtable","coordinates":[0.5734282599555122,0.7742167154947917,0.5299172295464409,0.4297131856282552]},{"name":"chair","coordinates":[0.4009095933702257,0.8309354146321615,0.13226937188042534,0.37348368962605794]},{"name":"tvmonitor","coordinates":[0.11067787806193034,0.5694698969523112,0.22095396253797744,0.2211925506591797]},{"name":"chair","coordinates":[0.5303966522216796,0.8583672841389974,0.16690151426527236,0.28895603815714516]},{"name":"chair","coordinates":[0.839605967203776,0.8556392033894856,0.12311446931627061,0.27347097396850584]},{"name":"pottedplant","coordinates":[0.5600841098361545,0.5795029322306315,0.08398002518547906,0.19730428059895833]},{"name":"chair","coordinates":[0.6587217966715495,0.6370530446370443,0.09179751078287761,0.03243996302286784]},{"name":"vase","coordinates":[0.5595934549967448,0.6345607121785481,0.031576100985209146,0.09270123640696208]}]}
