{"src":"https://a0.muscache.com/im/pictures/86bd8088-c105-4784-a1a0-71409d0dd621.jpg?aki_policy=xx_large","name":"Comfy Room &amp; En-suite Bathroom - Malabar Hill","listingId":18409554,"photoId":"723-1","tags":[{"name":"chair","coordinates":[0.005291250016954213,0.6739258607228598,0.18160567813449435,0.3279313087463379]},{"name":"chair","coordinates":[0.2463791953192817,0.6318832874298096,0.14720119900173612,0.3563295046488444]},{"name":"sofa","coordinates":[0.33863318231370715,0.5466954112052917,0.1381866349114312,0.11522123813629151]},{"name":"pottedplant","coordinates":[0.25743650860256617,0.4696049372355144,0.07969489627414279,0.16275177001953126]},{"name":"chair","coordinates":[0.36592162450154625,0.6176593780517579,0.055764495001898874,0.20345535278320312]},{"name":"chair","coordinates":[0.5602385150061713,0.5505212982495626,0.08639434178670248,0.09916657606760661]},{"name":"vase","coordinates":[0.28238705926471286,0.5705779810746511,0.02623959912194146,0.06027747392654419]}]}
