{"src":"https://a0.muscache.com/im/pictures/a80f32d8-2913-42e6-aec3-fcc639fef6d1.jpg?aki_policy=xx_large","name":"Ground floor apartment (&gt;80m2) in The Hague","listingId":20467236,"photoId":"726-2","tags":[{"name":"diningtable","coordinates":[0.5323121070861816,0.6753392537434896,0.44440550804138185,0.4972617467244466]},{"name":"chair","coordinates":[0.5534028053283692,0.6936777114868165,0.21118857860565185,0.40162776311238607]},{"name":"chair","coordinates":[0.714787769317627,0.5694510142008463,0.14881635904312135,0.34534858067830404]},{"name":"chair","coordinates":[0.39408600330352783,0.5660818099975586,0.10838795900344848,0.3432858149210612]},{"name":"chair","coordinates":[0.6739016056060791,0.4578138669331869,0.05905214548110962,0.17531692186991374]},{"name":"chair","coordinates":[0.395871901512146,0.4399442990620931,0.04682357609272003,0.12425395647684732]},{"name":"pottedplant","coordinates":[0.2967186450958252,0.33112850189208987,0.07523637413978576,0.06803423563639323]},{"name":"vase","coordinates":[0.5684231758117676,0.407955265045166,0.03982287049293518,0.07812417348225911]}]}
