{"src":"https://a0.muscache.com/im/pictures/46ed48f2-5bf2-4509-9d3c-03a7bd287adf.jpg?aki_policy=xx_large","name":"恒大逸游度假屋—武广高铁旁二房一厅精装房7","listingId":18433257,"photoId":"726-4","tags":[{"name":"tvmonitor","coordinates":[0.1934586578644838,0.282025416692098,0.24497024080171778,0.3886076291402181]},{"name":"diningtable","coordinates":[0.6940065745763931,0.6680640697479248,0.28682156815306853,0.32812255223592124]},{"name":"diningtable","coordinates":[0.8688091466292646,0.5290494362513224,0.1251814618882742,0.21260247230529786]},{"name":"chair","coordinates":[0.9501176374169006,0.5256352345148723,0.04718541933315508,0.2612530549367269]},{"name":"book","coordinates":[0.2847867465996759,0.7078747709592184,0.1133457313733767,0.0760814110438029]}]}
