{"src":"https://a0.muscache.com/im/pictures/46ed48f2-5bf2-4509-9d3c-03a7bd287adf.jpg?aki_policy=xx_large","name":"恒大逸游度假屋—武广高铁旁二房一厅精装房7","listingId":18433257,"photoId":"726-4","tags":[{"name":"tvmonitor","coordinates":[0.3159437782653427,0.47632923126220705,0.24497024080171778,0.3886076291402181]},{"name":"diningtable","coordinates":[0.8374173586529274,0.8321253458658854,0.28682156815306853,0.32812255223592124]},{"name":"diningtable","coordinates":[0.9313998775734017,0.6353506724039714,0.1251814618882742,0.21260247230529786]},{"name":"chair","coordinates":[0.9737103470834781,0.6562617619832357,0.04718541933315508,0.2612530549367269]},{"name":"book","coordinates":[0.34145961228636423,0.7459154764811198,0.1133457313733767,0.0760814110438029]}]}
