{"src":"https://a0.muscache.com/im/pictures/51cf1cf2-dda1-45bd-9705-9099420718c4.jpg?aki_policy=xx_large","name":"恒大逸游度假屋—武广高铁旁二房一厅精装房7","listingId":18433257,"photoId":"726-5","tags":[{"name":"diningtable","coordinates":[0.4047771822337561,0.8856682459513346,0.39743294361318626,0.23191016515096027]},{"name":"tvmonitor","coordinates":[0.6611089752812283,0.4991934140523275,0.21967029902900234,0.2593913396199544]},{"name":"sofa","coordinates":[0.041817869884923066,0.8213921229044596,0.07701562559380971,0.3145397822062174]},{"name":"bowl","coordinates":[0.42748891951061935,0.8793987274169922,0.13517339201417541,0.1566031297047933]},{"name":"chair","coordinates":[0.5572826181375955,0.8964115778605143,0.0676381506797255,0.167807674407959]}]}
