{"src":"https://a0.muscache.com/im/pictures/c61132f1-1003-4af2-9368-d12e9f1b4267.jpg?aki_policy=xx_large","name":"A beautiful seaside apartment","listingId":18459437,"photoId":"731-11","tags":[{"name":"tvmonitor","coordinates":[0.2330196804470486,0.2840717633565267,0.21404637230767143,0.26643670399983727]},{"name":"chair","coordinates":[0.8655709160698785,0.843884023030599,0.04927724732293023,0.3070385932922363]},{"name":"pottedplant","coordinates":[0.31901866065131296,0.3943000793457031,0.05665222273932563,0.05078120628992717]},{"name":"wine-glass","coordinates":[0.7269998338487413,0.4025198618570964,0.017039675182766386,0.051501548290252684]},{"name":"wine-glass","coordinates":[0.6925344679090711,0.3886317253112793,0.016942340797848173,0.045964964230855304]},{"name":"wine-glass","coordinates":[0.7086310916476779,0.38954731623331706,0.0175228926870558,0.04408608277638753]},{"name":"wine-glass","coordinates":[0.6574637095133463,0.39062204360961916,0.021010718080732557,0.035187721252441406]},{"name":"wine-glass","coordinates":[0.6437479231092665,0.38850800196329754,0.01999761528438992,0.03540622393290202]}]}
