{"src":"https://a0.muscache.com/im/pictures/ec2583ce-8abe-454e-b9ce-c8759adb61a0.jpg?aki_policy=xx_large","name":"Modern&amp;cozy apt in Poznan","listingId":18468830,"photoId":"732-3","tags":[{"name":"diningtable","coordinates":[0.26413602828979493,0.7328683853149414,0.5881111145019531,0.4691288630167643]},{"name":"chair","coordinates":[0.4065268516540527,0.7642377217610677,0.2422398090362549,0.4557028770446777]},{"name":"chair","coordinates":[0.14724040031433105,0.7779820760091146,0.21139445304870605,0.45221172968546547]},{"name":"tvmonitor","coordinates":[0.852731990814209,0.3797114054361979,0.23366260528564453,0.21793567339579265]},{"name":"cup","coordinates":[0.23821396827697755,0.5202533721923828,0.06290989518165588,0.053684719403584796]},{"name":"bowl","coordinates":[0.39369773864746094,0.5341255823771159,0.045775178074836734,0.027900896469751992]}]}
