{"src":"https://a0.muscache.com/im/pictures/a4e47953-f261-47c3-a78d-9237aa068fc1.jpg?aki_policy=xx_large","name":"Modern&amp;cozy apt in Poznan","listingId":18468830,"photoId":"732-5","tags":[{"name":"sofa","coordinates":[0.5462511539459228,0.5289793968200683,0.4198433876037598,0.2901127497355143]},{"name":"bench","coordinates":[0.20509696006774902,0.5579639434814453,0.2915501594543457,0.2882920583089193]},{"name":"sofa","coordinates":[0.20509696006774902,0.5579639434814453,0.2915501594543457,0.2882920583089193]},{"name":"pottedplant","coordinates":[0.09335548281669617,0.3545365174611409,0.1445125460624695,0.43887948989868164]},{"name":"vase","coordinates":[0.48496433645486825,0.4383131821950277,0.049530002474784854,0.20812184015909832]},{"name":"pottedplant","coordinates":[0.34581027179956436,0.633929701646169,0.04337906539440155,0.0826072613398234]},{"name":"vase","coordinates":[0.004269455373287202,0.56243390639623,0.016388851404190063,0.045309774080912274]}]}
