{"src":"https://a0.muscache.com/im/pictures/2021e0e2-ba74-4fff-aa66-cecd0c93b009.jpg?aki_policy=xx_large","name":"Convenient to BWI, trains, Baltimore and Ft. Meade","listingId":18475035,"photoId":"733-5","tags":[{"name":"sofa","coordinates":[0.006841182708740234,0.544846518834432,0.2783217748006185,0.4360036532084147]},{"name":"chair","coordinates":[0.502599302927653,0.4048846244812012,0.21199126773410373,0.22325159708658854]},{"name":"pottedplant","coordinates":[0.14444005754258898,0.5009886542956035,0.06628850301106771,0.09272267818450927]},{"name":"vase","coordinates":[0.7140958931710985,0.38891453941663107,0.02275663216908773,0.05847685734430949]},{"name":"vase","coordinates":[0.1626666307449341,0.55581307609876,0.029059680302937825,0.04452097813288371]},{"name":"cup","coordinates":[0.11655642721388076,0.5712110996246338,0.02583150863647461,0.04062236150105794]}]}
