{"src":"https://a0.muscache.com/im/pictures/2021e0e2-ba74-4fff-aa66-cecd0c93b009.jpg?aki_policy=xx_large","name":"Convenient to BWI, trains, Baltimore and Ft. Meade","listingId":18475035,"photoId":"733-5","tags":[{"name":"sofa","coordinates":[0.14600207010904948,0.7628483454386393,0.2783217748006185,0.4360036532084147]},{"name":"chair","coordinates":[0.6085949367947049,0.5165104230244955,0.21199126773410373,0.22325159708658854]},{"name":"pottedplant","coordinates":[0.17758430904812283,0.5473499933878581,0.06628850301106771,0.09272267818450927]},{"name":"vase","coordinates":[0.7254742092556423,0.4181529680887858,0.02275663216908773,0.05847685734430949]},{"name":"vase","coordinates":[0.177196470896403,0.5780735651652018,0.029059680302937825,0.04452097813288371]},{"name":"cup","coordinates":[0.12947218153211806,0.5915222803751627,0.02583150863647461,0.04062236150105794]}]}
