{"src":"https://a0.muscache.com/im/pictures/d15782a8-75d8-4ac1-bdba-8e375071ca6c.jpg?aki_policy=xx_large","name":"Однокомнатная на Гнаровской","listingId":18494830,"photoId":"736-2","tags":[{"name":"oven","coordinates":[0.44928032557169595,0.49952017466227217,0.142434204949273,0.38883577982584633]},{"name":"chair","coordinates":[0.22546690305074057,0.6567911148071288,0.11657722261216906,0.24108187357584634]},{"name":"sink","coordinates":[0.8139329804314507,0.5884485562642415,0.1838266796535916,0.1434110641479492]},{"name":"chair","coordinates":[0.125069268544515,0.680329934755961,0.08777518802218967,0.24672106107076008]},{"name":"microwave","coordinates":[0.3987372345394558,0.39987617333730063,0.1395013067457411,0.10479731559753418]}]}
