{"src":"https://a0.muscache.com/im/pictures/d15782a8-75d8-4ac1-bdba-8e375071ca6c.jpg?aki_policy=xx_large","name":"Однокомнатная на Гнаровской","listingId":18494830,"photoId":"736-2","tags":[{"name":"oven","coordinates":[0.5204974280463325,0.6939380645751954,0.142434204949273,0.38883577982584633]},{"name":"chair","coordinates":[0.2837555143568251,0.777332051595052,0.11657722261216906,0.24108187357584634]},{"name":"sink","coordinates":[0.9058463202582465,0.6601540883382161,0.1838266796535916,0.1434110641479492]},{"name":"chair","coordinates":[0.16895686255560982,0.8036904652913411,0.08777518802218967,0.24672106107076008]},{"name":"microwave","coordinates":[0.4684878879123264,0.4522748311360677,0.1395013067457411,0.10479731559753418]}]}
