{"src":"https://a0.muscache.com/im/pictures/f1d6fd4e-3116-4976-9ec5-1db185b1e1f5.jpg?aki_policy=xx_large","name":"Beach cottage The Hague","listingId":20686584,"photoId":"740-0","tags":[{"name":"sofa","coordinates":[0.7301432609558105,0.5997045516967774,0.5352725505828857,0.6408908208211263]},{"name":"diningtable","coordinates":[0.4475034236907959,0.7758508046468099,0.6793417453765869,0.44333600997924805]},{"name":"vase","coordinates":[0.35124013423919676,0.20433746973673503,0.0530448317527771,0.12718626658121746]},{"name":"pottedplant","coordinates":[0.04671820402145386,0.22529149055480957,0.06193755269050598,0.07095522085825602]},{"name":"pottedplant","coordinates":[0.09089338779449463,0.22325722376505533,0.04749947190284729,0.06667742729187012]},{"name":"cup","coordinates":[0.38987658023834226,0.6231059392293294,0.042421397566795346,0.06640718777974447]},{"name":"pottedplant","coordinates":[0.5272510051727295,0.2526684761047363,0.03896306157112121,0.06400694847106933]},{"name":"cup","coordinates":[0.43348164558410646,0.6072685877482097,0.0306891530752182,0.047430531183878584]}]}
