{"src":"https://a0.muscache.com/im/pictures/fd84b102-a4b7-4b56-a15f-b0eb472bdf24.jpg?aki_policy=xx_large","name":"Royal Suite midden in het centrum van Den Haag","listingId":20723431,"photoId":"741-1","tags":[{"name":"sofa","coordinates":[0.46362351311577693,0.6345682144165039,0.3227935791015625,0.19163932800292968]},{"name":"pottedplant","coordinates":[1.044039832221137,0.6163208643595378,0.24933946397569445,0.2049768288930257]},{"name":"refrigerator","coordinates":[1.358932579888238,0.685112190246582,0.2705458535088433,0.15325533548990886]},{"name":"tvmonitor","coordinates":[0.8323581271701389,0.5848402659098307,0.14131365882025826,0.06766217549641927]},{"name":"chair","coordinates":[0.7689510769314236,0.690916379292806,0.08161798583136665,0.10224996407826742]},{"name":"vase","coordinates":[1.0643179999457466,0.6851368586222331,0.06295139524671767,0.09111608664194742]}]}
