{"src":"https://a0.muscache.com/im/pictures/4ac4e1f9-617a-46e7-a5cb-d9fbc180f069.jpg?aki_policy=xx_large","name":"Perfect new studio The Hague for smart traveller","listingId":20734027,"photoId":"742-10","tags":[{"name":"sink","coordinates":[0.3721809811062283,0.7398030598958333,0.2272547827826606,0.156672207514445]},{"name":"chair","coordinates":[0.7735020107693142,0.6348462422688802,0.07695036994086371,0.3261429786682129]},{"name":"tvmonitor","coordinates":[0.8614228142632379,0.40289942423502606,0.15105074776543512,0.16556377410888673]},{"name":"bowl","coordinates":[0.16708842383490669,0.17033740679423015,0.10538749694824219,0.08323148091634115]},{"name":"cup","coordinates":[0.33533234066433376,0.19773271878560383,0.04837716420491536,0.10311846733093262]},{"name":"cup","coordinates":[0.2770525190565321,0.19874938329060873,0.060973336961534286,0.0776249647140503]},{"name":"bottle","coordinates":[0.25298633575439455,0.6627078374226888,0.03220540682474772,0.12234403292338053]},{"name":"cup","coordinates":[0.3749367184109158,0.1980877717336019,0.03461847040388319,0.09761278629302979]},{"name":"cup","coordinates":[0.39110645718044706,0.20077540079752604,0.035081375969780816,0.09315456549326578]},{"name":"cup","coordinates":[0.4178437974717882,0.20358289082845052,0.03537611696455214,0.08610135714213053]}]}
