{"src":"https://a0.muscache.com/im/pictures/f5d981fd-18d7-4f66-9eea-39dd04af0eea.jpg?aki_policy=xx_large","name":"B&amp;B De Loods - ideal for Motorbikers and cyclists","listingId":18534268,"photoId":"742-13","tags":[{"name":"pottedplant","coordinates":[0.8177593814002143,0.3278354962666829,0.16918535232543946,0.40246334075927737]},{"name":"sofa","coordinates":[0.44893087810940213,0.5664358695348104,0.2511962678697374,0.2343460241953532]},{"name":"chair","coordinates":[0.6090506765577528,0.6352691491444906,0.22247193654378256,0.24403918584187825]},{"name":"chair","coordinates":[0.336809327867296,0.581839124361674,0.061418236626519095,0.21126681963602703]},{"name":"pottedplant","coordinates":[0.6374487823910184,0.3968121290206909,0.09190134472317166,0.11949022610982259]},{"name":"vase","coordinates":[0.9390549845165677,0.6135722080866496,0.057247357898288304,0.17765777905782063]}]}
