{"src":"https://a0.muscache.com/im/pictures/6c19fae5-2e19-4470-9d3c-94f826f4a6e0.jpg?aki_policy=xx_large","name":"GGLodge The best location for stop-over passengers","listingId":18553642,"photoId":"743-0","tags":[{"name":"diningtable","coordinates":[0.4976942698160807,0.727346928914388,0.9484503004286025,0.5759624481201172]},{"name":"fork","coordinates":[0.825300767686632,0.8501847585042318,0.14492833879258898,0.2780160903930664]},{"name":"cake","coordinates":[0.14364646275838217,0.6492514928181966,0.20255758497450088,0.18424092928568522]},{"name":"bowl","coordinates":[0.388820309109158,0.57161865234375,0.1825522952609592,0.14445819854736328]},{"name":"cup","coordinates":[0.7940597534179688,0.5994839986165365,0.12257310019599067,0.14610462188720702]},{"name":"cup","coordinates":[0.5554730733235677,0.524977429707845,0.11666882832845052,0.13311776320139568]}]}
