{"src":"https://a0.muscache.com/im/pictures/6c19fae5-2e19-4470-9d3c-94f826f4a6e0.jpg?aki_policy=xx_large","name":"GGLodge The best location for stop-over passengers","listingId":18553642,"photoId":"743-2","tags":[{"name":"diningtable","coordinates":[0.023469119601779498,0.4393657048543294,0.9484503004286025,0.5759624481201172]},{"name":"fork","coordinates":[0.7528365982903374,0.7111767133076986,0.14492833879258898,0.2780160903930664]},{"name":"cake","coordinates":[0.042367670271131724,0.557131028175354,0.20255758497450088,0.18424092928568522]},{"name":"bowl","coordinates":[0.2975441614786784,0.4993895530700683,0.1825522952609592,0.14445819854736328]},{"name":"cup","coordinates":[0.7327732033199734,0.5264316876729329,0.12257310019599067,0.14610462188720702]},{"name":"cup","coordinates":[0.4971386591593424,0.45841854810714716,0.11666882832845052,0.13311776320139568]}]}
