{"src":"https://a0.muscache.com/im/pictures/b1511495-4848-4bfe-8113-465d33a826f1.jpg?aki_policy=xx_large","name":"СТУДИЯ ДЛЯ КОМФОРТНОГО ПРОЖИВАНЯ","listingId":18572439,"photoId":"745-0","tags":[{"name":"oven","coordinates":[0.6773583650588989,0.5362079779307047,0.16489462852478026,0.379308541615804]},{"name":"chair","coordinates":[0.32181150317192075,0.6641691048940023,0.1599143624305725,0.3453586896260579]},{"name":"chair","coordinates":[0.43127048611640934,0.6250602722167968,0.11605981588363648,0.3369004567464193]},{"name":"microwave","coordinates":[0.2850851535797119,0.3555879592895508,0.136252498626709,0.10721785227457682]},{"name":"pottedplant","coordinates":[0.7969987511634826,-0.002928578853607179,0.12388198375701905,0.10430352687835694]},{"name":"pottedplant","coordinates":[0.17884426414966584,0.5115556478500366,0.059187310934066775,0.1980467955271403]},{"name":"sink","coordinates":[-0.0018220484256744399,0.4241373399893443,0.1053114652633667,0.061901533603668214]},{"name":"bowl","coordinates":[0.23975020945072173,0.6339169343312582,0.06328184008598328,0.05210568110148112]},{"name":"sink","coordinates":[0.4796011209487915,0.5411637177069981,0.10167832374572754,0.027871920665105184]},{"name":"vase","coordinates":[0.18225990682840346,0.6313019911448161,0.03670227229595184,0.07361923853556315]},{"name":"bottle","coordinates":[0.5487473405897617,0.4745749433835347,0.01556054800748825,0.0700260877609253]}]}
