{"src":"https://a0.muscache.com/im/pictures/4e8a4a53-4b21-42f7-9e95-01c4eb38e51b.jpg?aki_policy=xx_large","name":"Scheveningen ApARTment at the Beach","listingId":20768940,"photoId":"745-2","tags":[{"name":"diningtable","coordinates":[0.47202948111074944,0.7229846318562826,0.7357183950918692,0.42126404444376625]},{"name":"chair","coordinates":[0.21155473214608653,0.7843561808268229,0.3517904493543837,0.4027791659037272]},{"name":"chair","coordinates":[0.7740524857132524,0.6525885899861653,0.3953080636483652,0.26225668589274087]},{"name":"vase","coordinates":[0.6170969080041956,0.49531253178914386,0.0728025789614077,0.0717375914255778]},{"name":"wine-glass","coordinates":[0.3852222866482205,0.5175211588541667,0.057789622412787546,0.08414258956909179]},{"name":"bottle","coordinates":[0.47084517302336515,0.4972910245259603,0.047414832644992404,0.10102890332539877]}]}
