{"src":"https://a0.muscache.com/im/pictures/b1511495-4848-4bfe-8113-465d33a826f1.jpg?aki_policy=xx_large","name":"СТУДИЯ ДЛЯ КОМФОРТНОГО ПРОЖИВАНЯ","listingId":18572439,"photoId":"745-0","tags":[{"name":"oven","coordinates":[0.7598056793212891,0.7258622487386067,0.16489462852478026,0.379308541615804]},{"name":"chair","coordinates":[0.40176868438720703,0.8368484497070312,0.1599143624305725,0.3453586896260579]},{"name":"chair","coordinates":[0.48930039405822756,0.7935105005900065,0.11605981588363648,0.3369004567464193]},{"name":"microwave","coordinates":[0.3532114028930664,0.4091968854268392,0.136252498626709,0.10721785227457682]},{"name":"pottedplant","coordinates":[0.8589397430419922,0.04922318458557129,0.12388198375701905,0.10430352687835694]},{"name":"pottedplant","coordinates":[0.20843791961669922,0.6105790456136068,0.059187310934066775,0.1980467955271403]},{"name":"sink","coordinates":[0.05083368420600891,0.4550881067911784,0.1053114652633667,0.061901533603668214]},{"name":"bowl","coordinates":[0.27139112949371336,0.6599697748819987,0.06328184008598328,0.05210568110148112]},{"name":"sink","coordinates":[0.5304402828216552,0.5550996780395507,0.10167832374572754,0.027871920665105184]},{"name":"vase","coordinates":[0.20061104297637938,0.6681116104125977,0.03670227229595184,0.07361923853556315]},{"name":"bottle","coordinates":[0.5565276145935059,0.5095879872639973,0.01556054800748825,0.0700260877609253]}]}
