{"src":"https://a0.muscache.com/im/pictures/582aa003-a4cd-4732-b0b6-356cc1757227.jpg?aki_policy=xx_large","name":"Modern two bedrooms appartments in Yaounde","listingId":18588716,"photoId":"746-2","tags":[{"name":"oven","coordinates":[0.748490571975708,0.6750051180521647,0.15428380966186522,0.3222853978474935]},{"name":"sink","coordinates":[0.2094740033149719,0.6870216409365336,0.22276475429534912,0.12276063760121664]},{"name":"bowl","coordinates":[0.8294584572315217,0.03892355759938559,0.09882196187973022,0.07166846593221028]},{"name":"wine-glass","coordinates":[0.6805165857076645,0.021483151117960612,0.038255101442337035,0.10821812947591146]},{"name":"wine-glass","coordinates":[0.6056801304221153,0.005454711119333905,0.03710794746875763,0.10674959023793539]},{"name":"wine-glass","coordinates":[0.6268791258335114,0.014665484428405762,0.036988246440887454,0.10521423021952311]},{"name":"wine-glass","coordinates":[0.6654073119163514,0.021673504511515305,0.033228707313537595,0.10407204627990722]},{"name":"wine-glass","coordinates":[0.6488277181982994,0.01770329872767131,0.031161072850227355,0.10434300899505615]}]}
