{"src":"https://a0.muscache.com/im/pictures/319f1246-db2d-4015-96e8-79efd922ef91.jpg?aki_policy=xx_large","name":"Nice house near the beach of Scheveningen.","listingId":20828489,"photoId":"748-3","tags":[{"name":"sofa","coordinates":[0.16685836315155028,0.7762961069742839,0.26794962882995604,0.36695849100748695]},{"name":"pottedplant","coordinates":[0.5659334659576416,0.5355677286783854,0.13839519023895264,0.3711639086405436]},{"name":"chair","coordinates":[0.9461967468261718,0.7233707427978515,0.1017113208770752,0.3391500155131022]},{"name":"car","coordinates":[0.38079664707183836,0.5168032010396322,0.1141165852546692,0.05574058691660563]},{"name":"car","coordinates":[0.27562837600708007,0.506739616394043,0.056654727458953856,0.07552289168039958]}]}
