{"src":"https://a0.muscache.com/im/pictures/35dece70-f04e-4e9a-bdb2-8c28651ca3bf.jpg?aki_policy=xx_large","name":"Beachhouse  private bay  Isle de Los Kassa Guinee","listingId":18605596,"photoId":"748-0","tags":[{"name":"pottedplant","coordinates":[0.7201783921983507,0.4778204282124837,0.4991457197401259,0.6947349548339844]},{"name":"diningtable","coordinates":[0.47541927761501734,0.7241779327392578,0.5665254380967882,0.31814600626627604]},{"name":"chair","coordinates":[0.2800524181789822,0.7849900563557942,0.4015495300292969,0.4353909174601237]},{"name":"bowl","coordinates":[0.24879186418321397,0.5904733657836914,0.11346717410617405,0.05208663543065389]},{"name":"cup","coordinates":[0.5296751658121744,0.5852921803792318,0.07380489773220486,0.07689603964487711]},{"name":"cup","coordinates":[0.3171347088283963,0.5933318456013997,0.048577308654785156,0.04997923771540324]}]}
