{"src":"https://a0.muscache.com/im/pictures/35dece70-f04e-4e9a-bdb2-8c28651ca3bf.jpg?aki_policy=xx_large","name":"Beachhouse  private bay  Isle de Los Kassa Guinee","listingId":18605596,"photoId":"748-0","tags":[{"name":"pottedplant","coordinates":[0.40510034561157227,0.4778204282124837,0.2807694673538208,0.6947349548339844]},{"name":"diningtable","coordinates":[0.2674233436584473,0.7241779327392578,0.31867055892944335,0.31814600626627604]},{"name":"chair","coordinates":[0.1575294852256775,0.7849900563557942,0.22587161064147948,0.4353909174601237]},{"name":"bowl","coordinates":[0.13994542360305787,0.5904733657836914,0.0638252854347229,0.05208663543065389]},{"name":"cup","coordinates":[0.29794228076934814,0.5852921803792318,0.041515254974365236,0.07689603964487711]},{"name":"cup","coordinates":[0.1783882737159729,0.5933318456013997,0.02732473611831665,0.04997923771540324]}]}
