{"src":"https://a0.muscache.com/im/pictures/a66eb5e0-b5c0-478f-9920-68db65e80cb1.jpg?aki_policy=xx_large","name":"Nice house near the beach of Scheveningen.","listingId":20828489,"photoId":"748-0","tags":[{"name":"diningtable","coordinates":[0.2056335687637329,0.7670171737670899,0.40996479988098145,0.41729234059651693]},{"name":"pottedplant","coordinates":[0.43329639434814454,0.521881643931071,0.15836668014526367,0.43644075393676757]},{"name":"chair","coordinates":[0.13713762760162354,0.7997095108032226,0.16827311515808105,0.38839648564656576]},{"name":"chair","coordinates":[0.35969722270965576,0.7389769236246745,0.12666852474212648,0.3249478340148926]},{"name":"pottedplant","coordinates":[0.8999946594238282,0.5616464614868164,0.15955876111984252,0.18578534126281737]},{"name":"chair","coordinates":[0.33170251846313475,0.7788293202718098,0.08160206079483032,0.17554823557535806]},{"name":"pottedplant","coordinates":[0.5142021179199219,0.566760508219401,0.0699321985244751,0.147819185256958]},{"name":"vase","coordinates":[0.7201900005340576,0.4138980229695638,0.02416703999042511,0.06347519159317017]},{"name":"vase","coordinates":[0.5159268379211426,0.6050979614257812,0.028252610564231874,0.04841177860895793]}]}
