{"src":"https://a0.muscache.com/im/pictures/e436de90-87d7-4620-a045-20941eb6071f.jpg?aki_policy=xx_large","name":"GREAT LOCATED,CLEAN &amp; COMFY ROOM:-)","listingId":11739009,"photoId":"75-1","tags":[{"name":"oven","coordinates":[0.6671842787000868,0.7554944356282552,0.5151602851019965,0.4599963506062826]},{"name":"sink","coordinates":[1.503391068070023,0.3321653366088867,0.8201507568359375,0.07499353885650635]},{"name":"bottle","coordinates":[0.33853403727213544,0.4014014561971029,0.11539957964861834,0.1301112174987793]},{"name":"cup","coordinates":[2.172623019748264,0.23285706837972006,0.12407538802535445,0.10348896980285645]},{"name":"bottle","coordinates":[1.7579194245515046,0.24449472427368163,0.10199301684344256,0.11009452342987061]},{"name":"bottle","coordinates":[1.165395779079861,0.2519443353017171,0.09157014069733796,0.10796574751536052]},{"name":"bottle","coordinates":[1.0123232241030093,0.25223507881164553,0.07445273222746672,0.1325320561726888]}]}
