{"src":"https://a0.muscache.com/im/pictures/daeb63c8-d979-402f-9f3f-48d7b43a9c85.jpg?aki_policy=xx_large","name":"Bright &amp; cosy houseboat, incl. 2 bikes &amp; parking!","listingId":20858740,"photoId":"750-0","tags":[{"name":"diningtable","coordinates":[0.5735444810655382,0.8483767827351888,0.8202587551540799,0.2697792371114095]},{"name":"chair","coordinates":[0.20015669928656685,0.7661661783854167,0.17474181916978623,0.40451946258544924]},{"name":"chair","coordinates":[0.6728776295979818,0.9477023442586263,0.3894046783447266,0.10465150674184164]},{"name":"chair","coordinates":[0.31561741299099394,0.8976796468098959,0.24508719974093968,0.16211703618367512]},{"name":"chair","coordinates":[0.8939437866210938,0.7543318430582683,0.20026374393039278,0.13612877527872722]},{"name":"vase","coordinates":[0.6288965861002604,0.7594862620035807,0.07557817565070259,0.16072718302408853]},{"name":"pottedplant","coordinates":[0.2990666071573893,0.5707651138305664,0.09306095971001518,0.12631362279256184]},{"name":"chair","coordinates":[0.5316502041286892,0.7049510955810547,0.09339578416612414,0.08383769989013672]},{"name":"vase","coordinates":[0.9554989284939236,0.3345420519510905,0.02701471381717258,0.1318774382273356]}]}
