{"src":"https://a0.muscache.com/im/pictures/4b8ab415-b6fb-47b4-802a-482b7b4b3c55.jpg?aki_policy=xx_large","name":"Bright &amp; cosy houseboat, incl. 2 bikes &amp; parking!","listingId":20858740,"photoId":"750-4","tags":[{"name":"oven","coordinates":[0.26328561570909287,0.707720692952474,0.5215677473280165,0.5284968694051106]},{"name":"sofa","coordinates":[0.8536611768934462,0.8560468037923177,0.2779927147759332,0.2660390377044678]},{"name":"pottedplant","coordinates":[0.1452741305033366,0.2835461934407552,0.125993103451199,0.1709819793701172]},{"name":"pottedplant","coordinates":[0.471562745836046,0.2377859115600586,0.07449546390109592,0.20309354464213053]},{"name":"sink","coordinates":[0.6068817562527127,0.4513981501261393,0.18740679423014323,0.05664414167404175]}]}
