{"src":"https://a0.muscache.com/im/pictures/b6c0370b-51b5-4c42-80be-d4d280783500.jpg?aki_policy=xx_large","name":"Cozy Home in an ancient city","listingId":18637460,"photoId":"752-6","tags":[{"name":"sofa","coordinates":[0.621882867083596,0.49881118138631186,0.33339221089539506,0.4172733942667643]},{"name":"diningtable","coordinates":[0.2414585479608995,0.6476149559020996,0.26098049200957274,0.34822444915771483]},{"name":"sofa","coordinates":[0.31184784062880305,0.42486707369486487,0.27892913606136993,0.3060069719950358]},{"name":"refrigerator","coordinates":[0.6139419831553156,0.2499152342478434,0.1342073103648731,0.338739808400472]},{"name":"vase","coordinates":[0.6621180814231056,0.16207088232040406,0.045701654298912334,0.08496871789296469]},{"name":"vase","coordinates":[0.3480619900084006,0.6893428047498067,0.026249080440431047,0.10115269819895427]}]}
