{"src":"https://a0.muscache.com/im/pictures/b6c0370b-51b5-4c42-80be-d4d280783500.jpg?aki_policy=xx_large","name":"Cozy Home in an ancient city","listingId":18637460,"photoId":"752-6","tags":[{"name":"sofa","coordinates":[0.7885789725312935,0.707447878519694,0.33339221089539506,0.4172733942667643]},{"name":"diningtable","coordinates":[0.37194879396568586,0.821727180480957,0.26098049200957274,0.34822444915771483]},{"name":"sofa","coordinates":[0.451312408659488,0.5778705596923828,0.27892913606136993,0.3060069719950358]},{"name":"refrigerator","coordinates":[0.6810456383377521,0.4192851384480794,0.1342073103648731,0.338739808400472]},{"name":"vase","coordinates":[0.6849689085725618,0.2045552412668864,0.045701654298912334,0.08496871789296469]},{"name":"vase","coordinates":[0.36118653022861613,0.7399191538492839,0.026249080440431047,0.10115269819895427]}]}
