{"src":"https://a0.muscache.com/im/pictures/51223416-8dd4-4576-9e41-dfbdb4d8bb0d.jpg?aki_policy=xx_large","name":"Апартаменты для работы. 15 минут до центра.","listingId":18658688,"photoId":"753-1","tags":[{"name":"diningtable","coordinates":[0.9021774291992187,0.7670552571614583,0.17711385091145834,0.4162716547648112]},{"name":"refrigerator","coordinates":[0.07263182004292806,0.47462199529012045,0.12770844565497505,0.46478573481241864]},{"name":"chair","coordinates":[0.8128017849392362,0.8018911997477214,0.11174343956841362,0.3743167241414388]},{"name":"oven","coordinates":[0.6960748884412977,0.4123427708943685,0.07221399943033854,0.190622345606486]},{"name":"sink","coordinates":[0.2560750749376085,0.429384708404541,0.13820311228434246,0.04725574652353923]},{"name":"bottle","coordinates":[0.16915613810221355,0.36134169896443685,0.016942738162146673,0.07943112850189209]},{"name":"bottle","coordinates":[0.4679026709662543,0.3812906583150228,0.019957513279385036,0.048665857315063475]}]}
