{"src":"https://a0.muscache.com/im/pictures/51223416-8dd4-4576-9e41-dfbdb4d8bb0d.jpg?aki_policy=xx_large","name":"Апартаменты для работы. 15 минут до центра.","listingId":18658688,"photoId":"753-1","tags":[{"name":"diningtable","coordinates":[0.8136205037434896,0.5589194297790527,0.17711385091145834,0.4162716547648112]},{"name":"refrigerator","coordinates":[0.008777597215440539,0.24222912788391113,0.12770844565497505,0.46478573481241864]},{"name":"chair","coordinates":[0.7569300651550294,0.614732837677002,0.11174343956841362,0.3743167241414388]},{"name":"oven","coordinates":[0.6599678887261284,0.31703159809112547,0.07221399943033854,0.190622345606486]},{"name":"sink","coordinates":[0.18697351879543728,0.4057568351427714,0.13820311228434246,0.04725574652353923]},{"name":"bottle","coordinates":[0.1606847690211402,0.32162613471349083,0.016942738162146673,0.07943112850189209]},{"name":"bottle","coordinates":[0.4579239143265618,0.35695772965749106,0.019957513279385036,0.048665857315063475]}]}
