{"src":"https://a0.muscache.com/im/pictures/d8f7bb83-94c5-4f08-ab50-11d166f6d887.jpg?aki_policy=xx_large","name":"Wonderful Staycation in Davao - Homey and Cozy 1BR","listingId":18668176,"photoId":"754-7","tags":[{"name":"diningtable","coordinates":[-0.0014845371246338113,0.5107240041097005,0.568943977355957,0.44218546549479165]},{"name":"diningtable","coordinates":[0.017437386512756337,0.5209136009216309,0.5417281150817871,0.20420894622802735]},{"name":"chair","coordinates":[0.275565642118454,0.7041868527730306,0.19756413698196412,0.29616171518961587]},{"name":"chair","coordinates":[0.42204607725143434,0.627580467859904,0.1458888292312622,0.372762139638265]},{"name":"pottedplant","coordinates":[0.2704263091087341,0.31091324488321936,0.11690809726715087,0.29754816691080727]},{"name":"refrigerator","coordinates":[0.09064631462097168,0.4570424636205037,0.17677440643310546,0.11670826276143392]},{"name":"microwave","coordinates":[0.10255489349365234,0.36118561029434204,0.15432908535003662,0.08487231731414795]},{"name":"vase","coordinates":[0.30716847777366635,0.4710119644800822,0.04798613786697388,0.12706685066223145]},{"name":"sink","coordinates":[-0.0012911379337310833,0.5658829112847645,0.10363308191299439,0.04950515826543172]}]}
