{"src":"https://a0.muscache.com/im/pictures/c9414ddf-2a6e-4845-9646-93d6dfe954a5.jpg?aki_policy=xx_large","name":"Full 2BHK PhotoStudio Homestay (Only for Families)","listingId":18675238,"photoId":"755-6","tags":[{"name":"person","coordinates":[1.6244076199001736,0.5763018925984701,0.3060869852701823,0.8885230382283529]},{"name":"chair","coordinates":[0.17149077521430123,0.884861437479655,0.327653439839681,0.22269007364908855]},{"name":"microwave","coordinates":[0.23952810499403213,0.6336917241414388,0.3821832021077474,0.14390455881754557]},{"name":"bottle","coordinates":[1.1814499749077692,0.6396959304809571,0.05722266303168403,0.13928949038187663]},{"name":"bottle","coordinates":[1.0997699313693576,0.63914794921875,0.05146614180670844,0.13297990163167317]},{"name":"bottle","coordinates":[0.8585197448730468,0.6194021860758464,0.044168207380506724,0.08896833260854085]}]}
