{"src":"https://a0.muscache.com/im/pictures/cb8e042c-eff6-4937-96c3-2ac09daccf77.jpg?aki_policy=xx_large","name":"Full 2BHK PhotoStudio Homestay (Only for Families)","listingId":18675238,"photoId":"755-3","tags":[{"name":"person","coordinates":[0.5615607261657715,0.7753782272338867,0.2434765338897705,0.354548708597819]},{"name":"chair","coordinates":[0.7093707084655761,0.8197217305501302,0.14226117134094238,0.2998795509338379]},{"name":"chair","coordinates":[0.19992011785507202,0.8469538370768229,0.1435139775276184,0.2875716209411621]},{"name":"chair","coordinates":[0.43680558204650877,0.8915570576985677,0.16321687698364257,0.2037524382273356]},{"name":"chair","coordinates":[0.06959068775177002,0.9058530807495118,0.1408693313598633,0.19427525202433268]},{"name":"tvmonitor","coordinates":[0.7331973075866699,0.5936976114908854,0.11622049808502197,0.11176203886667888]},{"name":"laptop","coordinates":[0.49440460205078124,0.725425656636556,0.08734637498855591,0.07951106230417887]}]}
