{"src":"https://a0.muscache.com/im/pictures/cb8e042c-eff6-4937-96c3-2ac09daccf77.jpg?aki_policy=xx_large","name":"Full 2BHK PhotoStudio Homestay (Only for Families)","listingId":18675238,"photoId":"755-4","tags":[{"name":"person","coordinates":[0.4398224592208862,0.5981038729349772,0.2434765338897705,0.354548708597819]},{"name":"chair","coordinates":[0.638240122795105,0.6697819550832113,0.14226117134094238,0.2998795509338379]},{"name":"chair","coordinates":[0.12816312909126282,0.7031680266062419,0.1435139775276184,0.2875716209411621]},{"name":"chair","coordinates":[0.35519714355468746,0.7896808385848999,0.16321687698364257,0.2037524382273356]},{"name":"chair","coordinates":[-0.0008439779281616266,0.8087154547373454,0.1408693313598633,0.19427525202433268]},{"name":"tvmonitor","coordinates":[0.675087058544159,0.537816592057546,0.11622049808502197,0.11176203886667888]},{"name":"laptop","coordinates":[0.4507314145565033,0.6856701254844666,0.08734637498855591,0.07951106230417887]}]}
