{"src":"https://a0.muscache.com/im/pictures/cb8e042c-eff6-4937-96c3-2ac09daccf77.jpg?aki_policy=xx_large","name":"Full 2BHK PhotoStudio Homestay (Only for Families)","listingId":18675238,"photoId":"755-3","tags":[{"name":"person","coordinates":[0.4991650899251302,0.7753782272338867,0.216423585679796,0.354548708597819]},{"name":"chair","coordinates":[0.6305517408582899,0.8197217305501302,0.12645437452528213,0.2998795509338379]},{"name":"chair","coordinates":[0.1777067714267307,0.8469538370768229,0.1275679800245497,0.2875716209411621]},{"name":"chair","coordinates":[0.3882716284857856,0.8915570576985677,0.14508166842990453,0.2037524382273356]},{"name":"chair","coordinates":[0.06185838911268446,0.9058530807495118,0.1252171834309896,0.19427525202433268]},{"name":"tvmonitor","coordinates":[0.6517309400770399,0.5936976114908854,0.10330710940890842,0.11176203886667888]},{"name":"laptop","coordinates":[0.43947075737847224,0.725425656636556,0.0776412222120497,0.07951106230417887]}]}
