{"src":"https://z0.muscache.cn/im/pictures/0404a80c-aae5-4be1-9b10-9ad4915cf103.jpg?aki_policy=xx_large","name":"Taipei 景安MRT apartment - C","listingId":18677607,"photoId":"756-3","tags":[{"name":"bed","coordinates":[0.49878726535373263,0.87220884958903,1.0612430148654515,0.24682730038960773]},{"name":"tvmonitor","coordinates":[0.8879526774088542,0.5501843134562174,0.22656131320529513,0.2243209997812907]},{"name":"refrigerator","coordinates":[0.8136573791503906,0.7782222112019856,0.18357018364800348,0.2449347178141276]},{"name":"chair","coordinates":[0.6652864668104383,0.7510917663574219,0.1381056785583496,0.1532454490661621]},{"name":"pottedplant","coordinates":[0.7559455871582031,0.6354668935139974,0.04251646200815837,0.06830478509267171]}]}
