{"src":"https://z0.muscache.cn/im/pictures/58c24d9f-e680-4b32-8ba5-a0da64745eb8.jpg?aki_policy=xx_large","name":"Taipei 景安MRT apartment - C","listingId":18677607,"photoId":"756-6","tags":[{"name":"car","coordinates":[0.17754762457461212,0.8493891398111979,0.31625237565409103,0.2189421812693278]},{"name":"car","coordinates":[0.4531366257440476,0.8173852920532226,0.21533631943427986,0.16465813318888348]},{"name":"person","coordinates":[0.3679571814317428,0.8280291239420573,0.08716930475763564,0.21767334938049315]},{"name":"motorbike","coordinates":[0.9362679570099044,0.8521303176879883,0.12002988721503587,0.11915240287780762]},{"name":"car","coordinates":[0.02285099848465097,0.8770013809204101,0.04016185048778573,0.2376425902048747]},{"name":"motorbike","coordinates":[0.8187584620169789,0.8448923746744792,0.09451398767594897,0.0928017775217692]},{"name":"car","coordinates":[0.29398857551473456,0.772715695699056,0.0721007204911934,0.053711545467376706]},{"name":"car","coordinates":[0.04225711092922857,0.7738897323608398,0.06868844549698722,0.05536523660024007]},{"name":"person","coordinates":[0.5635317371377342,0.7967885335286459,0.035163810902699,0.10248479048411051]},{"name":"bicycle","coordinates":[0.6310380493449942,0.821499252319336,0.04007748641789099,0.08676908810933431]}]}
