{"src":"https://a0.muscache.com/im/pictures/8b29779f-d914-47bb-9894-bede1084b0c1.jpg?aki_policy=xx_large","name":"Casa Scheveningen","listingId":21036061,"photoId":"756-3","tags":[{"name":"sofa","coordinates":[0.8035341050889757,0.6970946629842122,0.40230958726671007,0.5269297917683919]},{"name":"chair","coordinates":[0.5271931966145833,0.5844648996988933,0.15744455125596787,0.21404333114624025]},{"name":"chair","coordinates":[0.30228777991400824,0.5404319763183594,0.082632048924764,0.18451463381449382]},{"name":"chair","coordinates":[0.3791689978705512,0.5239720980326334,0.06967225074768066,0.1592367966969808]},{"name":"pottedplant","coordinates":[0.05021898481580946,0.5045360883076986,0.06978481080796983,0.11480123996734619]},{"name":"pottedplant","coordinates":[0.4387271033393012,0.39689785639444985,0.07041733529832628,0.1081758419672648]},{"name":"pottedplant","coordinates":[0.19585660298665364,0.4038487752278646,0.06878281169467503,0.10455169677734374]},{"name":"pottedplant","coordinates":[0.32479947408040366,0.4056489626566569,0.04286230405171712,0.10391043027242025]},{"name":"vase","coordinates":[0.4333791944715712,0.4335861841837565,0.030282470915052626,0.03916827042897542]},{"name":"vase","coordinates":[0.4543997446695964,0.42332763671875,0.021022140979766846,0.046162116527557376]}]}
