{"src":"https://z0.muscache.cn/im/pictures/0404a80c-aae5-4be1-9b10-9ad4915cf103.jpg?aki_policy=xx_large","name":"Taipei 景安MRT apartment - C","listingId":18677607,"photoId":"756-3","tags":[{"name":"bed","coordinates":[-0.0318342420789931,0.7487951993942261,1.0612430148654515,0.24682730038960773]},{"name":"tvmonitor","coordinates":[0.7746720208062067,0.4380238135655721,0.22656131320529513,0.2243209997812907]},{"name":"refrigerator","coordinates":[0.7218722873263889,0.6557548522949218,0.18357018364800348,0.2449347178141276]},{"name":"chair","coordinates":[0.5962336275312635,0.6744690418243409,0.1381056785583496,0.1532454490661621]},{"name":"pottedplant","coordinates":[0.734687356154124,0.6013145009676616,0.04251646200815837,0.06830478509267171]}]}
