{"src":"https://a0.muscache.com/im/pictures/fc96b615-4556-4b21-87e4-ae61387cfe45.jpg?aki_policy=xx_large","name":"Casa Scheveningen","listingId":21036061,"photoId":"756-0","tags":[{"name":"pottedplant","coordinates":[0.855330064561632,0.861306889851888,0.25197425418429903,0.2806520144144694]},{"name":"diningtable","coordinates":[0.5468987358940972,0.920426877339681,0.3141368230183919,0.13283732732137044]},{"name":"oven","coordinates":[0.7911161634657118,0.6848564783732096,0.17763200336032445,0.2152202288309733]},{"name":"microwave","coordinates":[0.06921680238511828,0.46786791483561196,0.13138388527764214,0.2339550018310547]},{"name":"pottedplant","coordinates":[0.9165421379937067,0.518572743733724,0.11020290586683486,0.1551281452178955]},{"name":"bowl","coordinates":[0.9457511054144965,0.5815208435058594,0.06835218005710178,0.04365230798721313]},{"name":"bottle","coordinates":[0.35158892737494574,0.538021977742513,0.017890254656473797,0.1175406535466512]},{"name":"bottle","coordinates":[0.32214817470974394,0.5374530156453451,0.01753761370976766,0.11112956206003825]},{"name":"bottle","coordinates":[0.3352972242567274,0.5374717712402344,0.01705490748087565,0.11115569273630778]},{"name":"bottle","coordinates":[0.6442771487765842,0.5429729461669922,0.010091708103815714,0.039676698048909505]},{"name":"bottle","coordinates":[0.6271045260959202,0.543285878499349,0.0104640973938836,0.03460836410522461]},{"name":"bottle","coordinates":[0.6253397623697917,0.5147982279459635,0.007357016536924574,0.03095450202624003]}]}
