{"src":"https://z0.muscache.cn/im/pictures/58c24d9f-e680-4b32-8ba5-a0da64745eb8.jpg?aki_policy=xx_large","name":"Taipei 景安MRT apartment - C","listingId":18677607,"photoId":"756-6","tags":[{"name":"car","coordinates":[0.019421436747566606,0.739918049176534,0.31625237565409103,0.2189421812693278]},{"name":"car","coordinates":[0.3454684660269077,0.7350562254587809,0.21533631943427986,0.16465813318888348]},{"name":"person","coordinates":[0.32437252905292496,0.7191924492518107,0.08716930475763564,0.21767334938049315]},{"name":"motorbike","coordinates":[0.8762530134023865,0.7925541162490845,0.12002988721503587,0.11915240287780762]},{"name":"car","coordinates":[0.002770073240758106,0.7581800858179728,0.04016185048778573,0.2376425902048747]},{"name":"motorbike","coordinates":[0.7715014681790044,0.7984914859135946,0.09451398767594897,0.0928017775217692]},{"name":"car","coordinates":[0.25793821526913785,0.7458599229653676,0.0721007204911934,0.053711545467376706]},{"name":"car","coordinates":[0.007912888180734962,0.7462071140607197,0.06868844549698722,0.05536523660024007]},{"name":"person","coordinates":[0.5459498316863847,0.7455461382865907,0.035163810902699,0.10248479048411051]},{"name":"bicycle","coordinates":[0.6109993061360487,0.7781147082646688,0.04007748641789099,0.08676908810933431]}]}
