{"src":"https://a0.muscache.com/im/pictures/b181fa2d-aeec-4c21-8f15-b50bdd05eddf.jpg?aki_policy=xx_large","name":"Apartment in the City Center 7FriDay","listingId":18701130,"photoId":"758-0","tags":[{"name":"refrigerator","coordinates":[0.0002218458387586858,0.34168993631998695,0.1753123707241482,0.5918468475341797]},{"name":"diningtable","coordinates":[0.36764684253268776,0.6330928802490234,0.21640902625189887,0.2856257120768229]},{"name":"chair","coordinates":[0.3844058937496609,0.6198062896728516,0.09783343209160698,0.26713307698567706]},{"name":"tvmonitor","coordinates":[0.439548036787245,0.26505655447642007,0.14277426401774088,0.15719094276428222]},{"name":"chair","coordinates":[0.5031306319766574,0.6358134746551514,0.08484303156534831,0.2506061236063639]}]}
