{"src":"https://a0.muscache.com/im/pictures/55e7d9db-ff56-4f1b-869d-9efec5f0b5a9.jpg?aki_policy=xx_large","name":"Unique 'arti' ground-floor home in the city centre","listingId":21085992,"photoId":"758-7","tags":[{"name":"person","coordinates":[0.909932115342882,0.601994514465332,0.10203201505872939,0.49522387186686195]},{"name":"chair","coordinates":[0.4098698510064019,0.7037408828735352,0.13599881066216363,0.30232677459716795]},{"name":"pottedplant","coordinates":[0.9423191494411892,0.7597956975301107,0.10837270948621962,0.32280168533325193]},{"name":"chair","coordinates":[0.5312867906358507,0.5960339228312175,0.1028440899319119,0.2070563793182373]},{"name":"chair","coordinates":[0.29603886074490016,0.6392445882161458,0.07384165128072102,0.23079368273417156]},{"name":"book","coordinates":[0.9130275302463108,0.28962701161702475,0.02849192089504666,0.09690814018249512]},{"name":"chair","coordinates":[0.4310575697157118,0.5267721494038899,0.031693988376193576,0.04500408967336019]}]}
