{"src":"https://a0.muscache.com/im/pictures/b181fa2d-aeec-4c21-8f15-b50bdd05eddf.jpg?aki_policy=xx_large","name":"Apartment in the City Center 7FriDay","listingId":18701130,"photoId":"758-0","tags":[{"name":"refrigerator","coordinates":[0.08787803120083279,0.6376133600870768,0.1753123707241482,0.5918468475341797]},{"name":"diningtable","coordinates":[0.4758513556586372,0.7759057362874349,0.21640902625189887,0.2856257120768229]},{"name":"chair","coordinates":[0.4333226097954644,0.7533728281656901,0.09783343209160698,0.26713307698567706]},{"name":"tvmonitor","coordinates":[0.5109351687961154,0.3436520258585612,0.14277426401774088,0.15719094276428222]},{"name":"chair","coordinates":[0.5455521477593316,0.7611165364583333,0.08484303156534831,0.2506061236063639]}]}
