{"src":"https://a0.muscache.com/im/pictures/d610d2d0-172a-43fe-87c9-35cb6a652a44.jpg?aki_policy=xx_large","name":"Pause Ipoh - Homestay that fits 6 pax comfortably","listingId":18709504,"photoId":"759-9","tags":[{"name":"diningtable","coordinates":[1.2382521629333496,0.7322115580240885,0.5410229682922363,0.2684919357299805]},{"name":"chair","coordinates":[1.3256354331970215,0.7998992284138997,0.2252511501312256,0.2829591433207194]},{"name":"diningtable","coordinates":[1.2486735343933106,0.6428123474121094,0.46770873069763186,0.10936098098754883]},{"name":"sink","coordinates":[0.8333727836608886,0.6870691935221355,0.3714242219924927,0.12627552350362142]},{"name":"chair","coordinates":[1.1441553115844727,0.7652414957682292,0.14644988775253295,0.2208288351694743]},{"name":"chair","coordinates":[1.4817500114440918,0.6946005503336589,0.0907468855381012,0.13590391476949057]},{"name":"bottle","coordinates":[0.574782419204712,0.6983779907226563,0.06907720565795898,0.10499632358551025]}]}
