{"src":"https://a0.muscache.com/im/pictures/af0dc29a-4702-43b0-8886-b60c00968241.jpg?aki_policy=xx_large","name":"Pause Ipoh - Homestay that fits 6 pax comfortably","listingId":18709504,"photoId":"759-6","tags":[{"name":"pottedplant","coordinates":[0.13153724670410155,0.038656139373779264,0.44967355728149416,0.49519195556640627]},{"name":"diningtable","coordinates":[0.29884927272796635,0.5756243546803792,0.40961480140686035,0.33698002497355145]},{"name":"chair","coordinates":[0.02428750991821288,0.6145138581593831,0.2968403100967407,0.3202525774637858]},{"name":"chair","coordinates":[0.1860599398612976,0.5726492802302042,0.19343235492706298,0.20612953503926595]},{"name":"cup","coordinates":[0.4694471329450607,0.6115558604399363,0.04103966355323792,0.039340595404307045]},{"name":"book","coordinates":[0.39191925823688506,0.6133863280216854,0.06811174750328064,0.017143410444259644]},{"name":"book","coordinates":[0.3900278478860855,0.6010590175787608,0.0699741542339325,0.012501664956410726]}]}
