{"src":"https://a0.muscache.com/im/pictures/4a0207e1-702d-496c-9552-e3e41f27cbb3.jpg?aki_policy=xx_large","name":"Pause Ipoh - Homestay that fits 6 pax comfortably","listingId":18709504,"photoId":"759-7","tags":[{"name":"pottedplant","coordinates":[0.5284440252516005,0.011210219065348304,0.2525279786851671,0.6967192967732747]},{"name":"diningtable","coordinates":[0.49562845230102537,0.6107486248016358,0.30371066199408636,0.3961401303609212]},{"name":"chair","coordinates":[0.4108927567799886,0.6355653285980225,0.12508567174275717,0.35056352615356445]},{"name":"chair","coordinates":[0.7402179400126139,0.7894012689590454,0.2281375249226888,0.18826441764831542]},{"name":"refrigerator","coordinates":[0.06726426548428005,0.5554966608683268,0.13168893390231662,0.28881263732910156]},{"name":"pottedplant","coordinates":[0.059936910205417214,0.2797458370526632,0.047345881991916236,0.125785756111145]},{"name":"bowl","coordinates":[0.6473332511054145,0.691977196931839,0.044076834784613717,0.04381800095240275]},{"name":"cup","coordinates":[0.6062925961282518,0.6572967926661173,0.032712981435987686,0.04546526273091634]},{"name":"cup","coordinates":[0.5955130974451701,0.6988468488057454,0.028037457995944554,0.045859972635904946]},{"name":"cup","coordinates":[0.5475259992811415,0.6738519191741944,0.027417161729600695,0.04679168065388997]},{"name":"cup","coordinates":[0.6689552598529391,0.6372841596603394,0.02313523292541504,0.03945043881734212]},{"name":"cup","coordinates":[0.6924646205372281,0.6399542033672333,0.02623900572458903,0.03413769006729126]},{"name":"cup","coordinates":[0.7302625815073649,0.6246142735083898,0.02467482884724935,0.030028019348780313]}]}
