{"src":"https://a0.muscache.com/im/pictures/d610d2d0-172a-43fe-87c9-35cb6a652a44.jpg?aki_policy=xx_large","name":"Pause Ipoh - Homestay that fits 6 pax comfortably","listingId":18709504,"photoId":"759-9","tags":[{"name":"diningtable","coordinates":[0.5503342946370443,0.7322115580240885,0.24045465257432724,0.2684919357299805]},{"name":"chair","coordinates":[0.5891713036431206,0.7998992284138997,0.10011162228054471,0.2829591433207194]},{"name":"diningtable","coordinates":[0.5549660152859158,0.6428123474121094,0.20787054697672527,0.10936098098754883]},{"name":"sink","coordinates":[0.37038790384928383,0.6870691935221355,0.16507743199666342,0.12627552350362142]},{"name":"chair","coordinates":[0.5085134718153211,0.7652414957682292,0.06508883900112576,0.2208288351694743]},{"name":"chair","coordinates":[0.6585555606418185,0.6946005503336589,0.040331949128044976,0.13590391476949057]},{"name":"bottle","coordinates":[0.255458852979872,0.6983779907226563,0.030700980292426214,0.10499632358551025]}]}
