{"src":"https://a0.muscache.com/im/pictures/1a3f75dd-6712-4986-9cc0-ca7575fd44ef.jpg?aki_policy=xx_large","name":"Pause Ipoh - Homestay that fits 6 pax comfortably","listingId":18709504,"photoId":"759-7","tags":[{"name":"refrigerator","coordinates":[0.5711650848388672,0.7726044336954753,0.47302827835083006,0.41765276590983075]},{"name":"microwave","coordinates":[0.5844325065612793,0.5436268488566081,0.3656670331954956,0.12183153629302979]},{"name":"pottedplant","coordinates":[0.8555063247680664,0.2531506697336833,0.1612347960472107,0.16230716705322265]},{"name":"sink","coordinates":[1.2237525939941407,0.7047732035319011,0.26901242733001707,0.06956601142883301]},{"name":"bottle","coordinates":[1.3187624931335449,0.6226706822713216,0.06416584253311157,0.1157811959584554]},{"name":"bottle","coordinates":[1.4935481071472168,0.3533582369486491,0.052718132734298706,0.08487308820088704]},{"name":"bottle","coordinates":[1.4376091957092285,0.3617128690083822,0.04157777726650238,0.07901770273844401]},{"name":"bottle","coordinates":[1.3911365509033202,0.36387128829956056,0.036473578214645384,0.07172071139017741]},{"name":"bottle","coordinates":[1.3530662536621094,0.36411895751953127,0.03571629226207733,0.06668227513631185]},{"name":"bottle","coordinates":[1.3294265747070313,0.366175905863444,0.03716553449630737,0.05947082042694092]}]}
