{"src":"https://a0.muscache.com/im/pictures/1a3f75dd-6712-4986-9cc0-ca7575fd44ef.jpg?aki_policy=xx_large","name":"Pause Ipoh - Homestay that fits 6 pax comfortably","listingId":18709504,"photoId":"759-9","tags":[{"name":"refrigerator","coordinates":[0.25385114881727433,0.7726044336954753,0.2102347903781467,0.41765276590983075]},{"name":"microwave","coordinates":[0.2597477806939019,0.5436268488566081,0.16251868142022027,0.12183153629302979]},{"name":"pottedplant","coordinates":[0.38022503323025175,0.2531506697336833,0.07165990935431586,0.16230716705322265]},{"name":"sink","coordinates":[0.5438900417751736,0.7047732035319011,0.11956107881334092,0.06956601142883301]},{"name":"bottle","coordinates":[0.5861166636149089,0.6226706822713216,0.028518152236938477,0.1157811959584554]},{"name":"bottle","coordinates":[0.6637991587320964,0.3533582369486491,0.02343028121524387,0.08487308820088704]},{"name":"bottle","coordinates":[0.6389374203152127,0.3617128690083822,0.018479012118445503,0.07901770273844401]},{"name":"bottle","coordinates":[0.6182829115125869,0.36387128829956056,0.01621047920650906,0.07172071139017741]},{"name":"bottle","coordinates":[0.601362779405382,0.36411895751953127,0.01587390767203437,0.06668227513631185]},{"name":"bottle","coordinates":[0.5908562554253473,0.366175905863444,0.016518015331692167,0.05947082042694092]}]}
