{"src":"https://a0.muscache.com/im/pictures/8b9a5306-0343-4812-97fe-adcb04afb471.jpg?aki_policy=xx_large","name":"Pause Ipoh - Homestay that fits 6 pax comfortably","listingId":18709504,"photoId":"759-8","tags":[{"name":"refrigerator","coordinates":[0.6182677798800998,0.766935920715332,0.18789800008138022,0.42458333969116213]},{"name":"sink","coordinates":[0.8955135769314236,0.7716241200764974,0.1951836480034722,0.1427959124247233]},{"name":"chair","coordinates":[0.2887680901421441,0.7016616821289062,0.08082639906141494,0.2117573102315267]},{"name":"pottedplant","coordinates":[0.7163530985514323,0.24668213526407878,0.07472026613023545,0.16093783378601073]},{"name":"microwave","coordinates":[0.6198445638020833,0.5235052108764648,0.12506928973727757,0.08738527297973633]}]}
