{"src":"https://a0.muscache.com/im/pictures/1a3f75dd-6712-4986-9cc0-ca7575fd44ef.jpg?aki_policy=xx_large","name":"Pause Ipoh - Homestay that fits 6 pax comfortably","listingId":18709504,"photoId":"759-9","tags":[{"name":"refrigerator","coordinates":[0.14873375362820096,0.5637780507405599,0.2102347903781467,0.41765276590983075]},{"name":"microwave","coordinates":[0.17848843998379177,0.48271108071009317,0.16251868142022027,0.12183153629302979]},{"name":"pottedplant","coordinates":[0.3443950785530938,0.17199708620707194,0.07165990935431586,0.16230716705322265]},{"name":"sink","coordinates":[0.4841095023685032,0.6699901978174846,0.11956107881334092,0.06956601142883301]},{"name":"bottle","coordinates":[0.5718575874964397,0.5647800842920939,0.028518152236938477,0.1157811959584554]},{"name":"bottle","coordinates":[0.6520840181244745,0.3109216928482056,0.02343028121524387,0.08487308820088704]},{"name":"bottle","coordinates":[0.62969791425599,0.3222040176391602,0.018479012118445503,0.07901770273844401]},{"name":"bottle","coordinates":[0.6101776719093324,0.32801093260447184,0.01621047920650906,0.07172071139017741]},{"name":"bottle","coordinates":[0.5934258255693647,0.33077781995137534,0.01587390767203437,0.06668227513631185]},{"name":"bottle","coordinates":[0.5825972477595012,0.3364404956499735,0.016518015331692167,0.05947082042694092]}]}
