{"src":"https://a0.muscache.com/im/pictures/c370f6f5-e3cd-42bc-9f60-b346d74b1d0a.jpg?aki_policy=xx_large","name":"Bord de la mer-Scheveningen. Beach House","listingId":21088204,"photoId":"760-6","tags":[{"name":"chair","coordinates":[0.250406551361084,0.8362555185953776,0.5025849342346191,0.27177499135335287]},{"name":"sofa","coordinates":[0.250406551361084,0.8362555185953776,0.5025849342346191,0.27177499135335287]},{"name":"diningtable","coordinates":[0.7557835102081298,0.6096666336059571,0.24141316413879393,0.2739924112955729]},{"name":"chair","coordinates":[0.12119663953781128,0.5702430725097656,0.17896111011505128,0.31449060440063475]},{"name":"chair","coordinates":[0.6760936737060547,0.5769904454549154,0.07913804650306702,0.2597392717997233]},{"name":"chair","coordinates":[0.49383106231689455,0.5311316808064779,0.1077267050743103,0.15535688400268555]},{"name":"pottedplant","coordinates":[0.33982114791870116,0.6081929524739583,0.11207677125930786,0.14377427101135254]},{"name":"chair","coordinates":[0.866888427734375,0.5762770334879558,0.05211160182952881,0.251450777053833]},{"name":"cup","coordinates":[0.8143016815185546,0.4833747227986654,0.014953748881816864,0.0305264413356781]}]}
