{"src":"https://a0.muscache.com/im/pictures/a3227388-cc20-4fc0-ae5a-5fce36f953ec.jpg?aki_policy=xx_large","name":"Rustige plek in de randstad vlakbij zee.","listingId":21137838,"photoId":"762-9","tags":[{"name":"pottedplant","coordinates":[0.3780890570746528,0.20741395950317382,0.6470841725667318,0.3327026049296061]},{"name":"chair","coordinates":[1.0562756856282551,0.7783462524414062,0.423722415500217,0.41991491317749025]},{"name":"tvmonitor","coordinates":[1.3069758097330728,0.514383602142334,0.31572500864664715,0.1688613732655843]},{"name":"clock","coordinates":[1.176109144422743,0.30077972412109377,0.11969279183281792,0.11435451507568359]},{"name":"keyboard","coordinates":[1.2452479044596354,0.6104810078938802,0.2602457258436415,0.04972492853800456]},{"name":"bottle","coordinates":[1.5322094387478298,0.640573247273763,0.05414068433973524,0.11841433842976888]},{"name":"mouse","coordinates":[1.3753463745117187,0.6548412322998047,0.05755499733818902,0.029881854852040608]}]}
