{"src":"https://a0.muscache.com/im/pictures/f9498ba3-0a83-48aa-b29a-c1b7d8ced2a1.jpg?aki_policy=xx_large","name":"Bright &amp; relaxing apartment close to parks and PT","listingId":21150135,"photoId":"763-1","tags":[{"name":"chair","coordinates":[0.35143418312072755,0.7839391708374024,0.24341895580291747,0.435378360748291]},{"name":"backpack","coordinates":[0.8675873756408692,0.6057818730672201,0.08710194826126098,0.12723499933878582]},{"name":"tvmonitor","coordinates":[0.5895150184631348,0.48432900110880533,0.04528654813766479,0.14809632301330566]},{"name":"book","coordinates":[0.2553659677505493,0.6133864084879558,0.12598614692687987,0.03437828222910563]},{"name":"book","coordinates":[0.25496201515197753,0.5925900141398112,0.10978207588195801,0.036488676071166994]}]}
