{"src":"https://a0.muscache.com/im/pictures/7ba8461e-0bf1-4b6b-ae7e-0fed3f15678d.jpg?aki_policy=xx_large","name":"Private room close to LRT &amp; Malls &amp; Airport","listingId":18732949,"photoId":"765-3","tags":[{"name":"toilet","coordinates":[0.7424004448784722,0.6230671405792236,0.212200927734375,0.18900009791056316]},{"name":"sink","coordinates":[0.1966403325398763,0.5249394218126933,0.3088895161946615,0.06723083655039469]},{"name":"vase","coordinates":[0.0041614294052124,0.48798145055770875,0.03835131327311198,0.0919862667719523]},{"name":"pottedplant","coordinates":[0.7691697438557943,0.4576774815718333,0.048331960042317705,0.0512263814608256]},{"name":"pottedplant","coordinates":[0.7136319001515707,0.4606758673985799,0.04622422324286567,0.04833464622497559]},{"name":"pottedplant","coordinates":[0.669893040921953,0.47438016136487327,0.03469367822011312,0.03714863061904907]},{"name":"pottedplant","coordinates":[0.8299986203511556,0.4674323300520579,0.03223281436496311,0.035865422089894614]},{"name":"vase","coordinates":[0.8299986203511556,0.4674323300520579,0.03223281436496311,0.035865422089894614]},{"name":"pottedplant","coordinates":[0.7792142073313395,0.47284080386161803,0.03139092127482097,0.032594072818756106]}]}
