{"src":"https://a0.muscache.com/im/pictures/28483d83-4374-4e15-aca5-8d9ad4963649.jpg?aki_policy=xx_large","name":"24m bright room 10-15min from the city or beach","listingId":21195403,"photoId":"767-3","tags":[{"name":"bed","coordinates":[1.0421436996318414,0.8355336507161458,1.7997932504855636,0.30386877059936523]},{"name":"chair","coordinates":[0.5103862811992694,0.5947411855061849,0.6940861349866652,0.2881910959879557]},{"name":"tvmonitor","coordinates":[2.111728080791976,0.3992486000061035,0.4713238661275945,0.2504923661549886]},{"name":"chair","coordinates":[1.2379619194979128,0.49127861658732097,0.2837282934525017,0.2788282712300619]},{"name":"clock","coordinates":[2.2452843264436457,0.11157691478729248,0.27024702592329547,0.20575227737426757]}]}
