{"src":"https://a0.muscache.com/im/pictures/a82f1b45-0808-4c0b-97a8-37ce471e50f3.jpg?aki_policy=xx_large","name":"Nice home setting/free parking/WiFi","listingId":18736240,"photoId":"767-3","tags":[{"name":"diningtable","coordinates":[0.08784992694854737,0.6232908884684244,0.264879035949707,0.21800867716471353]},{"name":"chair","coordinates":[0.11795094013214112,0.7506440321604411,0.20187439918518066,0.2537374178568522]},{"name":"chair","coordinates":[0.32218164801597593,0.6163382689158122,0.09192954301834107,0.3575817426045736]},{"name":"chair","coordinates":[0.006532377004623419,0.6718699773152669,0.1007496953010559,0.31628214518229164]},{"name":"bed","coordinates":[0.39101314544677734,0.46413821379343667,0.0853567123413086,0.14668822288513184]},{"name":"chair","coordinates":[0.1617878437042236,0.5807426393032075,0.12881627082824706,0.06032372713088989]},{"name":"sink","coordinates":[0.760704517364502,0.5320132831732433,0.15610923767089843,0.04659266074498494]},{"name":"bowl","coordinates":[0.18625890314579008,0.6665419697761535,0.07931362986564636,0.059260471661885576]},{"name":"cup","coordinates":[0.13421013951301575,0.6498544971148172,0.023650968074798585,0.0473124901453654]},{"name":"cup","coordinates":[0.20992353409528733,0.723060699303945,0.029866114258766174,0.036424962679545085]},{"name":"knife","coordinates":[0.8076270997524261,0.4440600315729777,0.01776372194290161,0.03686817487080892]},{"name":"knife","coordinates":[0.7908065170049667,0.4481928567091624,0.016504889726638793,0.033345019817352294]}]}
