{"src":"https://a0.muscache.com/im/pictures/5711c120-1fda-461a-b4cd-92bd4cc9c93e.jpg?aki_policy=xx_large","name":"1 bedroom cottage, centrally located in area 9","listingId":18739921,"photoId":"768-1","tags":[{"name":"sofa","coordinates":[0.4055501725938585,0.4256508509318034,0.3488179948594835,0.20120609601338704]},{"name":"chair","coordinates":[0.5292355855305989,0.8400960286458333,0.21363360087076824,0.3010081926981608]},{"name":"diningtable","coordinates":[0.2967216703626845,0.9286926905314128,0.5675406561957466,0.10666181246439616]},{"name":"refrigerator","coordinates":[0.802139875623915,0.5495036443074545,0.12546685536702473,0.4269859313964844]},{"name":"chair","coordinates":[0.05721723238627116,0.8356264114379883,0.11455066468980578,0.3307190895080566]},{"name":"chair","coordinates":[0.29231590694851345,0.6016530354817708,0.13527929517957898,0.1745798428853353]}]}
