{"src":"https://a0.muscache.com/im/pictures/5711c120-1fda-461a-b4cd-92bd4cc9c93e.jpg?aki_policy=xx_large","name":"1 bedroom cottage, centrally located in area 9","listingId":18739921,"photoId":"768-1","tags":[{"name":"sofa","coordinates":[0.23114117516411675,0.3250478029251099,0.3488179948594835,0.20120609601338704]},{"name":"chair","coordinates":[0.4224187850952148,0.689591932296753,0.21363360087076824,0.3010081926981608]},{"name":"diningtable","coordinates":[0.012951342264811205,0.8753617842992147,0.5675406561957466,0.10666181246439616]},{"name":"refrigerator","coordinates":[0.7394064479404026,0.3360106786092123,0.12546685536702473,0.4269859313964844]},{"name":"chair","coordinates":[-0.00005809995863172851,0.67026686668396,0.11455066468980578,0.3307190895080566]},{"name":"chair","coordinates":[0.22467625935872396,0.5143631140391032,0.13527929517957898,0.1745798428853353]}]}
