{"src":"https://a0.muscache.com/im/pictures/9048fb64-ef04-4adf-a3fe-4d01b59cb7f5.jpg?aki_policy=xx_large","name":"광주핫플레이스•최고의위치•상무지구럭셔리도시아파트","listingId":18752121,"photoId":"769-7","tags":[{"name":"umbrella","coordinates":[0.18667283058166503,0.4995568593343099,0.3997776031494141,0.45567626953125]},{"name":"bench","coordinates":[0.19569867849349976,0.8738979975382487,0.36697518825531006,0.27024930318196616]},{"name":"umbrella","coordinates":[0.7342824459075927,0.5143932660420736,0.23908040523529053,0.2486579418182373]},{"name":"chair","coordinates":[0.5210829257965088,0.7448895772298177,0.10058467388153076,0.2252072016398112]},{"name":"chair","coordinates":[0.7895912647247314,0.7938886006673177,0.0920403242111206,0.2426789919535319]},{"name":"car","coordinates":[0.1075527548789978,0.6298096338907878,0.1814165711402893,0.11197318236033121]},{"name":"car","coordinates":[0.9155410766601563,0.609814198811849,0.14878857135772705,0.12414865493774414]},{"name":"car","coordinates":[0.43175902366638186,0.6163731257120768,0.16570180654525757,0.10700948238372802]},{"name":"chair","coordinates":[0.6472784042358398,0.7259111404418945,0.07847462892532349,0.20427125295003254]},{"name":"person","coordinates":[0.7624202251434327,0.5608880996704102,0.021032705903053284,0.03539466857910156]},{"name":"person","coordinates":[0.6634209156036377,0.5658342361450195,0.015927545726299286,0.03343937397003174]}]}
