{"src":"https://a0.muscache.com/im/pictures/9048fb64-ef04-4adf-a3fe-4d01b59cb7f5.jpg?aki_policy=xx_large","name":"광주핫플레이스•최고의위치•상무지구럭셔리도시아파트","listingId":18752121,"photoId":"769-7","tags":[{"name":"umbrella","coordinates":[0.1865271062798839,0.4995568593343099,0.3994655207113583,0.45567626953125]},{"name":"bench","coordinates":[0.19554590825267734,0.8738979975382487,0.36668871269851433,0.27024930318196616]},{"name":"umbrella","coordinates":[0.7337092355673058,0.5143932660420736,0.23889376947788593,0.2486579418182373]},{"name":"chair","coordinates":[0.5206761475562305,0.7448895772298177,0.10050615344914861,0.2252072016398112]},{"name":"chair","coordinates":[0.7889748781012149,0.7938886006673177,0.09196847384093237,0.2426789919535319]},{"name":"car","coordinates":[0.10746879488299546,0.6298096338907878,0.18127495008553499,0.11197318236033121]},{"name":"car","coordinates":[0.914826368559719,0.609814198811849,0.1486724210287983,0.12414865493774414]},{"name":"car","coordinates":[0.4314219752482192,0.6163731257120768,0.16557245306629953,0.10700948238372802]},{"name":"chair","coordinates":[0.6467731127415105,0.7259111404418945,0.07841336848119755,0.20427125295003254]},{"name":"person","coordinates":[0.7618250493236485,0.5608880996704102,0.02101628692889009,0.03539466857910156]},{"name":"person","coordinates":[0.662903022617218,0.5658342361450195,0.01591511204501412,0.03343937397003174]}]}
