{"src":"https://a0.muscache.com/im/pictures/3e664dd2-c06b-4596-96c6-d651d75b203c.jpg?aki_policy=xx_large","name":"Inviting,Updated Apt w/easy access to Dntwn/Airprt","listingId":11772367,"photoId":"77-12","tags":[{"name":"sofa","coordinates":[0.6726915931013087,0.587473996480306,0.3695993434938139,0.446829096476237]},{"name":"chair","coordinates":[0.6726915931013087,0.587473996480306,0.3695993434938139,0.446829096476237]},{"name":"chair","coordinates":[0.6946184913460816,0.4340581258138021,0.2939054303220893,0.20352780024210612]},{"name":"sofa","coordinates":[0.04765827532422815,0.517998218536377,0.09271156687455344,0.2837954521179199]},{"name":"pottedplant","coordinates":[0.24201524644982514,0.37151463826497394,0.09763123182900402,0.11220560868581136]},{"name":"chair","coordinates":[0.18163054428376016,0.3264972686767578,0.08516152355501655,0.10859014987945556]},{"name":"book","coordinates":[0.3055748050106705,0.47338956197102866,0.09392585249440621,0.028388901551564535]},{"name":"vase","coordinates":[0.23831081275618607,0.40687812169392906,0.03996573860177638,0.03248913288116455]}]}
