{"src":"https://a0.muscache.com/im/pictures/3e664dd2-c06b-4596-96c6-d651d75b203c.jpg?aki_policy=xx_large","name":"Inviting,Updated Apt w/easy access to Dntwn/Airprt","listingId":11772367,"photoId":"77-12","tags":[{"name":"sofa","coordinates":[0.7763982137044271,0.587473996480306,0.4265792422824436,0.446829096476237]},{"name":"chair","coordinates":[0.7763982137044271,0.587473996480306,0.4265792422824436,0.446829096476237]},{"name":"chair","coordinates":[0.8017055087619358,0.4340581258138021,0.3392158508300781,0.20352780024210612]},{"name":"sofa","coordinates":[0.05500559277004666,0.517998218536377,0.10700460010104709,0.2837954521179199]},{"name":"pottedplant","coordinates":[0.2793259302775065,0.37151463826497394,0.11268271340264215,0.11220560868581136]},{"name":"chair","coordinates":[0.20963191986083984,0.3264972686767578,0.09829059176974826,0.10859014987945556]},{"name":"book","coordinates":[0.3526842541164822,0.47338956197102866,0.10840608808729384,0.028388901551564535]},{"name":"vase","coordinates":[0.2750503963894314,0.40687812169392906,0.04612712330288357,0.03248913288116455]}]}
