{"src":"https://a0.muscache.com/im/pictures/488e031e-08f2-4250-b0cd-2fe2eec92e59.jpg?aki_policy=xx_large","name":"Inviting,Updated Apt w/easy access to Dntwn/Airprt","listingId":11772367,"photoId":"77-8","tags":[{"name":"toilet","coordinates":[0.002138715320163298,0.762738331158956,0.15547219382392036,0.2297301451365153]},{"name":"sink","coordinates":[0.34164241154988606,0.5299583415190379,0.2677546395195855,0.05858968496322632]},{"name":"pottedplant","coordinates":[0.48667474322848847,0.18299598693847657,0.15124437544080946,0.06495227813720703]},{"name":"bottle","coordinates":[0.14410094685024685,0.0726949691772461,0.06148559782240126,0.0728229840596517]},{"name":"bottle","coordinates":[0.09672810501522489,0.08015817999839782,0.05602494875590006,0.05453805526097615]},{"name":"bottle","coordinates":[0.32630532052781847,0.5241213917732239,0.02646222644382053,0.05342551072438558]}]}
