{"src":"https://a0.muscache.com/im/pictures/45abe597-ffeb-4d6d-bb77-7d08356eaa54.jpg?aki_policy=xx_large","name":"康巴什伊旗两河之间,安静、祥和。离机场火车站都是十五分钟路程，核心区域，康巴什，沙漠，草原尽收眼底","listingId":18765857,"photoId":"771-3","tags":[{"name":"chair","coordinates":[0.05249048868815104,0.50299604733785,0.6879662407769097,0.5060666720072429]},{"name":"sofa","coordinates":[0.05249048868815104,0.50299604733785,0.6879662407769097,0.5060666720072429]},{"name":"sofa","coordinates":[0.6320922003851996,0.4030615488688151,0.3267293294270833,0.30698153177897136]},{"name":"pottedplant","coordinates":[0.16828670501708984,0.20356035232543948,0.1772474077012804,0.312259038289388]},{"name":"sofa","coordinates":[0.47405389149983723,0.3650224208831787,0.2264613257514106,0.15403655370076497]},{"name":"tvmonitor","coordinates":[-0.0029288185967339397,0.29337182044982907,0.11173185772365994,0.15452038447062175]}]}
