{"src":"https://a0.muscache.com/im/pictures/45abe597-ffeb-4d6d-bb77-7d08356eaa54.jpg?aki_policy=xx_large","name":"康巴什伊旗两河之间,安静、祥和。离机场火车站都是十五分钟路程，核心区域，康巴什，沙漠，草原尽收眼底","listingId":18765857,"photoId":"771-3","tags":[{"name":"chair","coordinates":[0.22301640510559081,0.7560293833414714,0.3869810104370117,0.5060666720072429]},{"name":"sofa","coordinates":[0.22301640510559081,0.7560293833414714,0.3869810104370117,0.5060666720072429]},{"name":"sofa","coordinates":[0.447444486618042,0.5565523147583008,0.18378524780273436,0.30698153177897136]},{"name":"pottedplant","coordinates":[0.14451210498809813,0.3596898714701335,0.09970166683197021,0.312259038289388]},{"name":"sofa","coordinates":[0.3303475618362427,0.4420406977335612,0.12738449573516847,0.15403655370076497]},{"name":"tvmonitor","coordinates":[0.029777124524116516,0.37063201268513996,0.06284916996955872,0.15452038447062175]}]}
