{"src":"https://a0.muscache.com/im/pictures/7025fd83-3032-4eea-a0bb-70abafca7ca6.jpg?aki_policy=xx_large","name":"Beautiful apartment near the beach of Scheveningen","listingId":21331062,"photoId":"774-4","tags":[{"name":"sofa","coordinates":[0.6541227340698242,0.5943030675252279,0.306870174407959,0.3108896573384603]},{"name":"pottedplant","coordinates":[0.8592282295227051,0.46969674428304037,0.15936086177825928,0.39088427225748695]},{"name":"pottedplant","coordinates":[0.06994892358779907,0.5238871574401855,0.13115824460983277,0.4195173899332682]},{"name":"tvmonitor","coordinates":[0.1713213324546814,0.45895611445109047,0.08745908141136169,0.15344085693359374]},{"name":"vase","coordinates":[0.8485013961791992,0.5594280242919922,0.07847818732261658,0.14810503323872884]},{"name":"vase","coordinates":[0.2729177713394165,0.4900338808695475,0.04970428049564361,0.15919124285380046]}]}
