{"src":"https://a0.muscache.com/im/pictures/a42dd578-7e8d-439f-931b-b0530cd5acda.jpg?aki_policy=xx_large","name":"Spacious, light &amp; cosy apartment central Den Haag","listingId":21361044,"photoId":"775-7","tags":[{"name":"bed","coordinates":[0.17257781558566623,0.8786576588948568,0.30414432949490017,0.22802375157674154]},{"name":"pottedplant","coordinates":[0.8229620191786025,0.5056928952534994,0.09297162161933051,0.15924169222513834]},{"name":"pottedplant","coordinates":[0.6995789845784505,0.5365638097127279,0.0755059560139974,0.08892521063486734]},{"name":"book","coordinates":[0.6174456278483073,0.6775572458902995,0.05766172938876682,0.09406748612721762]},{"name":"book","coordinates":[0.5946825239393446,0.6751246134440104,0.05075425042046441,0.10376661618550619]},{"name":"book","coordinates":[0.6407570732964409,0.6825492223103841,0.05557930204603407,0.08647943337758382]},{"name":"vase","coordinates":[0.7843232048882378,0.5498413721720378,0.046075963973999025,0.0713028351465861]}]}
