{"src":"https://a0.muscache.com/im/pictures/76d6a508-b9c1-4329-8b04-77178d7bfe4f.jpg?aki_policy=xx_large","name":"Spacious, light &amp; cosy apartment central Den Haag","listingId":21361044,"photoId":"775-10","tags":[{"name":"oven","coordinates":[0.6262816958957248,0.7523316701253255,0.20439287821451824,0.31644535064697266]},{"name":"pottedplant","coordinates":[0.30064832899305555,0.1593197504679362,0.18220748901367187,0.10699817339579264]},{"name":"sink","coordinates":[0.438561036851671,0.5041155179341634,0.15875912772284614,0.029741330941518148]},{"name":"bottle","coordinates":[0.36121788024902346,0.4570969899495443,0.025851056310865615,0.0424432913462321]},{"name":"knife","coordinates":[0.661979251437717,0.45151058832804364,0.026598437627156576,0.03166919549306234]},{"name":"knife","coordinates":[0.6439615037706163,0.4537539482116699,0.0235991636912028,0.03213490645090739]},{"name":"knife","coordinates":[0.6399264441596137,0.4695508321126302,0.024810425440470376,0.028853062788645426]}]}
