{"src":"https://a0.muscache.com/im/pictures/4401f879-8f88-4f3a-9a0b-73d01fe30c09.jpg?aki_policy=xx_large","name":"RiverViewSuite N: Netflix + FreeWifi+Pool+Sauna","listingId":18794289,"photoId":"775-2","tags":[{"name":"refrigerator","coordinates":[0.2743821038140191,0.6262324651082357,0.32180714077419703,0.7399783452351888]},{"name":"sink","coordinates":[0.5960325453016493,0.6849161148071289,0.37170927259657116,0.08867471218109131]},{"name":"bowl","coordinates":[0.6409921010335287,0.6302103678385417,0.08167813618977865,0.03556595245997111]},{"name":"cup","coordinates":[0.5317491743299696,0.29020945231119794,0.030326721403333874,0.046073746681213376]},{"name":"cup","coordinates":[0.5090112474229601,0.2891129811604818,0.029249188635084362,0.0425030787785848]}]}
