{"src":"https://a0.muscache.com/im/pictures/9eda486f-dd32-4d7f-9532-e281798b8c3c.jpg?aki_policy=xx_large","name":"RiverViewSuite N: Netflix + FreeWifi+Pool+Sauna","listingId":18794289,"photoId":"775-2","tags":[{"name":"bed","coordinates":[0.01353530883789067,0.5493291854858399,0.819250742594401,0.43152147928873696]},{"name":"sofa","coordinates":[0.6759558359781901,0.7187143882115683,0.3201425340440538,0.2661756038665771]},{"name":"chair","coordinates":[0.7977619184388055,0.5557652076085409,0.04400880336761474,0.13111688296000162]},{"name":"pottedplant","coordinates":[0.5953931636280484,0.32355782985687254,0.025244641304016113,0.052234188715616865]},{"name":"pottedplant","coordinates":[0.5176671147346497,0.6335313936074575,0.024845163027445476,0.046157173315684]}]}
