{"src":"https://a0.muscache.com/im/pictures/37099a4a-9c2e-4ead-9cb4-1ab7ee27a620.jpg?aki_policy=xx_large","name":"mooi en rustig appartement","listingId":21375422,"photoId":"777-9","tags":[{"name":"pottedplant","coordinates":[0.5128409655413916,0.8333521525065104,0.2965273456162591,0.29389476776123047]},{"name":"sofa","coordinates":[0.8872076250597203,0.7351613362630208,0.24319676444959606,0.29070796966552737]},{"name":"chair","coordinates":[0.7981563565464298,0.8007917404174805,0.17222706554166306,0.22030129432678222]},{"name":"chair","coordinates":[0.6626523715742269,0.609869384765625,0.13522064230191866,0.2082173983256022]},{"name":"dog","coordinates":[0.21932039665132036,0.9123753229777019,0.11509760789692278,0.15035579999287924]},{"name":"tvmonitor","coordinates":[0.7753592379147846,0.48668365478515624,0.10576972669822794,0.08948086897532145]},{"name":"pottedplant","coordinates":[0.6220016002323663,0.42691628138224286,0.04206732563710693,0.08685341676076254]}]}
