{"src":"https://a0.muscache.com/im/pictures/ff455cc4-e366-4d50-a4d5-1b47ad3fed33.jpg?aki_policy=xx_large","name":"「1号先生民宿-初夏」地铁口天一广场火车南站LOFT北欧复式","listingId":18818720,"photoId":"778-2","tags":[{"name":"tvmonitor","coordinates":[0.3529448628425598,0.3265609979629516,0.2442253828048706,0.2286454677581787]},{"name":"sink","coordinates":[0.03386425971984863,0.8006320556004842,0.2855384111404419,0.19489881197611492]},{"name":"pottedplant","coordinates":[0.9166632413864135,0.547630516688029,0.06531128883361817,0.07576812108357747]},{"name":"vase","coordinates":[0.6484765827655793,0.4824899276097615,0.0529497504234314,0.07782429059346517]},{"name":"book","coordinates":[0.9011141940951347,0.3561840295791626,0.02634102404117584,0.11587691307067871]},{"name":"book","coordinates":[0.8823573932051659,0.3663835883140564,0.026851871609687807,0.10236491362253824]},{"name":"vase","coordinates":[0.9369590431451797,0.5888482213020324,0.03012625575065613,0.038223433494567874]}]}
