{"src":"https://a0.muscache.com/im/pictures/ff455cc4-e366-4d50-a4d5-1b47ad3fed33.jpg?aki_policy=xx_large","name":"「1号先生民宿-初夏」地铁口天一广场火车南站LOFT北欧复式","listingId":18818720,"photoId":"778-2","tags":[{"name":"tvmonitor","coordinates":[0.47505755424499513,0.440883731842041,0.2442253828048706,0.2286454677581787]},{"name":"sink","coordinates":[0.17663346529006957,0.8980814615885416,0.2855384111404419,0.19489881197611492]},{"name":"pottedplant","coordinates":[0.9493188858032227,0.5855145772298177,0.06531128883361817,0.07576812108357747]},{"name":"vase","coordinates":[0.6749514579772949,0.5214020729064941,0.0529497504234314,0.07782429059346517]},{"name":"book","coordinates":[0.9142847061157227,0.414122486114502,0.02634102404117584,0.11587691307067871]},{"name":"book","coordinates":[0.8957833290100098,0.4175660451253255,0.026851871609687807,0.10236491362253824]},{"name":"vase","coordinates":[0.9520221710205078,0.6079599380493164,0.03012625575065613,0.038223433494567874]}]}
