{"src":"https://a0.muscache.com/im/pictures/3fe358cc-1fe4-467d-8d90-ad4d73321cac.jpg?aki_policy=xx_large","name":"「1号先生民宿-初夏」地铁口天一广场火车南站LOFT北欧复式","listingId":18818720,"photoId":"778-2","tags":[{"name":"diningtable","coordinates":[0.18515279293060302,0.7050209681193034,0.2335413932800293,0.3063390096028646]},{"name":"chair","coordinates":[0.21438112258911132,0.7253316243489584,0.0925369381904602,0.22629127502441407]},{"name":"chair","coordinates":[0.29018867015838623,0.6851149241129557,0.069678795337677,0.21283340454101562]},{"name":"pottedplant","coordinates":[0.5827150821685791,0.5825637181599935,0.0895720362663269,0.11358432769775391]},{"name":"vase","coordinates":[0.14900113344192506,0.5329362869262695,0.029044440388679503,0.029636834065119425]}]}
