{"src":"https://a0.muscache.com/im/pictures/613dcf8f-5600-4d07-96e8-20768686c96d.jpg?aki_policy=xx_large","name":"Charming 19th century house in city center Delft!","listingId":21380795,"photoId":"779-3","tags":[{"name":"sofa","coordinates":[0.8987057156032986,0.8157572428385417,0.1996588389078776,0.3759743690490723]},{"name":"pottedplant","coordinates":[0.8660266452365452,0.5777268091837565,0.22849392361111112,0.24880560239156088]},{"name":"chair","coordinates":[0.36316774156358506,0.6466997146606446,0.14981376859876844,0.3196499188741048]},{"name":"vase","coordinates":[0.7249599880642361,0.5189935048421224,0.020249844921959772,0.03727519114812215]},{"name":"book","coordinates":[0.4724508921305339,0.6218938827514648,0.010421106550428603,0.07019352118174235]},{"name":"book","coordinates":[0.453801261054145,0.6210472742716472,0.010114449924892849,0.06526926755905152]},{"name":"book","coordinates":[0.43345103793674045,0.4461658477783203,0.009978870550791422,0.042142669359842934]},{"name":"book","coordinates":[0.4517698076036241,0.38170086542765297,0.008627650472852919,0.03884145418802897]},{"name":"book","coordinates":[0.4709845648871528,0.4968316713968913,0.007844209671020508,0.04096062580744426]},{"name":"book","coordinates":[0.4505104488796658,0.44537366231282555,0.006702589988708496,0.03921636740366618]}]}
