{"src":"https://a0.muscache.com/im/pictures/183a93b4-6677-4067-b0a1-44364c0e2847.jpg?aki_policy=xx_large","name":"Non active account","listingId":18827161,"photoId":"779-6","tags":[{"name":"chair","coordinates":[0.47555901209513346,0.5535541852315267,0.33832246992323134,0.38097756703694663]},{"name":"chair","coordinates":[0.005595906575520837,0.724150021870931,0.2049292246500651,0.2825164794921875]},{"name":"chair","coordinates":[0.18040088017781578,0.45851726531982423,0.28549332088894314,0.1891913096110026]},{"name":"chair","coordinates":[0.17017418543497723,0.44710096518198655,0.18522400326199,0.1504744052886963]},{"name":"tvmonitor","coordinates":[0.6088751580980089,0.23387120962142943,0.22225348154703775,0.11447352568308512]},{"name":"laptop","coordinates":[0.334930419921875,0.474623199303945,0.19136411878797743,0.09442094961802165]},{"name":"laptop","coordinates":[0.5453237268659804,0.472273317972819,0.10199823379516601,0.08051128387451172]},{"name":"tvmonitor","coordinates":[0.5453237268659804,0.472273317972819,0.10199823379516601,0.08051128387451172]},{"name":"book","coordinates":[0.2600412368774414,0.6237977345784506,0.15211168924967447,0.04512354532877604]},{"name":"vase","coordinates":[0.66601173347897,0.49023244380950926,0.05802517467074924,0.06737440427144369]},{"name":"pottedplant","coordinates":[0.66601173347897,0.49023244380950926,0.05802517467074924,0.06737440427144369]}]}
