{"src":"https://a0.muscache.com/im/pictures/26560160-f28a-4132-ad6f-53bc63a269f5.jpg?aki_policy=xx_large","name":"Non active account","listingId":18827161,"photoId":"779-8","tags":[{"name":"chair","coordinates":[0.00812977684868707,0.5918848037719726,0.40553758409288193,0.4145721435546875]},{"name":"chair","coordinates":[0.6609092712402344,0.606164820988973,0.3109758165147569,0.3552922248840332]},{"name":"chair","coordinates":[0.39186402426825634,0.4692023436228434,0.27207486894395616,0.17460025151570638]},{"name":"tvmonitor","coordinates":[0.7421877596113416,0.49204153219858804,0.10218606524997287,0.07883750597635905]},{"name":"book","coordinates":[0.3228132194942898,0.605665902296702,0.12361625035603842,0.03869667847951253]},{"name":"pottedplant","coordinates":[0.8659905619091458,0.5011362791061401,0.06592147085401746,0.06921334266662597]}]}
