{"src":"https://a0.muscache.com/im/pictures/91c9df2e-4975-42e8-a72c-205b6a168109.jpg?aki_policy=xx_large","name":"Non active account","listingId":18827161,"photoId":"779-17","tags":[{"name":"refrigerator","coordinates":[0.26935710906982424,0.5892037073771159,0.32531144883897567,0.6168064117431641]},{"name":"chair","coordinates":[0.7826343960232205,0.8167849858601888,0.39830873277452256,0.36924959818522135]},{"name":"book","coordinates":[0.9655971950954861,0.6978690465291341,0.07451747258504232,0.03858679135640462]},{"name":"bottle","coordinates":[0.33302152421739367,0.5156571706136067,0.03351385063595242,0.07627803484598795]},{"name":"bottle","coordinates":[0.2871584998236762,0.5158147176106771,0.029376641909281413,0.08007672627766928]},{"name":"bottle","coordinates":[0.3145866394042969,0.3988990147908529,0.030556368827819824,0.07656861146291097]},{"name":"bottle","coordinates":[0.2561724556816949,0.515139643351237,0.026413109567430284,0.08071703910827636]},{"name":"bottle","coordinates":[0.3327294243706597,0.6187144597371419,0.02777381208207872,0.07655168374379476]}]}
