{"src":"https://a0.muscache.com/im/pictures/91c9df2e-4975-42e8-a72c-205b6a168109.jpg?aki_policy=xx_large","name":"Non active account","listingId":18827161,"photoId":"779-17","tags":[{"name":"refrigerator","coordinates":[0.1067013846503364,0.2808005015055339,0.32531144883897567,0.6168064117431641]},{"name":"chair","coordinates":[0.5834800296359592,0.6321601867675781,0.39830873277452256,0.36924959818522135]},{"name":"book","coordinates":[0.928338458802965,0.6785756508509317,0.07451747258504232,0.03858679135640462]},{"name":"bottle","coordinates":[0.31626459889941744,0.47751815319061275,0.03351385063595242,0.07627803484598795]},{"name":"bottle","coordinates":[0.27247017886903546,0.47577635447184247,0.029376641909281413,0.08007672627766928]},{"name":"bottle","coordinates":[0.29930845499038694,0.3606147090593974,0.030556368827819824,0.07656861146291097]},{"name":"bottle","coordinates":[0.24296590089797976,0.4747811237970988,0.026413109567430284,0.08071703910827636]},{"name":"bottle","coordinates":[0.31884251832962035,0.5804386178652445,0.02777381208207872,0.07655168374379476]}]}
