{"src":"https://a0.muscache.com/im/pictures/68f19a00-1933-48b9-af12-8d02705b7937.jpg?aki_policy=xx_large","name":"CANAL Apartment | City Centre-Private Parking","listingId":11830739,"photoId":"78-10","tags":[{"name":"tvmonitor","coordinates":[0.20314154184220812,0.6067571640014648,0.21481255378219466,0.253954823811849]},{"name":"chair","coordinates":[0.61993408203125,0.6234458923339844,0.16624071069522564,0.28351691563924153]},{"name":"book","coordinates":[0.18126839113533705,0.856178347269694,0.16132802744554595,0.06972334384918213]},{"name":"book","coordinates":[0.18104887240623915,0.8294731775919596,0.14421613850968013,0.06399132410685221]},{"name":"bottle","coordinates":[0.5020452927515853,0.463848082224528,0.016257122376463824,0.08790765603383383]}]}
