{"src":"https://a0.muscache.com/im/pictures/4f3bdf67-9015-4716-964a-81b54c47772e.jpg?aki_policy=xx_large","name":"Clean &amp; modest home in 2nd oldest township","listingId":18839080,"photoId":"782-5","tags":[{"name":"sink","coordinates":[0.7616905954149035,0.616738748550415,0.2388117684258355,0.22041934331258137]},{"name":"chair","coordinates":[0.5193922890557183,0.4168735345204671,0.13042564392089845,0.30251874923706057]},{"name":"sofa","coordinates":[0.5193922890557183,0.4168735345204671,0.13042564392089845,0.30251874923706057]},{"name":"oven","coordinates":[0.002934959199693471,0.5583280245463054,0.07788377867804633,0.4222921371459961]},{"name":"chair","coordinates":[0.37896873950958254,0.3344078063964844,0.07892792489793565,0.2612018585205078]},{"name":"microwave","coordinates":[-0.001422492663065593,0.2981202840805054,0.05713937547471788,0.21001712481180826]},{"name":"knife","coordinates":[0.13002710209952462,0.2802010277907054,0.03140610853830973,0.058064766724904376]}]}
