{"src":"https://a0.muscache.com/im/pictures/1f3577e7-f3b4-4a79-a391-8e0f297a8496.jpg?aki_policy=xx_large","name":"Noordeinde Palace City Centre with Sunny Balcony","listingId":21386870,"photoId":"782-3","tags":[{"name":"chair","coordinates":[0.5536273532443576,0.7236365000406901,0.14826791551378038,0.19337493578592937]},{"name":"pottedplant","coordinates":[0.3991850111219618,0.746579106648763,0.12254388597276476,0.12758968671162924]},{"name":"chair","coordinates":[0.8495978461371527,0.7201861063639323,0.07739437421162923,0.1629458745320638]},{"name":"pottedplant","coordinates":[0.14621680577596027,0.6806280771891277,0.0958136240641276,0.11322726408640543]},{"name":"bicycle","coordinates":[0.11469247606065539,0.5817570368448893,0.06277657614813911,0.0800020694732666]},{"name":"car","coordinates":[0.02470171716478136,0.5460198084513347,0.05433641009860569,0.08027457396189372]},{"name":"car","coordinates":[0.07208386527167426,0.5352624893188477,0.057927778032090926,0.05044039885203044]}]}
