{"src":"https://a0.muscache.com/im/pictures/4f3bdf67-9015-4716-964a-81b54c47772e.jpg?aki_policy=xx_large","name":"Clean &amp; modest home in 2nd oldest township","listingId":18839080,"photoId":"782-4","tags":[{"name":"sink","coordinates":[0.8810964796278212,0.7269484202067057,0.2388117684258355,0.22041934331258137]},{"name":"chair","coordinates":[0.5846051110161675,0.5681329091389974,0.13042564392089845,0.30251874923706057]},{"name":"sofa","coordinates":[0.5846051110161675,0.5681329091389974,0.13042564392089845,0.30251874923706057]},{"name":"oven","coordinates":[0.041876848538716635,0.7694740931193034,0.07788377867804633,0.4222921371459961]},{"name":"chair","coordinates":[0.41843270195855037,0.4650087356567383,0.07892792489793565,0.2612018585205078]},{"name":"microwave","coordinates":[0.027147195074293348,0.4031288464864095,0.05713937547471788,0.21001712481180826]},{"name":"knife","coordinates":[0.14573015636867948,0.30923341115315756,0.03140610853830973,0.058064766724904376]}]}
