{"src":"https://a0.muscache.com/im/pictures/0d2e8b95-8ae8-4c11-ab8c-4b9efcd321ad.jpg?aki_policy=xx_large","name":"Noordeinde Palace City Centre with Sunny Balcony","listingId":21386870,"photoId":"782-0","tags":[{"name":"sofa","coordinates":[0.7314307318793403,0.8287092844645182,0.4768035888671875,0.3261259078979492]},{"name":"chair","coordinates":[0.0828817950354682,0.749472173055013,0.14765183130900064,0.4996424357096354]},{"name":"pottedplant","coordinates":[0.6250101301405165,0.3500048319498698,0.09413510428534613,0.23945385615030926]},{"name":"diningtable","coordinates":[0.04224105146196153,0.6343761444091797,0.08950857586330838,0.2199379762013753]},{"name":"chair","coordinates":[0.7412086486816406,0.4841808319091797,0.03793597221374512,0.1676810105641683]}]}
