{"src":"https://a0.muscache.com/im/pictures/3e36251a-5e09-4895-8152-998256fd93aa.jpg?aki_policy=xx_large","name":"Cozy and private apartment in Delft","listingId":21408956,"photoId":"784-4","tags":[{"name":"diningtable","coordinates":[0.6566893683539496,0.8224377950032552,1.4161710951063369,0.3293868700663249]},{"name":"pottedplant","coordinates":[0.6563130696614583,0.6208581288655599,0.3137521531846788,0.5228358586629231]},{"name":"chair","coordinates":[1.1731075710720487,0.9033393859863281,0.28623551262749564,0.1989850680033366]},{"name":"oven","coordinates":[1.666622077094184,0.6213776270548502,0.14913882149590385,0.23217231432596844]},{"name":"bowl","coordinates":[1.351698218451606,0.10750548044840495,0.12314408620198568,0.03189714352289836]},{"name":"bottle","coordinates":[1.4104762607150607,0.46208378473917644,0.026199234856499568,0.05512914657592773]}]}
