{"src":"https://a0.muscache.com/im/pictures/45d71d17-6d93-4631-826f-f8891a8116e6.jpg?aki_policy=xx_large","name":"Cosy 2-room apartment with balcony and two cats","listingId":21419877,"photoId":"786-3","tags":[{"name":"diningtable","coordinates":[0.5809541914198134,0.7820767084757487,0.6044940524631076,0.3939142862955729]},{"name":"chair","coordinates":[0.7436866760253906,0.8148815790812175,0.13845020929972332,0.39370702107747396]},{"name":"chair","coordinates":[0.3281779395209418,0.807222048441569,0.11427205403645833,0.37775602340698244]},{"name":"chair","coordinates":[0.40565706888834635,0.854276974995931,0.14302642610337998,0.2712580998738607]},{"name":"chair","coordinates":[0.29894782172309026,0.7637181599934896,0.06970148616366917,0.32295780181884765]},{"name":"vase","coordinates":[0.07332502471076117,0.8197583516438802,0.060126241048177084,0.19259640375773113]},{"name":"chair","coordinates":[0.6429071214463976,0.6492923100789388,0.07619346512688531,0.1113283634185791]},{"name":"chair","coordinates":[0.5634149763319227,0.6032652537027995,0.06518410046895345,0.09215292930603028]},{"name":"bowl","coordinates":[0.43651394314236114,0.6305364608764649,0.09671721988254123,0.05297254323959351]},{"name":"bowl","coordinates":[0.6047376420762803,0.7333592732747396,0.05749658478630914,0.08571089108784993]}]}
