{"src":"https://a0.muscache.com/im/pictures/164e0ee9-716a-450e-83e8-6eda2197df95.jpg?aki_policy=xx_large","name":"Nice and Cozy apartment in front of the Mall","listingId":18875362,"photoId":"790-9","tags":[{"name":"sink","coordinates":[0.03507760365804041,0.2363707145055135,0.5136693742540147,0.18295976320902507]},{"name":"toilet","coordinates":[0.6827820036146376,0.4896684646606445,0.26149169074164497,0.2700749715169271]},{"name":"pottedplant","coordinates":[0.42366051144070094,0.11562608083089192,0.11197598775227864,0.13846451441446941]},{"name":"bottle","coordinates":[0.3653174029456244,0.8048793037732442,0.1362044546339247,0.10778048038482665]},{"name":"pottedplant","coordinates":[0.5538227770063612,0.14400382041931153,0.11409813563028971,0.116120179494222]},{"name":"vase","coordinates":[0.5633373286989,0.19684052467346191,0.08382381333245172,0.07265637715657552]},{"name":"vase","coordinates":[0.45034055444929333,0.2157545526822408,0.06061251428392198,0.04943695863087972]}]}
