{"src":"https://a0.muscache.com/im/pictures/66956a4c-2a5e-41e4-b842-9bd09acef6f6.jpg?aki_policy=xx_large","name":"【Tony家】交通便利.58㎡.文艺一居006","listingId":18878002,"photoId":"791-4","tags":[{"name":"diningtable","coordinates":[0.40117621421813965,0.8486471176147461,0.3232452154159546,0.28525466918945314]},{"name":"refrigerator","coordinates":[0.8087152481079102,0.8569302876790365,0.18138298988342286,0.2679955800374349]},{"name":"chair","coordinates":[0.5775103092193603,0.8624089558919271,0.11718730926513672,0.27066338857014977]},{"name":"clock","coordinates":[0.18146384954452516,0.3539352734883626,0.1000354528427124,0.14863452911376954]},{"name":"chair","coordinates":[0.3358186721801758,0.709017562866211,0.07935742139816285,0.045132617155710854]},{"name":"bottle","coordinates":[0.9425792694091797,0.7242059707641602,0.03397625982761383,0.1021610975265503]},{"name":"bottle","coordinates":[0.9651286125183105,0.7239922205607097,0.03277142643928528,0.10084182421366374]},{"name":"cup","coordinates":[1.0287833213806152,0.7571224848429362,0.028458818793296814,0.066763440767924]}]}
