{"src":"https://a0.muscache.com/im/pictures/66956a4c-2a5e-41e4-b842-9bd09acef6f6.jpg?aki_policy=xx_large","name":"【Tony家】交通便利.58㎡.文艺一居006","listingId":18878002,"photoId":"791-4","tags":[{"name":"diningtable","coordinates":[0.356601079305013,0.8486471176147461,0.2873290803697374,0.28525466918945314]},{"name":"refrigerator","coordinates":[0.7188579983181423,0.8569302876790365,0.16122932434082032,0.2679955800374349]},{"name":"chair","coordinates":[0.5133424970838759,0.8624089558919271,0.10416649712456597,0.27066338857014977]},{"name":"clock","coordinates":[0.16130119959513348,0.3539352734883626,0.08892040252685547,0.14863452911376954]},{"name":"chair","coordinates":[0.29850548638237845,0.709017562866211,0.0705399301317003,0.045132617155710854]},{"name":"bottle","coordinates":[0.8378482394748263,0.7242059707641602,0.03020111984676785,0.1021610975265503]},{"name":"bottle","coordinates":[0.857892100016276,0.7239922205607097,0.02913015683492025,0.10084182421366374]},{"name":"cup","coordinates":[0.9144740634494357,0.7571224848429362,0.025296727816263836,0.066763440767924]}]}
