{"src":"https://a0.muscache.com/im/pictures/93683ef1-1a41-46c0-999e-acc64be7b518.jpg?aki_policy=xx_large","name":"Romantic apartment in residential area of Voorburg","listingId":21471190,"photoId":"792-4","tags":[{"name":"tvmonitor","coordinates":[0.7965980052947998,0.6153022766113281,0.33854353427886963,0.35833285649617513]},{"name":"pottedplant","coordinates":[0.8188619613647461,0.8859192530314127,0.3534881114959717,0.2291950225830078]},{"name":"sofa","coordinates":[0.41835336685180663,0.6324288050333658,0.2011232852935791,0.31919050216674805]},{"name":"chair","coordinates":[0.41835336685180663,0.6324288050333658,0.2011232852935791,0.31919050216674805]},{"name":"pottedplant","coordinates":[0.13043969869613647,0.42402674357096354,0.16396863460540773,0.31000067392985026]},{"name":"sofa","coordinates":[0.04907675385475159,0.678647232055664,0.10325856208801269,0.3245350519816081]},{"name":"pottedplant","coordinates":[0.4417581081390381,0.4226856231689453,0.1409152030944824,0.17396408716837566]},{"name":"pottedplant","coordinates":[0.5713233947753906,0.4815682411193848,0.08691660165786744,0.1738810380299886]},{"name":"pottedplant","coordinates":[0.21622517108917236,0.49542983373006183,0.09762675762176513,0.14204409917195637]},{"name":"pottedplant","coordinates":[0.3210369348526001,0.47092841466267904,0.04473578929901123,0.14701604843139648]}]}
