{"src":"https://a0.muscache.com/im/pictures/01e3aec2-69b2-465f-99d7-3586522df8e9.jpg?aki_policy=xx_large","name":"Charming and quiet house (centre of Delft).","listingId":21522556,"photoId":"795-2","tags":[{"name":"diningtable","coordinates":[0.7068542904324002,0.8967896143595377,0.5660579257541233,0.18683635393778483]},{"name":"chair","coordinates":[0.4973675621880425,0.9187082290649414,0.23787691328260635,0.13106849988301594]},{"name":"chair","coordinates":[0.7134450276692709,0.8406987508138021,0.15540474785698785,0.09652698040008545]},{"name":"oven","coordinates":[0.4914874606662326,0.7100288391113281,0.06374478340148926,0.20940958658854167]},{"name":"spoon","coordinates":[0.7191574944390191,0.5491295496622721,0.021041511164771185,0.1226560910542806]}]}
