{"src":"https://a0.muscache.com/im/pictures/9058abba-101e-426e-9d0e-ce626539ef59.jpg?aki_policy=xx_large","name":"The South Fair in front of the Window ! ...","listingId":18929866,"photoId":"797-3","tags":[{"name":"bed","coordinates":[0.5484156397097281,0.4691258748372396,0.7583191684100419,0.3028052012125651]},{"name":"sofa","coordinates":[0.5484156397097281,0.4691258748372396,0.7583191684100419,0.3028052012125651]},{"name":"chair","coordinates":[0.09694157684198483,0.7091917673746745,0.19964182067615716,0.5462136586507161]},{"name":"pottedplant","coordinates":[1.1174463503530334,0.234318478902181,0.08192870327618332,0.15951910018920898]},{"name":"bottle","coordinates":[1.0485918499934623,0.2519057750701904,0.02568931100757551,0.08329197565714518]},{"name":"vase","coordinates":[1.1193339966331066,0.2953180948893229,0.036045243650300735,0.04859553972880046]}]}
