{"src":"https://a0.muscache.com/im/pictures/152694af-ef33-4cae-afe9-12c4677df3cc.jpg?aki_policy=xx_large","name":"The South Fair in front of the Window ! ...","listingId":18929866,"photoId":"797-7","tags":[{"name":"oven","coordinates":[0.6022191683451334,0.4954645315806071,0.24891011979844835,0.4936387062072754]},{"name":"microwave","coordinates":[0.8244956599341499,0.3746225198109945,0.17171655231051974,0.19230222702026367]},{"name":"pottedplant","coordinates":[0.06392367151048448,0.37113906542460123,0.10985354317559136,0.24148747126261394]},{"name":"sink","coordinates":[0.3078168551127116,0.5462130745251974,0.25378691355387367,0.08063382307688395]},{"name":"bottle","coordinates":[0.2862856772210863,0.4772099296251933,0.030174591806199816,0.12479283809661865]},{"name":"bottle","coordinates":[0.5453199399842156,0.47013104756673174,0.03481881618499756,0.10759995778401693]},{"name":"bowl","coordinates":[-0.000618476337856718,0.7096097985903422,0.035770755343967016,0.08780198891957601]}]}
