{"src":"https://a0.muscache.com/im/pictures/9058abba-101e-426e-9d0e-ce626539ef59.jpg?aki_policy=xx_large","name":"The South Fair in front of the Window ! ...","listingId":18929866,"photoId":"797-3","tags":[{"name":"bed","coordinates":[0.4551088121202257,0.4691258748372396,0.6292995876736112,0.3028052012125651]},{"name":"sofa","coordinates":[0.4551088121202257,0.4691258748372396,0.6292995876736112,0.3028052012125651]},{"name":"chair","coordinates":[0.08044804467095269,0.7091917673746745,0.16567498313056098,0.5462136586507161]},{"name":"pottedplant","coordinates":[0.9273252699110243,0.234318478902181,0.06798944473266602,0.15951910018920898]},{"name":"bottle","coordinates":[0.8701855977376302,0.2519057750701904,0.02131856017642551,0.08329197565714518]},{"name":"vase","coordinates":[0.9288917541503906,0.2953180948893229,0.029912545945909287,0.04859553972880046]}]}
