{"src":"https://a0.muscache.com/im/pictures/9058abba-101e-426e-9d0e-ce626539ef59.jpg?aki_policy=xx_large","name":"The South Fair in front of the Window ! ...","listingId":18929866,"photoId":"797-6","tags":[{"name":"bed","coordinates":[0.1404590182834201,0.31772327423095703,0.6292995876736112,0.3028052012125651]},{"name":"sofa","coordinates":[0.1404590182834201,0.31772327423095703,0.6292995876736112,0.3028052012125651]},{"name":"chair","coordinates":[-0.0023894468943277958,0.4360849380493164,0.16567498313056098,0.5462136586507161]},{"name":"pottedplant","coordinates":[0.8933305475446912,0.1545589288075765,0.06798944473266602,0.15951910018920898]},{"name":"bottle","coordinates":[0.8595263176494174,0.2102597872416178,0.02131856017642551,0.08329197565714518]},{"name":"vase","coordinates":[0.913935481177436,0.2710203250249227,0.029912545945909287,0.04859553972880046]}]}
