{"src":"https://a0.muscache.com/im/pictures/39edbf96-7eed-474b-9c39-cfc3a9d4d9a8.jpg?aki_policy=xx_large","name":"Beachfront modern fisherman's house","listingId":11858950,"photoId":"80-0","tags":[{"name":"bed","coordinates":[0.17458798090616862,0.8475595474243164,0.31906401316324867,0.2711165428161621]},{"name":"sofa","coordinates":[0.5955549875895182,0.6851448059082031,0.2751563178168403,0.2469581127166748]},{"name":"chair","coordinates":[0.6996195475260417,0.8620423634847005,0.18333261277940538,0.23887461026509602]},{"name":"tvmonitor","coordinates":[0.285957760281033,0.45490090052286786,0.06757569313049316,0.17236754099527996]},{"name":"pottedplant","coordinates":[0.3501364390055339,0.5756127675374348,0.048474417792426214,0.13561132748921711]}]}
