{"src":"https://a0.muscache.com/im/pictures/3968c9e4-19bc-416a-b23e-634fce4be01f.jpg?aki_policy=xx_large","name":"â˜†Modern family apartment close to beach &amp; centre!","listingId":21597866,"photoId":"802-1","tags":[{"name":"diningtable","coordinates":[0.5834916856553819,0.775933583577474,0.4942237006293403,0.404962158203125]},{"name":"sofa","coordinates":[0.18517205980088974,0.6024340311686198,0.2761264165242513,0.3181665102640788]},{"name":"pottedplant","coordinates":[0.5790777418348524,0.4583407084147135,0.23450243208143445,0.31554536819458007]},{"name":"chair","coordinates":[0.4381972418891059,0.807579231262207,0.1698949178059896,0.3648570378621419]},{"name":"chair","coordinates":[0.7026810116238065,0.8896869023640951,0.24017361534966364,0.2214080810546875]},{"name":"chair","coordinates":[0.09915959040323893,0.7552565256754558,0.1127696673075358,0.17694875399271648]},{"name":"chair","coordinates":[0.6649802737765842,0.5990442911783854,0.13877889845106336,0.1263061761856079]}]}
