{"src":"https://a0.muscache.com/im/pictures/73eb6f6c-4e52-4b88-9ce5-0fc9e2623f89.jpg?aki_policy=xx_large","name":"50th Floor Best View of Manila Bay","listingId":19000968,"photoId":"806-12","tags":[{"name":"sofa","coordinates":[0.4339322302076552,0.33805028597513836,0.3235217836168077,0.3129725456237793]},{"name":"sink","coordinates":[0.06092841890123156,0.4532081007957459,0.20869242350260417,0.12322641213734944]},{"name":"microwave","coordinates":[0.20901880264282227,0.32237459818522135,0.15299294789632162,0.1431051254272461]},{"name":"bowl","coordinates":[0.7116446812947591,0.46341262261072796,0.09071040683322483,0.05657172997792562]},{"name":"cup","coordinates":[0.8038769284884135,0.5349480986595154,0.04216696686214871,0.11760443846384684]},{"name":"cup","coordinates":[0.801493419541253,0.4428007245063782,0.03538613319396973,0.09383682409922282]}]}
