{"src":"https://a0.muscache.com/im/pictures/33a88cdf-4aa2-4164-9f0c-cabcad894536.jpg?aki_policy=xx_large","name":"Historic Greendale, Milwaukee Attractions","listingId":19035412,"photoId":"809-6","tags":[{"name":"sofa","coordinates":[0.46824593544006343,0.5702386697133383,0.4654706001281738,0.41668386459350587]},{"name":"sofa","coordinates":[0.10858805179595948,0.4102168560028076,0.21309714317321776,0.22754100163777669]},{"name":"diningtable","coordinates":[0.4365614235401154,0.4362117767333985,0.16957706212997437,0.18369496663411458]},{"name":"chair","coordinates":[0.4222012281417847,0.4340286572774252,0.10267634391784668,0.2072329839070638]},{"name":"tvmonitor","coordinates":[0.7893631160259247,0.39526253541310624,0.08757473230361938,0.15684043566385905]},{"name":"chair","coordinates":[0.5637723237276078,0.43710420926411947,0.06875261664390564,0.1974249839782715]}]}
