{"src":"https://a0.muscache.com/im/pictures/7b49fd01-3eb2-47d1-8016-82da61aa7ef5.jpg?aki_policy=xx_large","name":"Serendipity in Serenity Gardens","listingId":11915244,"photoId":"81-3","tags":[{"name":"umbrella","coordinates":[0.48230805397033694,0.3857776006062826,0.8961854934692383,0.9138750076293946]},{"name":"chair","coordinates":[0.48920111656188964,0.7846424102783203,0.45904879570007323,0.45821005503336587]},{"name":"diningtable","coordinates":[0.44266743659973146,0.8339772542317708,0.40904579162597654,0.24142279624938964]},{"name":"chair","coordinates":[0.8901407241821289,0.721388562520345,0.23432044982910155,0.39323724110921227]},{"name":"chair","coordinates":[0.5999523162841797,0.7657038370768229,0.18715250492095947,0.48285484313964844]},{"name":"chair","coordinates":[0.19028232097625733,0.8393056869506836,0.30220794677734375,0.2724025090535482]},{"name":"cup","coordinates":[0.4854163646697998,0.7512423833211263,0.03787317872047424,0.08643593788146972]}]}
