{"src":"https://a0.muscache.com/im/pictures/7b49fd01-3eb2-47d1-8016-82da61aa7ef5.jpg?aki_policy=xx_large","name":"Serendipity in Serenity Gardens","listingId":11915244,"photoId":"81-4","tags":[{"name":"umbrella","coordinates":[0.03421530723571781,-0.0711599032084147,0.8961854934692383,0.9138750076293946]},{"name":"chair","coordinates":[0.25967671871185305,0.5555373827616373,0.45904879570007323,0.45821005503336587]},{"name":"diningtable","coordinates":[0.2381445407867432,0.713265856107076,0.40904579162597654,0.24142279624938964]},{"name":"chair","coordinates":[0.7729804992675781,0.5247699419657389,0.23432044982910155,0.39323724110921227]},{"name":"chair","coordinates":[0.5063760638236999,0.5242764155069987,0.18715250492095947,0.48285484313964844]},{"name":"chair","coordinates":[0.039178347587585455,0.7031044324239095,0.30220794677734375,0.2724025090535482]},{"name":"cup","coordinates":[0.4664797753095627,0.7080244143803914,0.03787317872047424,0.08643593788146972]}]}
