{"src":"https://a0.muscache.com/im/pictures/18c2bf12-6803-4166-a18e-5599366a36f8.jpg?aki_policy=xx_large","name":"Houseboat close to the beach and city center","listingId":21709353,"photoId":"811-2","tags":[{"name":"sofa","coordinates":[0.3386672019958496,0.6060534159342448,0.6130469640096029,0.2895066261291504]},{"name":"chair","coordinates":[0.9002517064412435,0.8299240748087565,0.21506832440694174,0.31115315755208334]},{"name":"diningtable","coordinates":[0.8600686391194662,0.7185490290323894,0.26201244990030925,0.2211160182952881]},{"name":"sofa","coordinates":[0.8012179692586263,0.4950173060099284,0.279695733388265,0.18043904304504393]},{"name":"chair","coordinates":[0.9415234247843425,0.581812032063802,0.13023553689320883,0.12207525571187337]},{"name":"pottedplant","coordinates":[0.2371431350708008,0.30237658818562824,0.12765390078226727,0.07723243236541748]}]}
