{"src":"https://a0.muscache.com/im/pictures/5cd8bebd-f1f7-4399-895d-150660fa4bad.jpg?aki_policy=xx_large","name":"OYADO MAGURO","listingId":19086690,"photoId":"814-10","tags":[{"name":"diningtable","coordinates":[0.03099132415473549,0.11223904291788733,0.5079408696173291,0.8019273757934571]},{"name":"chair","coordinates":[0.5992015801380535,0.4404477755228679,0.39917136901259587,0.5658737818400065]},{"name":"chair","coordinates":[0.5919094857145386,0.1562110265096029,0.18681978148562806,0.31665382385253904]},{"name":"bowl","coordinates":[0.21618295879709834,0.14595254262288412,0.12674590766513033,0.18417552312215169]},{"name":"pottedplant","coordinates":[0.3387420845829792,-0.009553829828898117,0.13742676206878704,0.16642177899678548]},{"name":"cup","coordinates":[0.3791994097508812,0.06456942160924276,0.08071795667065736,0.09576385021209717]}]}
