{"src":"https://a0.muscache.com/im/pictures/5cd8bebd-f1f7-4399-895d-150660fa4bad.jpg?aki_policy=xx_large","name":"OYADO MAGURO","listingId":19086690,"photoId":"814-7","tags":[{"name":"diningtable","coordinates":[0.28496175896340004,0.5132027308146159,0.5079408696173291,0.8019273757934571]},{"name":"chair","coordinates":[0.7987872646443515,0.7233846664428711,0.39917136901259587,0.5658737818400065]},{"name":"chair","coordinates":[0.6853193764573526,0.3145379384358724,0.18681978148562806,0.31665382385253904]},{"name":"bowl","coordinates":[0.2795559126296635,0.23804030418395997,0.12674590766513033,0.18417552312215169]},{"name":"pottedplant","coordinates":[0.4074554656173727,0.07365705966949462,0.13742676206878704,0.16642177899678548]},{"name":"cup","coordinates":[0.4195583880862099,0.11245134671529135,0.08071795667065736,0.09576385021209717]}]}
