{"src":"https://a0.muscache.com/im/pictures/0fa1ce6d-08c9-4999-8723-fc640f625b5c.jpg?aki_policy=xx_large","name":"17th century Canal House, city centre, 4-6p","listingId":21832170,"photoId":"815-9","tags":[{"name":"sofa","coordinates":[0.7495994567871094,0.592170524597168,0.4544481489393446,0.32557299931844075]},{"name":"pottedplant","coordinates":[0.11982746124267578,0.7156769434611002,0.24463123745388454,0.34703251520792644]},{"name":"chair","coordinates":[0.39138064914279513,0.6949225107828776,0.1677332984076606,0.36479854583740234]},{"name":"chair","coordinates":[0.543604236178928,0.7466094970703125,0.1689043680826823,0.33665288289388023]},{"name":"person","coordinates":[0.47688153584798176,0.4549954096476237,0.10308650334676107,0.21570175488789875]}]}
