{"src":"https://a0.muscache.com/im/pictures/b78363f3-3127-497a-acd3-89bd761e124c.jpg?aki_policy=xx_large","name":"Vacanza relax","listingId":19095322,"photoId":"816-1","tags":[{"name":"refrigerator","coordinates":[0.12058795690536499,0.5330442746480306,0.2145003080368042,0.38071746826171876]},{"name":"sink","coordinates":[0.7950709342956543,0.6149273554484049,0.22198691368103027,0.042573209603627524]},{"name":"pottedplant","coordinates":[0.46751832962036133,0.5376286188761393,0.06763149499893188,0.09735294977823893]},{"name":"bottle","coordinates":[0.8939980506896973,0.5424566904703776,0.03332498967647553,0.1105864683787028]},{"name":"bottle","coordinates":[0.3896935224533081,0.6229468027750651,0.0317822277545929,0.0912600040435791]},{"name":"bottle","coordinates":[0.5431236267089844,0.5421407063802083,0.024760028719902037,0.10523006121317545]},{"name":"bottle","coordinates":[0.569209623336792,0.5386903762817383,0.023470892012119292,0.10679992834726969]},{"name":"bowl","coordinates":[0.7446105003356933,0.23844989140828451,0.0453931450843811,0.034702610969543454]}]}
