{"src":"https://a0.muscache.com/im/pictures/b78363f3-3127-497a-acd3-89bd761e124c.jpg?aki_policy=xx_large","name":"Vacanza relax","listingId":19095322,"photoId":"816-1","tags":[{"name":"refrigerator","coordinates":[0.013337802886962888,0.34268554051717126,0.2145003080368042,0.38071746826171876]},{"name":"sink","coordinates":[0.6840774774551392,0.5936407506465912,0.22198691368103027,0.042573209603627524]},{"name":"pottedplant","coordinates":[0.4337025821208954,0.48895214398701986,0.06763149499893188,0.09735294977823893]},{"name":"bottle","coordinates":[0.8773355558514595,0.4871634562810262,0.03332498967647553,0.1105864683787028]},{"name":"bottle","coordinates":[0.37380240857601166,0.5773168007532755,0.0317822277545929,0.0912600040435791]},{"name":"bottle","coordinates":[0.5307436123490333,0.48952567577362055,0.024760028719902037,0.10523006121317545]},{"name":"bottle","coordinates":[0.5574741773307323,0.4852904121081035,0.023470892012119292,0.10679992834726969]},{"name":"bowl","coordinates":[0.7219139277935027,0.22109858592351278,0.0453931450843811,0.034702610969543454]}]}
