{"src":"https://a0.muscache.com/im/pictures/36c5ec7f-fe91-48e3-98b5-aca73cd5946e.jpg?aki_policy=xx_large","name":"Luxe Appartment Centre The Hague","listingId":21834563,"photoId":"816-3","tags":[{"name":"sofa","coordinates":[0.5904359181722005,0.7131698608398438,0.6720047420925565,0.27673381169637046]},{"name":"diningtable","coordinates":[0.6320618947347005,0.8974359512329102,0.7912589179144965,0.19694056510925292]},{"name":"sofa","coordinates":[0.14498874876234266,0.6171590169270833,0.2250078837076823,0.2268711725870768]},{"name":"tvmonitor","coordinates":[0.4655909220377604,0.45576613744099936,0.13359014723036025,0.1073156197865804]},{"name":"chair","coordinates":[0.5666762034098307,0.7841697057088216,0.18960293663872613,0.07073726654052734]},{"name":"chair","coordinates":[0.8612325032552083,0.776383908589681,0.17413292990790474,0.05908447106679281]}]}
