{"src":"https://a0.muscache.com/im/pictures/b60b0693-b393-4ed6-86a6-7ee76c98288f.jpg?aki_policy=xx_large","name":"Luxe Appartment Centre The Hague","listingId":21834563,"photoId":"816-1","tags":[{"name":"diningtable","coordinates":[0.3289001252916124,0.812214724222819,0.6907825046115451,0.36004231770833334]},{"name":"sofa","coordinates":[0.5191980997721354,0.5197718620300293,0.30990441640218097,0.354887866973877]},{"name":"diningtable","coordinates":[0.196736568874783,0.49618342717488606,0.25956270429823136,0.2876776695251465]},{"name":"sofa","coordinates":[0.7110106150309244,0.3936457633972168,0.13336328930324978,0.1809108893076579]},{"name":"chair","coordinates":[0.7110106150309244,0.3936457633972168,0.13336328930324978,0.1809108893076579]},{"name":"chair","coordinates":[0.286082394917806,0.45931917826334634,0.07902868058946398,0.19580276807149252]},{"name":"chair","coordinates":[0.5300515492757162,0.7083685557047527,0.1171878178914388,0.11465411980946859]},{"name":"chair","coordinates":[0.38747088114420575,0.6764778137207031,0.11061118443806967,0.08514829476674397]},{"name":"tvmonitor","coordinates":[0.9459820217556424,0.4088415781656901,0.047724506590101454,0.16953365008036295]},{"name":"remote","coordinates":[0.6618826548258464,0.4932644208272298,0.0294750452041626,0.017605159680048624]}]}
