{"src":"https://a0.muscache.com/im/pictures/f74702ef-b611-48aa-9a05-b6cde3b4e0e9.jpg?aki_policy=xx_large","name":"Apartamento a pasos de la Plaza Independencia","listingId":19119801,"photoId":"820-4","tags":[{"name":"refrigerator","coordinates":[0.286279911465115,0.8228758494059245,0.5126086764865452,0.335062567392985]},{"name":"microwave","coordinates":[0.16855052312215169,0.6004110972086588,0.3204933378431532,0.2887728691101074]},{"name":"microwave","coordinates":[0.5450748019748264,0.13242894808451336,0.3820011138916016,0.1796629269917806]},{"name":"sink","coordinates":[0.4340477837456597,0.5879315694173177,0.24283699459499783,0.10706345240275066]},{"name":"pottedplant","coordinates":[0.0446145322587755,0.1794871171315511,0.0789240148332384,0.053196879227956136]},{"name":"pottedplant","coordinates":[0.1794788572523329,0.1879389444986979,0.06030605634053548,0.04720116058985392]},{"name":"pottedplant","coordinates":[0.10933458540174697,0.18724815050760904,0.0567331420050727,0.043796753883361815]}]}
