{"src":"https://a0.muscache.com/im/pictures/40a635bc-b470-494f-ac9d-ed785df8e44c.jpg?aki_policy=xx_large","name":"Den Haag","listingId":21847683,"photoId":"820-0","tags":[{"name":"diningtable","coordinates":[0.5530293085803725,0.7263525644938151,0.7809582017872432,0.43690360387166344]},{"name":"bed","coordinates":[0.4232107362790739,0.4396130879720052,0.4034271936982734,0.19268088340759276]},{"name":"chair","coordinates":[0.6854549042166096,0.5213737487792969,0.18367843976303866,0.12848293781280518]},{"name":"bowl","coordinates":[0.46581414627702267,0.699014409383138,0.17792237512597212,0.11983279387156169]},{"name":"cup","coordinates":[0.7322258100117722,0.6768121083577474,0.09294073549035477,0.10530634721120198]},{"name":"fork","coordinates":[0.31648355423043306,0.7142236073811848,0.09168506430708655,0.10338037808736165]},{"name":"bowl","coordinates":[0.5825666662764876,0.5496335983276367,0.12549236593725474,0.06772214571634928]},{"name":"cup","coordinates":[0.6182589596264982,0.6685924530029297,0.06843929639145664,0.12004392941792806]},{"name":"cup","coordinates":[0.40481647508873786,0.5839164098103841,0.0742848191631439,0.08030706246693929]},{"name":"cup","coordinates":[0.4939098619434932,0.580898666381836,0.05226620800418941,0.07373878955841065]},{"name":"clock","coordinates":[0.3389625723503496,0.2074939250946045,0.031614116337745704,0.03131853342056275]}]}
