{"src":"https://a0.muscache.com/im/pictures/c11a1536-b727-4197-b12b-cc55fc125a23.jpg?aki_policy=xx_large","name":"Casa Cary - Feel the authentic Cuban kindness","listingId":19133212,"photoId":"822-8","tags":[{"name":"diningtable","coordinates":[0.3211518817477756,0.7171312014261881,0.6590860578748915,0.27711734771728513]},{"name":"refrigerator","coordinates":[0.24037951893276635,0.2686785538991292,0.11676327387491862,0.38433974583943686]},{"name":"oven","coordinates":[0.66399261686537,0.5198453267415365,0.15414248572455513,0.22451693216959637]},{"name":"chair","coordinates":[0.4103384229871962,0.5953739881515503,0.12260403103298612,0.22887978553771973]},{"name":"diningtable","coordinates":[0.005865886476304795,0.7940074443817139,0.10845927132500542,0.19381405512491862]},{"name":"chair","coordinates":[0.5957373936971029,0.5813701550165812,0.09645729064941407,0.17229501406351724]},{"name":"sink","coordinates":[0.5368663734859891,0.4287123878796895,0.17734443876478406,0.08911275068918864]},{"name":"sink","coordinates":[0.5633613639407687,0.4512454370657603,0.11812361611260308,0.048718639214833576]},{"name":"orange","coordinates":[0.6814045641157362,0.8042161444822947,0.028812185923258463,0.039251935482025144]},{"name":"orange","coordinates":[0.6353147890832689,0.7788551668326059,0.02327351835038927,0.04017123778661092]},{"name":"orange","coordinates":[0.654074403974745,0.811337794860204,0.02410013410780165,0.03556326627731323]},{"name":"bottle","coordinates":[0.40976737406518726,0.1607830305894216,0.011729408635033502,0.03550091981887817]},{"name":"bottle","coordinates":[0.39115978479385377,0.16075217723846436,0.011184085739983453,0.036910263697306316]},{"name":"bottle","coordinates":[0.368865876727634,0.16037250757217406,0.010977946387396919,0.03743865489959717]}]}
