{"src":"https://a0.muscache.com/im/pictures/df1712b9-60c4-4f68-8691-cdde55eaefd9.jpg?aki_policy=xx_large","name":"Casa Cary - Feel the authentic Cuban kindness","listingId":19133212,"photoId":"822-7","tags":[{"name":"chair","coordinates":[0.1593388795852661,0.8023507436116536,0.2877963542938232,0.3749579111735026]},{"name":"chair","coordinates":[0.7860507488250732,0.9176337560017903,0.39159116744995115,0.16934946378072102]},{"name":"tvmonitor","coordinates":[0.892547607421875,0.5606171290079752,0.21595206260681152,0.26509580612182615]},{"name":"chair","coordinates":[0.4812955379486084,0.6395757675170899,0.2034050464630127,0.23577755292256672]},{"name":"sofa","coordinates":[0.4812955379486084,0.6395757675170899,0.2034050464630127,0.23577755292256672]},{"name":"chair","coordinates":[0.1427021622657776,0.6358947118123373,0.22863390445709228,0.20113080342610676]},{"name":"chair","coordinates":[0.1316073179244995,0.5769946416219075,0.1821995735168457,0.13133248488108318]},{"name":"vase","coordinates":[0.8922556877136231,0.17638675371805826,0.04288603067398071,0.07559463977813721]}]}
