{"src":"https://a0.muscache.com/im/pictures/df1712b9-60c4-4f68-8691-cdde55eaefd9.jpg?aki_policy=xx_large","name":"Casa Cary - Feel the authentic Cuban kindness","listingId":19133212,"photoId":"822-9","tags":[{"name":"chair","coordinates":[0.015440702438354492,0.6148717880249023,0.2877963542938232,0.3749579111735026]},{"name":"chair","coordinates":[0.5902551651000976,0.8329590241114297,0.39159116744995115,0.16934946378072102]},{"name":"tvmonitor","coordinates":[0.7845715761184693,0.42806922594706215,0.21595206260681152,0.26509580612182615]},{"name":"chair","coordinates":[0.37959301471710205,0.5216869910558065,0.2034050464630127,0.23577755292256672]},{"name":"sofa","coordinates":[0.37959301471710205,0.5216869910558065,0.2034050464630127,0.23577755292256672]},{"name":"chair","coordinates":[0.028385210037231448,0.5353293100992839,0.22863390445709228,0.20113080342610676]},{"name":"chair","coordinates":[0.04050753116607665,0.511328399181366,0.1821995735168457,0.13133248488108318]},{"name":"vase","coordinates":[0.8708126723766327,0.13858943382898964,0.04288603067398071,0.07559463977813721]}]}
