{"src":"https://a0.muscache.com/im/pictures/df1712b9-60c4-4f68-8691-cdde55eaefd9.jpg?aki_policy=xx_large","name":"Casa Cary - Feel the authentic Cuban kindness","listingId":19133212,"photoId":"822-7","tags":[{"name":"chair","coordinates":[0.32068202180682487,0.8023507436116536,0.5792127885158707,0.3749579111735026]},{"name":"chair","coordinates":[1.5819889284529776,0.9176337560017903,0.7881080099621659,0.16934946378072102]},{"name":"tvmonitor","coordinates":[1.796322228773585,0.5606171290079752,0.43462050335962066,0.26509580612182615]},{"name":"chair","coordinates":[0.9686451078210987,0.6395757675170899,0.4093686469695853,0.23577755292256672]},{"name":"sofa","coordinates":[0.9686451078210987,0.6395757675170899,0.4093686469695853,0.23577755292256672]},{"name":"chair","coordinates":[0.28719932028332595,0.6358947118123373,0.46014370708345614,0.20113080342610676]},{"name":"chair","coordinates":[0.26487007381031347,0.5769946416219075,0.3666909655684945,0.13133248488108318]},{"name":"vase","coordinates":[1.7957347174110652,0.17638675371805826,0.08631150827467816,0.07559463977813721]}]}
