{"src":"https://a0.muscache.com/im/pictures/a4a77a49-5dbc-4f82-93e9-750ea8c9f7f1.jpg?aki_policy=xx_large","name":"LS!Cozy Bed In BackPacker 16 Hostel! 1400+Reviews!","listingId":19138645,"photoId":"823-16","tags":[{"name":"chair","coordinates":[0.5032297372817993,0.621581753094991,0.16789259910583496,0.25144543647766116]},{"name":"chair","coordinates":[0.6403068840503693,0.5588872591654459,0.10742372274398804,0.2273459752400716]},{"name":"chair","coordinates":[0.8379216760396958,0.40676719347635903,0.08227222561836242,0.16153186162312824]},{"name":"pottedplant","coordinates":[0.32051312923431396,0.5436955610911052,0.09546351432800293,0.11454826990763346]},{"name":"chair","coordinates":[0.8929981350898744,0.4002444664637248,0.04925706386566162,0.14637742042541504]},{"name":"book","coordinates":[0.46504627466201787,0.5033564309279124,0.14683377742767334,0.04829818805058797]},{"name":"book","coordinates":[0.47392798662185665,0.49026671846707665,0.1269294500350952,0.04181496699651082]},{"name":"pottedplant","coordinates":[0.5772377699613571,0.4613831579685211,0.06411147713661194,0.051098303000132246]},{"name":"vase","coordinates":[0.7909886077046394,0.390452774365743,0.029394778609275817,0.0390654722849528]}]}
