{"src":"https://a0.muscache.com/im/pictures/2a4fcf46-3593-44ab-a1e9-425f8a33673d.jpg?aki_policy=xx_large","name":"LS!Cozy Bed In BackPacker 16 Hostel! 1400+Reviews!","listingId":19138645,"photoId":"823-17","tags":[{"name":"sofa","coordinates":[0.67297240363227,0.4495197931925456,0.23017281426323785,0.2950435638427734]},{"name":"sofa","coordinates":[0.18289462195502387,0.5595379988352458,0.22851253085666232,0.27982053756713865]},{"name":"sofa","coordinates":[0.3189340591430664,0.47589073181152347,0.20237990485297308,0.22356287638346353]},{"name":"chair","coordinates":[0.5224938286675347,0.4859798828760783,0.15105514526367186,0.21656460762023927]},{"name":"sofa","coordinates":[0.5224938286675347,0.4859798828760783,0.15105514526367186,0.21656460762023927]},{"name":"sofa","coordinates":[0.6593488057454427,0.4909206072489421,0.12664659288194444,0.23899606068929036]},{"name":"pottedplant","coordinates":[0.8142841233147515,0.7817450364430746,0.06811567942301432,0.16707480748494466]},{"name":"book","coordinates":[0.13202535841200086,0.8189981420834859,0.10289633009168837,0.09035747051239014]},{"name":"vase","coordinates":[0.8379002531369527,0.6112261692682902,0.040542334980434844,0.08869585990905762]},{"name":"pottedplant","coordinates":[0.8379002531369527,0.6112261692682902,0.040542334980434844,0.08869585990905762]},{"name":"pottedplant","coordinates":[0.8375337945090401,0.49875734249750775,0.04553686247931586,0.07342037359873453]},{"name":"bottle","coordinates":[0.3215755495760176,0.6800755143165588,0.018169989850785998,0.09115258057912191]}]}
