{"src":"https://a0.muscache.com/im/pictures/f3c0756a-1acd-44e3-873d-0c67f0957a0a.jpg?aki_policy=xx_large","name":"LS!Cozy Bed In BackPacker 16 Hostel! 1400+Reviews!","listingId":19138645,"photoId":"823-10","tags":[{"name":"pottedplant","coordinates":[0.5479763068144775,0.02279373804728191,0.40681697330819716,0.5365653355916341]},{"name":"banana","coordinates":[0.3044544373831928,0.6589464823404948,0.5607626627151425,0.3286028544108073]},{"name":"apple","coordinates":[0.5504665560450441,0.6299054384231567,0.19812523174683805,0.17993013064066568]},{"name":"banana","coordinates":[0.3064950563645661,0.5460087140401204,0.13988838673301135,0.21242694854736327]},{"name":"bowl","coordinates":[0.33704795359901996,0.3482993046442668,0.19484030520634127,0.10975832939147949]}]}
