{"src":"https://a0.muscache.com/im/pictures/00476bf8-5bae-4ca4-b338-990abe38bfd1.jpg?aki_policy=xx_large","name":"Private room 1 -2 guests. 3 guest fold bed possib","listingId":21924401,"photoId":"826-6","tags":[{"name":"diningtable","coordinates":[0.4394736010288135,0.6089732487996419,0.8357981407591202,0.835150400797526]},{"name":"chair","coordinates":[0.1253853007959194,0.3311187744140625,0.15583972630753196,0.2921405474344889]},{"name":"sandwich","coordinates":[0.22401391112582708,0.7379172643025717,0.17997965451132755,0.18276309967041016]},{"name":"fork","coordinates":[0.4893105524633405,0.8314795176188151,0.17752221452661168,0.15468241373697916]},{"name":"cup","coordinates":[0.2493746516018978,0.4413601875305176,0.1230614352465017,0.18137270609537762]},{"name":"bottle","coordinates":[0.5789958206198588,0.38303136825561523,0.06413134791820346,0.21030702590942382]},{"name":"bottle","coordinates":[0.6404167469990611,0.412052853902181,0.05005911525568055,0.22208000818888346]},{"name":"cup","coordinates":[0.6879837843822648,0.4703869183858236,0.07258655619041432,0.15261244773864746]},{"name":"bowl","coordinates":[0.3048198738152718,0.592588233947754,0.11472885939525773,0.09287935892740885]},{"name":"cup","coordinates":[0.6948890958903344,0.628120231628418,0.07434137150623939,0.13969640731811522]},{"name":"cup","coordinates":[0.7973855472941256,0.6516057968139648,0.04952121019704488,0.16172935167948405]},{"name":"bottle","coordinates":[0.5400587090095226,0.3875920295715332,0.038701648193708645,0.14762318929036458]}]}
