{"src":"https://a0.muscache.com/im/pictures/19fde396-d263-48b4-879f-932ba80172a5.jpg?aki_policy=xx_large","name":"domineer-Athidhi Devo Bhava.202","listingId":19166184,"photoId":"829-12","tags":[{"name":"chair","coordinates":[0.4911485195159912,0.7901180903116862,0.18941256999969483,0.39816354115804037]},{"name":"chair","coordinates":[0.35205874443054197,0.7414718627929687,0.11843428611755372,0.3883759180704753]},{"name":"refrigerator","coordinates":[0.5752241611480713,0.4299000104268392,0.1293213725090027,0.18351710637410482]},{"name":"chair","coordinates":[0.603152847290039,0.6987560272216797,0.06295968294143676,0.31777114868164064]},{"name":"tvmonitor","coordinates":[0.8549869537353516,0.4841209093729655,0.052965974807739256,0.11415586471557618]},{"name":"chair","coordinates":[0.22640745639801024,0.5381778081258138,0.037314006686210634,0.12126495838165283]},{"name":"sink","coordinates":[0.6724422454833985,0.5111840248107911,0.08638505339622497,0.04479581912358602]}]}
