{"src":"https://a0.muscache.com/im/pictures/3eedffdc-f548-42f3-b88f-df618894dd98.jpg?aki_policy=xx_large","name":"Lovely beach apartment","listingId":21962698,"photoId":"829-0","tags":[{"name":"diningtable","coordinates":[0.2955598619249132,0.848931630452474,0.598344251844618,0.26718212763468424]},{"name":"sofa","coordinates":[0.5761323716905382,0.6886017481486003,0.2626363966200087,0.21714406013488768]},{"name":"pottedplant","coordinates":[0.06731108029683432,0.6459394454956054,0.13345406850179037,0.23811448415120443]},{"name":"chair","coordinates":[0.39130702548556856,0.719385274251302,0.1408081160651313,0.1754832108815511]},{"name":"chair","coordinates":[0.05807807710435656,0.9203168233235677,0.11452784008449979,0.16149349212646485]},{"name":"vase","coordinates":[0.05245035489400228,0.7143206278483073,0.03996609052022298,0.10097808043162028]}]}
