{"src":"https://a0.muscache.com/im/pictures/1c917b90-15cc-48c2-bcdc-1cc7d2e0939b.jpg?aki_policy=xx_large","name":"domineer-Athidhi Devo Bhava.202","listingId":19166184,"photoId":"829-0","tags":[{"name":"sofa","coordinates":[0.6014772295951842,0.4538170655568441,0.3786046266555786,0.3248331387837728]},{"name":"sofa","coordinates":[0.7378431797027587,0.6368394533793131,0.2563542366027832,0.36657403310139974]},{"name":"tvmonitor","coordinates":[0.20233356356620788,0.3442792097727458,0.17011581659317015,0.16310453414916992]},{"name":"pottedplant","coordinates":[0.43048332035541537,0.3262612342834473,0.055418914556503295,0.28311341603597007]},{"name":"vase","coordinates":[0.6061485230922699,0.5968970894813537,0.04363595247268677,0.08076039155324301]},{"name":"vase","coordinates":[0.4522498704493046,0.4715096950531006,0.02139499634504318,0.13659435907999676]},{"name":"clock","coordinates":[0.2663324996829033,0.17423450152079265,0.03993317186832428,0.061012522379557295]}]}
