{"src":"https://a0.muscache.com/im/pictures/1c917b90-15cc-48c2-bcdc-1cc7d2e0939b.jpg?aki_policy=xx_large","name":"domineer-Athidhi Devo Bhava.202","listingId":19166184,"photoId":"829-0","tags":[{"name":"sofa","coordinates":[0.7907795429229736,0.6162336349487305,0.3786046266555786,0.3248331387837728]},{"name":"sofa","coordinates":[0.8660202980041504,0.820126469930013,0.2563542366027832,0.36657403310139974]},{"name":"tvmonitor","coordinates":[0.28739147186279296,0.42583147684733075,0.17011581659317015,0.16310453414916992]},{"name":"pottedplant","coordinates":[0.458192777633667,0.4678179423014323,0.055418914556503295,0.28311341603597007]},{"name":"vase","coordinates":[0.6279664993286133,0.6372772852579752,0.04363595247268677,0.08076039155324301]},{"name":"vase","coordinates":[0.46294736862182617,0.539806874593099,0.02139499634504318,0.13659435907999676]},{"name":"clock","coordinates":[0.2862990856170654,0.2047407627105713,0.03993317186832428,0.061012522379557295]}]}
