{"src":"https://a0.muscache.com/im/pictures/0a6f9d24-d71f-43ed-98a0-69eeac9f6ae3.jpg?aki_policy=xx_large","name":"17th century Canal House, city centre, 2-4p","listingId":22055158,"photoId":"833-2","tags":[{"name":"diningtable","coordinates":[0.29242216746012367,0.7564940134684245,0.7018746693929037,0.4451991717020671]},{"name":"chair","coordinates":[0.14593790902031792,0.803103510538737,0.21177510155571833,0.3673194567362467]},{"name":"chair","coordinates":[0.3900906032986111,0.7986512502034505,0.1818174786037869,0.41179234186808267]},{"name":"pottedplant","coordinates":[0.4804487864176432,0.48945302963256837,0.11226577758789062,0.17473621368408204]},{"name":"vase","coordinates":[0.4903180440266927,0.5503515243530274,0.03308317131466336,0.05349497795104981]}]}
