{"src":"https://a0.muscache.com/im/pictures/9d86670f-24a0-4a9f-93a9-59e0a91018d8.jpg?aki_policy=xx_large","name":"Modern apartment near the Hague, free parking","listingId":22055982,"photoId":"834-3","tags":[{"name":"oven","coordinates":[0.6082777500152587,0.7214377085367839,0.12178231477737426,0.3195829391479492]},{"name":"chair","coordinates":[0.2458036422729492,0.9207476933797201,0.28170137405395507,0.12255225976308187]},{"name":"microwave","coordinates":[0.17126613855361938,0.17702182133992514,0.15159512758255006,0.13014452457427977]},{"name":"microwave","coordinates":[0.5849652767181397,0.34144423802693685,0.07841899394989013,0.06014175812403361]},{"name":"sink","coordinates":[0.47456703186035154,0.5159471511840821,0.10613553524017334,0.02902907133102417]}]}
