{"src":"https://a0.muscache.com/im/pictures/b61854b9-980e-4130-8788-389992a1a0bc.jpg?aki_policy=xx_large","name":"Modern apartment near the Hague, free parking","listingId":22055982,"photoId":"834-2","tags":[{"name":"chair","coordinates":[0.2918043375015259,0.8754327138264973,0.27478747367858886,0.22369324366251628]},{"name":"sofa","coordinates":[0.5789326667785645,0.8778711954752604,0.2362206220626831,0.24694770177205402]},{"name":"chair","coordinates":[0.5789326667785645,0.8778711954752604,0.2362206220626831,0.24694770177205402]},{"name":"pottedplant","coordinates":[0.6436601638793945,0.6246315638224283,0.15892813205718995,0.3010638872782389]},{"name":"tvmonitor","coordinates":[0.04558636546134949,0.8696577072143554,0.08689150214195251,0.2408474127451579]},{"name":"clock","coordinates":[0.9507054328918457,0.4927503267923991,0.10104538202285766,0.15218965212504068]},{"name":"microwave","coordinates":[0.37114527225494387,0.4171216328938802,0.06007435917854309,0.05360954999923706]},{"name":"book","coordinates":[0.8400724411010743,0.8946540832519532,0.10321924686431885,0.02776441772778829]},{"name":"book","coordinates":[0.8327869415283203,0.7735273996988933,0.08996725678443909,0.030535093943277993]},{"name":"book","coordinates":[0.8375940322875977,0.8775931040445963,0.10001789331436158,0.025121349096298217]},{"name":"book","coordinates":[0.8313763618469239,0.6647170384724935,0.09351001977920533,0.025529499848683676]},{"name":"book","coordinates":[0.8233182907104493,0.6453053792317708,0.08870648741722106,0.026385947068532308]}]}
