{"src":"https://a0.muscache.com/im/pictures/1afa9277-4d53-47c8-99ca-d173984b5a9f.jpg?aki_policy=xx_large","name":"уютная студия недалеко от центра","listingId":19217545,"photoId":"836-0","tags":[{"name":"bed","coordinates":[0.5066161632537842,0.7934747060139974,0.6735721111297608,0.3894097328186035]},{"name":"diningtable","coordinates":[0.21051149368286132,0.9122159957885743,0.41210265159606935,0.14618570009867352]},{"name":"chair","coordinates":[0.13296861648559571,0.826357078552246,0.17377109527587892,0.16651585896809895]},{"name":"cup","coordinates":[0.03561266660690308,0.9035107294718424,0.06942808628082275,0.1670668601989746]},{"name":"cup","coordinates":[0.11297817230224609,0.9723763783772786,0.0804753065109253,0.06408058007558187]},{"name":"cup","coordinates":[0.22395243644714355,0.9021797815958659,0.049209460616111755,0.08650572299957275]}]}
