{"src":"https://a0.muscache.com/im/pictures/1afa9277-4d53-47c8-99ca-d173984b5a9f.jpg?aki_policy=xx_large","name":"уютная студия недалеко от центра","listingId":19217545,"photoId":"836-0","tags":[{"name":"bed","coordinates":[0.16983010768890383,0.5987698396046957,0.6735721111297608,0.3894097328186035]},{"name":"diningtable","coordinates":[0.0044601678848266435,0.8391231457392375,0.41210265159606935,0.14618570009867352]},{"name":"chair","coordinates":[0.046083068847656256,0.7430991490681966,0.17377109527587892,0.16651585896809895]},{"name":"cup","coordinates":[0.0008986234664917006,0.8199772993723551,0.06942808628082275,0.1670668601989746]},{"name":"cup","coordinates":[0.07274051904678344,0.9403360883394877,0.0804753065109253,0.06408058007558187]},{"name":"cup","coordinates":[0.19934770613908767,0.8589269200960795,0.049209460616111755,0.08650572299957275]}]}
