{"src":"https://a0.muscache.com/im/pictures/57fef35e-8d99-4767-a0cf-f1994099167f.jpg?aki_policy=xx_large","name":"Scandinavian Apartment with Garden | Cracow South","listingId":19219293,"photoId":"837-0","tags":[{"name":"sofa","coordinates":[0.21906814575195313,0.8043055216471354,0.4660974290635851,0.3484878222147624]},{"name":"oven","coordinates":[0.9105528937445746,0.5326802571614583,0.1288322024875217,0.14806443850199383]},{"name":"microwave","coordinates":[0.9000726487901476,0.3905874570210775,0.10361255009969075,0.09060004552205404]},{"name":"clock","coordinates":[0.4193904876708984,0.3236376444498698,0.041439774301317005,0.09546027978261312]},{"name":"book","coordinates":[0.5889865027533637,0.8367280960083008,0.056479125552707246,0.026094726721445718]},{"name":"book","coordinates":[0.6461272769504123,0.7384265263875326,0.016903671953413222,0.07300858497619629]},{"name":"book","coordinates":[0.6826413896348741,0.7399726867675781,0.013170908557044135,0.0767239491144816]},{"name":"book","coordinates":[0.6254224141438802,0.7368731180826823,0.014834899372524685,0.06810696125030517]},{"name":"book","coordinates":[0.6644198947482639,0.7381355921427409,0.012450179788801405,0.07377040386199951]},{"name":"book","coordinates":[0.6640530056423611,0.827981440226237,0.013798214329613579,0.06582762400309244]},{"name":"book","coordinates":[0.6052891201443142,0.7349175771077474,0.01132995022667779,0.07880980173746745]}]}
