{"src":"https://a0.muscache.com/im/pictures/45f0f790-e641-43aa-aec0-014c7df92c21.jpg?aki_policy=xx_large","name":"Scandinavian Apartment with Garden | Cracow South","listingId":19219293,"photoId":"837-2","tags":[{"name":"diningtable","coordinates":[0.30511506398518884,0.7768060207366944,0.6550718095567492,0.21688483556111654]},{"name":"diningtable","coordinates":[0.04434376822577585,0.6731022834777832,0.3019817988077799,0.31129105885823566]},{"name":"sofa","coordinates":[0.7491276211208767,0.6267283121744792,0.24407162136501737,0.2715187072753906]},{"name":"chair","coordinates":[0.2548570526970757,0.6377393722534179,0.13345750172932944,0.34118245442708334]},{"name":"chair","coordinates":[0.5149258931477865,0.5099631468454997,0.14367591010199654,0.29169416427612305]},{"name":"chair","coordinates":[0.06202609803941515,0.7499175786972045,0.14980174170600044,0.2399352232615153]},{"name":"chair","coordinates":[-0.005056391821967231,0.7209473768870036,0.09439851972791884,0.2776256879170736]},{"name":"tvmonitor","coordinates":[0.3312329292297363,0.43590292135874426,0.09923135969373915,0.1576344648996989]},{"name":"chair","coordinates":[0.7952726311153836,0.544960077603658,0.07354182137383355,0.155579137802124]},{"name":"chair","coordinates":[0.19248739613427054,0.6180135409037272,0.07197812928093804,0.08872292836507162]},{"name":"vase","coordinates":[0.06881599293814766,0.6073920845985413,0.03504814836714003,0.11208922863006592]}]}
