{"src":"https://a0.muscache.com/im/pictures/831614bc-b8df-4408-b7fa-749e2628e6aa.jpg?aki_policy=xx_large","name":"Scandinavian Apartment with Garden | Cracow South","listingId":19219293,"photoId":"837-6","tags":[{"name":"chair","coordinates":[0.32206793891059027,0.7547936757405599,0.26768822140163845,0.42055835723876955]},{"name":"sofa","coordinates":[0.8535998026529948,0.7587270100911458,0.29187266031901044,0.3742560068766276]},{"name":"diningtable","coordinates":[0.4389241960313585,0.7156839370727539,0.3084765328301324,0.3482283274332682]},{"name":"chair","coordinates":[0.6105741288926866,0.7753143946329752,0.12882121404012045,0.18899431228637695]},{"name":"laptop","coordinates":[0.36194385952419705,0.5457380294799805,0.0898589981926812,0.06829671859741211]}]}
