{"src":"https://a0.muscache.com/im/pictures/b5ab2ec0-257f-45bc-a241-4f30b46f5c97.jpg?aki_policy=xx_large","name":"Rustic apartment right in the center of The Hague","listingId":22164271,"photoId":"837-0","tags":[{"name":"diningtable","coordinates":[0.6987714767456055,0.7869505564371745,0.6950370788574218,0.3375984191894531]},{"name":"pottedplant","coordinates":[0.855809497833252,0.5194518407185872,0.2740250825881958,0.39964685440063474]},{"name":"chair","coordinates":[0.5643732070922851,0.8729522069295247,0.3797722816467285,0.2165335973103841]},{"name":"sofa","coordinates":[0.5525567531585693,0.5734155654907227,0.38396506309509276,0.18103197415669758]},{"name":"sofa","coordinates":[0.08656111359596252,0.6216955820719401,0.1779324531555176,0.20971576372782388]},{"name":"vase","coordinates":[0.8721035957336426,0.6283960342407227,0.0880358338356018,0.1588635285695394]},{"name":"chair","coordinates":[0.649923038482666,0.6235074996948242,0.12304991483688354,0.062101491292317706]},{"name":"pottedplant","coordinates":[0.5908923625946045,0.4182035764058431,0.03863261342048645,0.07613353729248047]}]}
