{"src":"https://a0.muscache.com/im/pictures/36deeb9b-a053-4057-86fb-c356fcbd99b7.jpg?aki_policy=xx_large","name":"Rustic apartment right in the center of The Hague","listingId":22164271,"photoId":"837-1","tags":[{"name":"bed","coordinates":[0.12722594738006593,0.8087198257446289,0.24829914569854736,0.3346433639526367]},{"name":"diningtable","coordinates":[0.45305986404418946,0.5310775756835937,0.29034247398376467,0.25453025499979653]},{"name":"chair","coordinates":[0.6002087593078613,0.5404403686523438,0.12412171363830567,0.23979937235514323]},{"name":"chair","coordinates":[0.3161307811737061,0.5363571802775066,0.12575290203094483,0.229479710261027]},{"name":"chair","coordinates":[0.45869932174682615,0.5644601186116537,0.10722925662994384,0.20408668518066406]},{"name":"tvmonitor","coordinates":[0.9346899032592774,0.43856032689412433,0.09737560749053956,0.0833615779876709]},{"name":"vase","coordinates":[0.45246686935424807,0.4167983373006185,0.023579894006252287,0.040136194229125975]}]}
