{"src":"https://a0.muscache.com/im/pictures/45f0f790-e641-43aa-aec0-014c7df92c21.jpg?aki_policy=xx_large","name":"Scandinavian Apartment with Garden | Cracow South","listingId":19219293,"photoId":"837-2","tags":[{"name":"diningtable","coordinates":[0.6326509687635634,0.8852484385172527,0.6550718095567492,0.21688483556111654]},{"name":"diningtable","coordinates":[0.1953346676296658,0.828747812906901,0.3019817988077799,0.31129105885823566]},{"name":"sofa","coordinates":[0.8711634318033854,0.7624876658121745,0.24407162136501737,0.2715187072753906]},{"name":"chair","coordinates":[0.32158580356174044,0.8083305994669596,0.13345750172932944,0.34118245442708334]},{"name":"chair","coordinates":[0.5867638481987847,0.6558102289835612,0.14367591010199654,0.29169416427612305]},{"name":"chair","coordinates":[0.13692696889241537,0.8698851903279622,0.14980174170600044,0.2399352232615153]},{"name":"chair","coordinates":[0.04214286804199219,0.8597602208455404,0.09439851972791884,0.2776256879170736]},{"name":"tvmonitor","coordinates":[0.3808486090766059,0.5147201538085937,0.09923135969373915,0.1576344648996989]},{"name":"chair","coordinates":[0.8320435418023003,0.6227496465047201,0.07354182137383355,0.155579137802124]},{"name":"chair","coordinates":[0.22847646077473957,0.662375005086263,0.07197812928093804,0.08872292836507162]},{"name":"vase","coordinates":[0.08634006712171767,0.6634366989135743,0.03504814836714003,0.11208922863006592]}]}
