{"src":"https://a0.muscache.com/im/pictures/57fef35e-8d99-4767-a0cf-f1994099167f.jpg?aki_policy=xx_large","name":"Scandinavian Apartment with Garden | Cracow South","listingId":19219293,"photoId":"837-0","tags":[{"name":"sofa","coordinates":[-0.013980568779839414,0.6300616105397543,0.4660974290635851,0.3484878222147624]},{"name":"oven","coordinates":[0.8461367925008138,0.4586480379104614,0.1288322024875217,0.14806443850199383]},{"name":"microwave","coordinates":[0.8482663737403022,0.3452874342600505,0.10361255009969075,0.09060004552205404]},{"name":"clock","coordinates":[0.39867060052023995,0.2759075045585633,0.041439774301317005,0.09546027978261312]},{"name":"book","coordinates":[0.5607469399770101,0.8236807326475779,0.056479125552707246,0.026094726721445718]},{"name":"book","coordinates":[0.6376754409737057,0.7019222338994344,0.016903671953413222,0.07300858497619629]},{"name":"book","coordinates":[0.676055935356352,0.7016107122103373,0.013170908557044135,0.0767239491144816]},{"name":"book","coordinates":[0.6180049644576179,0.7028196374575297,0.014834899372524685,0.06810696125030517]},{"name":"book","coordinates":[0.6581948048538632,0.7012503902117412,0.012450179788801405,0.07377040386199951]},{"name":"book","coordinates":[0.6571538984775543,0.7950676282246908,0.013798214329613579,0.06582762400309244]},{"name":"book","coordinates":[0.5996241450309754,0.6955126762390137,0.01132995022667779,0.07880980173746745]}]}
