{"src":"https://a0.muscache.com/im/pictures/831614bc-b8df-4408-b7fa-749e2628e6aa.jpg?aki_policy=xx_large","name":"Scandinavian Apartment with Garden | Cracow South","listingId":19219293,"photoId":"837-6","tags":[{"name":"chair","coordinates":[0.18822382820977104,0.5445144971211751,0.26768822140163845,0.42055835723876955]},{"name":"sofa","coordinates":[0.7076634724934896,0.571599006652832,0.29187266031901044,0.3742560068766276]},{"name":"diningtable","coordinates":[0.28468592961629235,0.5415697733561198,0.3084765328301324,0.3482283274332682]},{"name":"chair","coordinates":[0.5461635218726264,0.6808172384897868,0.12882121404012045,0.18899431228637695]},{"name":"laptop","coordinates":[0.31701436042785647,0.5115896701812744,0.0898589981926812,0.06829671859741211]}]}
