{"src":"https://a0.muscache.com/im/pictures/17d3fcda-8889-4c2b-b0be-318420baae16.jpg?aki_policy=xx_large","name":"Sfeervol appartement vlakbij het strand","listingId":22172140,"photoId":"838-4","tags":[{"name":"diningtable","coordinates":[0.478681394788954,0.7809713363647461,0.48802803887261287,0.42296956380208334]},{"name":"chair","coordinates":[0.521296395195855,0.8236258824666342,0.17052011489868163,0.35908610026041665]},{"name":"chair","coordinates":[0.645868640475803,0.7799680709838868,0.12135276794433594,0.3648039182027181]},{"name":"pottedplant","coordinates":[0.8715014987521701,0.468008550008138,0.1083624627855089,0.16654771169026691]},{"name":"pottedplant","coordinates":[0.9854946560329861,0.5182228724161784,0.032911925845675996,0.10756339232126871]},{"name":"vase","coordinates":[0.29543641408284504,0.5668526967366536,0.0355232662624783,0.0860680898030599]},{"name":"orange","coordinates":[0.5127704196506077,0.5540585199991862,0.0226716677347819,0.027592043081919353]},{"name":"orange","coordinates":[0.5270257737901476,0.5532183329264323,0.017435659302605523,0.02714846730232239]}]}
