{"src":"https://a0.muscache.com/im/pictures/143e15e7-2597-4caa-8abd-f8cace64fcb6.jpg?aki_policy=xx_large","name":"Private room in Apartment- Abu Dhabi centre","listingId":19225021,"photoId":"838-0","tags":[{"name":"sink","coordinates":[0.6335365931193034,0.9378547032674154,0.5915581385294596,0.12220431168874105]},{"name":"cup","coordinates":[0.3734537760416667,0.42908862431844075,0.06400999228159586,0.10795474052429199]},{"name":"bottle","coordinates":[0.20393163363138836,0.4252540906270345,0.031683750947316486,0.08539784749348958]},{"name":"bottle","coordinates":[0.23534619013468425,0.4263442039489746,0.03130851984024048,0.07593481540679932]},{"name":"toothbrush","coordinates":[0.3740474065144857,0.362417729695638,0.02097624142964681,0.03856436411539713]},{"name":"toothbrush","coordinates":[0.3441259702046712,0.35702616373697915,0.015072086453437805,0.050031928221384685]},{"name":"toothbrush","coordinates":[0.35184942881266273,0.35903040568033856,0.015275582671165466,0.04210496346155802]}]}
