{"src":"https://a0.muscache.com/im/pictures/d1637f58-fd8b-49a4-8009-901c48e384e8.jpg?aki_policy=xx_large","name":"*Lovely Family Home, 3 bedrooms, 6 guests*","listingId":22182302,"photoId":"839-8","tags":[{"name":"diningtable","coordinates":[0.6622626781463623,0.7767295837402344,0.4895167350769043,0.42844902674357094]},{"name":"diningtable","coordinates":[0.6569938659667969,0.621817143758138,0.5401707649230957,0.15454886754353842]},{"name":"sofa","coordinates":[0.2843327045440674,0.5219871520996093,0.3945598125457764,0.19495979944864908]},{"name":"chair","coordinates":[0.814809513092041,0.8237614949544271,0.22037484645843505,0.3222097714742025]},{"name":"chair","coordinates":[0.5977979183197022,0.8431257883707682,0.2002725601196289,0.3274171193440755]},{"name":"chair","coordinates":[0.4319498062133789,0.7806443532307943,0.14345370531082152,0.3618852933247884]},{"name":"chair","coordinates":[0.948818302154541,0.7386269887288411,0.09621627330780029,0.37538871765136717]},{"name":"pottedplant","coordinates":[0.8604831695556641,0.48160425821940106,0.09039565920829773,0.11391909122467041]},{"name":"pottedplant","coordinates":[0.5412700176239014,0.20890132586161295,0.05252776741981506,0.12112365563710531]},{"name":"vase","coordinates":[0.6365082740783692,0.568865966796875,0.04036564230918884,0.08608912626902263]}]}
