{"src":"https://a0.muscache.com/im/pictures/0cce2065-9d74-4e4e-93db-a6820c2cd9c0.jpg?aki_policy=xx_large","name":"Appartement met zeezicht Scheveningen / Den Haag","listingId":22182866,"photoId":"840-5","tags":[{"name":"sofa","coordinates":[0.7810145378112793,0.7714209238688151,0.3923995018005371,0.4041603088378906]},{"name":"chair","coordinates":[0.7810145378112793,0.7714209238688151,0.3923995018005371,0.4041603088378906]},{"name":"sofa","coordinates":[0.5076575756072998,0.5937781016031901,0.3272714138031006,0.2492705504099528]},{"name":"pottedplant","coordinates":[0.41722378730773924,0.6271233876546224,0.12228162288665771,0.18226038614908854]},{"name":"chair","coordinates":[0.24540994167327881,0.6780268987019856,0.0878085196018219,0.175343386332194]},{"name":"vase","coordinates":[0.4202704906463623,0.6747936884562175,0.03661653399467468,0.07271831035614014]}]}
