{"src":"https://a0.muscache.com/im/pictures/6b2e4d96-904e-40d2-b828-6577fd37af7d.jpg?aki_policy=xx_large","name":"Luxury Home in Statenkwartier, near Beach&amp;Harbour","listingId":22206128,"photoId":"844-3","tags":[{"name":"sofa","coordinates":[0.2690489068472029,0.5998273213704427,0.5005384157563847,0.30631672541300453]},{"name":"chair","coordinates":[0.824180067538221,0.6566604614257813,0.14512458255176663,0.22907807032267252]},{"name":"pottedplant","coordinates":[0.060390395534958084,0.8214003245035807,0.09792085585286006,0.20404564539591472]},{"name":"chair","coordinates":[0.8937081448977154,0.6385593414306641,0.07635080789509045,0.20353792508443197]},{"name":"pottedplant","coordinates":[0.03214577256680529,0.8673210779825846,0.06593895886323782,0.1986602783203125]},{"name":"vase","coordinates":[0.40741157664285094,0.5035168011983235,0.0659960812375809,0.10991368293762208]},{"name":"pottedplant","coordinates":[0.7908289142579482,0.5153525034586589,0.04677845820360005,0.08239521980285644]},{"name":"pottedplant","coordinates":[0.8507035966545778,0.5029112815856933,0.043892129416926356,0.0800208568572998]}]}
