{"src":"https://a0.muscache.com/im/pictures/774abad4-da35-45e9-bbfa-1b4bda7a7e8a.jpg?aki_policy=xx_large","name":"A-Pao#1 Blue Rm 10 miles to DC/Modern Private BnB","listingId":19290069,"photoId":"845-14","tags":[{"name":"diningtable","coordinates":[0.42360450565687885,0.575412654876709,0.24717814886747902,0.29204107920328776]},{"name":"chair","coordinates":[0.6148074379861991,0.5652036825815836,0.21203902840360142,0.29561357498168944]},{"name":"chair","coordinates":[0.26742222670044724,0.5502426306406657,0.1776270591882246,0.26937341690063477]},{"name":"dog","coordinates":[0.2836122655156833,0.6775221745173136,0.13762520015366805,0.1501716136932373]},{"name":"chair","coordinates":[0.39093303477077845,0.5252312024434408,0.08313743900388543,0.21775519053141276]},{"name":"pottedplant","coordinates":[0.37268312043472646,0.38158197005589806,0.07774431110699294,0.11136011282602946]}]}
