{"src":"https://z0.muscache.cn/im/pictures/6b93b763-13f4-499e-8b3c-f5717d936a3e.jpg?aki_policy=xx_large","name":"A bright apartment with two cats and a bike","listingId":19302302,"photoId":"846-4","tags":[{"name":"toilet","coordinates":[0.8696011013454861,0.8000308354695638,0.26710003746880423,0.41791400909423826]},{"name":"sink","coordinates":[0.5063404507107205,0.5640625,0.36044879489474824,0.14927997589111328]},{"name":"cat","coordinates":[0.0653630468580458,0.7567572911580404,0.12563198937310113,0.18833718299865723]},{"name":"bottle","coordinates":[0.41910103691948786,0.4865733782450358,0.05357986556159126,0.08359673817952475]},{"name":"bottle","coordinates":[0.4636268191867404,0.4731251080830892,0.03356548680199517,0.09662259419759114]},{"name":"toothbrush","coordinates":[0.5581445058186849,0.45407126744588217,0.016433078712887236,0.028896830479303994]}]}
