{"src":"https://a0.muscache.com/im/pictures/f15f4658-6034-4a14-9106-1775cb17ad8d.jpg?aki_policy=xx_large","name":"Beautiful apartment near the city centre","listingId":22316149,"photoId":"852-2","tags":[{"name":"sofa","coordinates":[0.5036859512329102,0.5966846466064453,0.894696044921875,0.45124905904134116]},{"name":"person","coordinates":[0.48384799957275393,0.4312956174214681,0.12533580064773558,0.25425198872884114]},{"name":"person","coordinates":[0.407852840423584,0.4249523798624674,0.14747321605682373,0.18160533905029297]},{"name":"vase","coordinates":[0.8698739051818848,0.3918387095133464,0.042662256956100465,0.11724415620168051]},{"name":"remote","coordinates":[0.4115433692932129,0.6208975474039714,0.07030402421951294,0.05116112629572551]}]}
