{"src":"https://a0.muscache.com/im/pictures/25fea0ce-6466-42cb-965e-bd47d076c593.jpg?aki_policy=xx_large","name":"Home away from home kotwi","listingId":19345770,"photoId":"852-2","tags":[{"name":"diningtable","coordinates":[0.4413980695936415,0.7346266428629558,0.8602099100748698,0.4203245798746745]},{"name":"chair","coordinates":[0.0951368014017741,0.6981657028198243,0.19775047302246093,0.43333555857340494]},{"name":"chair","coordinates":[0.3720250447591146,0.8609932581583659,0.2910930845472548,0.2545722643534342]},{"name":"sofa","coordinates":[0.4068836636013455,0.4002996444702148,0.20793524848090278,0.27081610361735026]},{"name":"chair","coordinates":[0.9001884460449219,0.7544732411702474,0.11523722542656792,0.48439455032348633]},{"name":"sofa","coordinates":[0.7889354281955295,0.40522991816202797,0.15928558773464627,0.23961825370788575]},{"name":"chair","coordinates":[0.7889354281955295,0.40522991816202797,0.15928558773464627,0.23961825370788575]},{"name":"chair","coordinates":[0.533431413438585,0.5254776636759441,0.18024457295735677,0.1785796006520589]},{"name":"bottle","coordinates":[0.5054904090033637,0.6256439844767253,0.0981676525539822,0.2274784564971924]},{"name":"tvmonitor","coordinates":[0.6396703932020399,0.13447532653808594,0.12471170425415039,0.11752294699350993]},{"name":"bottle","coordinates":[0.40721367730034724,0.6102797190348307,0.07262191242641873,0.17235453923543295]}]}
