{"src":"https://a0.muscache.com/im/pictures/25fea0ce-6466-42cb-965e-bd47d076c593.jpg?aki_policy=xx_large","name":"Home away from home kotwi","listingId":19345770,"photoId":"852-2","tags":[{"name":"diningtable","coordinates":[0.011293114556206574,0.5244643529256185,0.8602099100748698,0.4203245798746745]},{"name":"chair","coordinates":[-0.003738435109456373,0.4814979235331218,0.19775047302246093,0.43333555857340494]},{"name":"chair","coordinates":[0.22647850248548718,0.7337071259816488,0.2910930845472548,0.2545722643534342]},{"name":"sofa","coordinates":[0.30291603936089406,0.2648915926615397,0.20793524848090278,0.27081610361735026]},{"name":"chair","coordinates":[0.8425698333316379,0.5122759660085042,0.11523722542656792,0.48439455032348633]},{"name":"sofa","coordinates":[0.7092926343282064,0.28542079130808506,0.15928558773464627,0.23961825370788575]},{"name":"chair","coordinates":[0.7092926343282064,0.28542079130808506,0.15928558773464627,0.23961825370788575]},{"name":"chair","coordinates":[0.44330912695990665,0.4361878633499146,0.18024457295735677,0.1785796006520589]},{"name":"bottle","coordinates":[0.45640658272637263,0.5119047562281291,0.0981676525539822,0.2274784564971924]},{"name":"tvmonitor","coordinates":[0.5773145410749647,0.07571385304133098,0.12471170425415039,0.11752294699350993]},{"name":"bottle","coordinates":[0.3709027210871379,0.5241024494171143,0.07262191242641873,0.17235453923543295]}]}
