{"src":"https://a0.muscache.com/im/pictures/ca91dca5-339f-450f-bfdc-2facd9140e82.jpg?aki_policy=xx_large","name":"â˜†Modern &amp; cosy close to the beach &amp; Hague centre!","listingId":22361937,"photoId":"855-0","tags":[{"name":"pottedplant","coordinates":[0.5090044975280762,0.6037602106730143,0.5179377555847168,0.7587551752726237]},{"name":"wine-glass","coordinates":[0.9128082275390625,0.6899702072143554,0.17167141437530517,0.5633473714192708]},{"name":"wine-glass","coordinates":[0.10301021337509156,0.673962148030599,0.17430596351623534,0.4878937085469564]},{"name":"chair","coordinates":[0.10301021337509156,0.673962148030599,0.17430596351623534,0.4878937085469564]},{"name":"vase","coordinates":[0.5033368587493896,0.8062990188598633,0.24336466789245606,0.33037007649739586]},{"name":"chair","coordinates":[0.09590386748313903,0.8969435373942057,0.18619134426116943,0.1992667357126872]}]}
