{"src":"https://a0.muscache.com/im/pictures/4c916eb2-8b60-4d44-836b-83ae2a77756f.jpg?aki_policy=xx_large","name":"Beautifull and cosy appartement","listingId":19380155,"photoId":"855-0","tags":[{"name":"diningtable","coordinates":[0.2751224093967014,0.6205517292022704,0.6850901285807292,0.36913201014200847]},{"name":"sofa","coordinates":[0.30499730993200236,0.4792533795038859,0.5681443956163195,0.1676901658376058]},{"name":"sofa","coordinates":[0.006291495429144978,0.5906572024027507,0.2627390826189959,0.33101825714111327]},{"name":"chair","coordinates":[0.24069430033365885,0.3519480069478353,0.15606816609700522,0.16503149668375652]},{"name":"pottedplant","coordinates":[-0.0008574591742621512,0.37314726511637375,0.131183836195204,0.16077308654785155]},{"name":"chair","coordinates":[0.41721315737123843,0.352587620417277,0.13035877369068288,0.15046052932739257]},{"name":"cup","coordinates":[0.7920750935872396,0.7560191829999288,0.16199295609085648,0.1152753750483195]},{"name":"pottedplant","coordinates":[0.052333033526385284,0.3558283646901449,0.15427092093008535,0.11734882990519206]},{"name":"bowl","coordinates":[0.5541100042837637,0.6568130711714426,0.06858934473108362,0.03652250369389852]},{"name":"book","coordinates":[0.9191175756631075,0.2837910314400991,0.014130865203009711,0.029235525925954183]},{"name":"book","coordinates":[0.9524809890323216,0.32395909825960795,0.015091009493227359,0.02342331806818644]},{"name":"book","coordinates":[0.9253566017857304,0.32611980736255647,0.013849332597520617,0.02145792047182719]}]}
