{"src":"https://a0.muscache.com/im/pictures/4c916eb2-8b60-4d44-836b-83ae2a77756f.jpg?aki_policy=xx_large","name":"Beautifull and cosy appartement","listingId":19380155,"photoId":"855-0","tags":[{"name":"diningtable","coordinates":[0.617667473687066,0.8051177342732747,0.6850901285807292,0.36913201014200847]},{"name":"sofa","coordinates":[0.5890695077401621,0.5630984624226888,0.5681443956163195,0.1676901658376058]},{"name":"sofa","coordinates":[0.13766103673864294,0.7561663309733073,0.2627390826189959,0.33101825714111327]},{"name":"chair","coordinates":[0.3187283833821615,0.43446375528971354,0.15606816609700522,0.16503149668375652]},{"name":"pottedplant","coordinates":[0.06473445892333984,0.4535338083902995,0.131183836195204,0.16077308654785155]},{"name":"chair","coordinates":[0.48239254421657984,0.4278178850809733,0.13035877369068288,0.15046052932739257]},{"name":"cup","coordinates":[0.8730715716326678,0.8136568705240885,0.16199295609085648,0.1152753750483195]},{"name":"pottedplant","coordinates":[0.12946849399142796,0.4145027796427409,0.15427092093008535,0.11734882990519206]},{"name":"bowl","coordinates":[0.5884046766493055,0.6750743230183919,0.06858934473108362,0.03652250369389852]},{"name":"book","coordinates":[0.9261830082646123,0.29840879440307616,0.014130865203009711,0.029235525925954183]},{"name":"book","coordinates":[0.9600264937789352,0.33567075729370116,0.015091009493227359,0.02342331806818644]},{"name":"book","coordinates":[0.9322812680844907,0.33684876759847004,0.013849332597520617,0.02145792047182719]}]}
