{"src":"https://a0.muscache.com/im/pictures/ed0ef0a9-27fa-4564-9d23-4e2fbeafa9ce.jpg?aki_policy=xx_large","name":"Furnished Unit in Lancaster New City","listingId":19426213,"photoId":"860-1","tags":[{"name":"diningtable","coordinates":[0.23184611797332763,0.7896498998006185,0.3100195169448853,0.39790547688802086]},{"name":"chair","coordinates":[0.32504992485046386,0.795114262898763,0.16470987796783448,0.3672767639160156]},{"name":"chair","coordinates":[0.06500989198684692,0.7525430679321289,0.12952898740768432,0.38275651931762694]},{"name":"chair","coordinates":[0.44412755966186523,0.7133298873901367,0.11603094339370727,0.33359203338623045]},{"name":"chair","coordinates":[0.17319544553756713,0.5812751134236653,0.06800206303596497,0.057924509048461914]},{"name":"book","coordinates":[0.24098892211914064,0.7007518768310547,0.08395470380783081,0.04219882488250733]},{"name":"vase","coordinates":[0.210420560836792,0.5536225636800131,0.03385776877403259,0.09856890837351481]},{"name":"vase","coordinates":[0.32269845008850095,0.5493539174397787,0.031640341877937316,0.08901162147521972]},{"name":"vase","coordinates":[0.2724790334701538,0.5730391184488932,0.03135246634483337,0.07491142749786377]}]}
