{"src":"https://a0.muscache.com/im/pictures/ed0ef0a9-27fa-4564-9d23-4e2fbeafa9ce.jpg?aki_policy=xx_large","name":"Furnished Unit in Lancaster New City","listingId":19426213,"photoId":"860-1","tags":[{"name":"diningtable","coordinates":[0.41217087639702693,0.7896498998006185,0.5511458079020183,0.39790547688802086]},{"name":"chair","coordinates":[0.5778665330674914,0.795114262898763,0.29281756083170574,0.3672767639160156]},{"name":"chair","coordinates":[0.11557314130995008,0.7525430679321289,0.2302737553914388,0.38275651931762694]},{"name":"chair","coordinates":[0.7895601060655382,0.7133298873901367,0.20627723269992404,0.33359203338623045]},{"name":"chair","coordinates":[0.30790301428900824,0.5812751134236653,0.12089255650838217,0.057924509048461914]},{"name":"book","coordinates":[0.4284247504340278,0.7007518768310547,0.149252806769477,0.04219882488250733]},{"name":"vase","coordinates":[0.37408099704318576,0.5536225636800131,0.0601915889316135,0.09856890837351481]},{"name":"vase","coordinates":[0.5736861334906684,0.5493539174397787,0.05624949667188856,0.08901162147521972]},{"name":"vase","coordinates":[0.4844071706136068,0.5730391184488932,0.05573771794637044,0.07491142749786377]}]}
