{"src":"https://a0.muscache.com/im/pictures/1570ea55-e605-4955-9eca-db32373bb525.jpg?aki_policy=xx_large","name":"Cozy house with a rooftopterrace near the beach","listingId":22476934,"photoId":"863-15","tags":[{"name":"sofa","coordinates":[0.8457524299621582,0.7511039733886719,0.46664838790893554,0.43954029083251955]},{"name":"pottedplant","coordinates":[0.21130108833312988,0.1632093111673991,0.16097660064697267,0.2015436013539632]},{"name":"pottedplant","coordinates":[0.09524086117744446,0.743272336324056,0.15284663438796997,0.17568934758504232]},{"name":"pottedplant","coordinates":[0.7904067039489746,0.4855163256327311,0.14701194763183595,0.14371871948242188]},{"name":"pottedplant","coordinates":[0.525447416305542,0.5122926076253255,0.09200063347816467,0.20804136594136555]},{"name":"tvmonitor","coordinates":[0.3201765537261963,0.46881049474080405,0.11818898916244507,0.14741126696268717]},{"name":"pottedplant","coordinates":[0.07424794435501099,0.2922064463297526,0.11635963916778565,0.08042702674865723]},{"name":"book","coordinates":[0.4438758850097656,0.47705332438151044,0.008395082503557205,0.0402603546778361]}]}
