{"src":"https://a0.muscache.com/im/pictures/ed2be16d-22b7-44ff-b14b-eaf5791c6775.jpg?aki_policy=xx_large","name":"Cozy house with a rooftopterrace near the beach","listingId":22476934,"photoId":"863-4","tags":[{"name":"diningtable","coordinates":[0.6502561781141493,0.8128180185953776,0.24212061564127604,0.33529122670491535]},{"name":"chair","coordinates":[0.5730476803249783,0.8218657811482747,0.1005061149597168,0.352980899810791]},{"name":"chair","coordinates":[0.5418526967366536,0.8289682388305664,0.046734921137491864,0.32735137939453124]},{"name":"pottedplant","coordinates":[0.41436114841037325,0.656994374593099,0.024489749802483453,0.09200576146443686]},{"name":"chair","coordinates":[0.576631842719184,0.6607868194580078,0.017672448688083226,0.08128431638081869]},{"name":"vase","coordinates":[0.6781700558132595,0.6992451349894205,0.02837030357784695,0.04648136297861735]}]}
