{"src":"https://a0.muscache.com/im/pictures/1dc35524-78b2-4781-abaf-02826081ee56.jpg?aki_policy=xx_large","name":"Cozy house with a rooftopterrace near the beach","listingId":22476934,"photoId":"863-14","tags":[{"name":"sofa","coordinates":[0.8421753883361817,0.7492785135904948,0.555900239944458,0.45747763315836587]},{"name":"pottedplant","coordinates":[0.1636441707611084,0.4751221974690755,0.20293171405792237,0.5067455291748046]},{"name":"chair","coordinates":[0.3288257598876953,0.6030860265096029,0.19057765007019042,0.3689218521118164]},{"name":"pottedplant","coordinates":[0.7429583072662354,0.4838570594787598,0.16273205280303954,0.2151204268137614]},{"name":"pottedplant","coordinates":[0.037548622488975524,0.8634243011474609,0.07514774203300476,0.24069112141927082]},{"name":"remote","coordinates":[0.7400082588195801,0.764660898844401,0.11149373054504394,0.05979171593983968]}]}
