{"src":"https://a0.muscache.com/im/pictures/5af9c378-0958-4eb8-ac78-f3d3a7e95c35.jpg?aki_policy=xx_large","name":"Cozy house with a rooftopterrace near the beach","listingId":22476934,"photoId":"863-8","tags":[{"name":"oven","coordinates":[0.929300594329834,0.8348225911458333,0.22934143543243407,0.3068412780761719]},{"name":"sink","coordinates":[0.47025408744812014,0.7240040461222331,0.25412797927856445,0.09976285298665365]},{"name":"bowl","coordinates":[1.0225131034851074,0.6949951171875,0.12325143814086914,0.0609682559967041]},{"name":"cup","coordinates":[0.15589946508407593,0.2892020225524902,0.07000654339790344,0.0969470739364624]},{"name":"cup","coordinates":[0.33011727333068847,0.31448710759480797,0.0596199095249176,0.09788960615793864]},{"name":"wine-glass","coordinates":[0.20901165008544922,0.05835285981496175,0.04160664975643158,0.10501278241475423]},{"name":"cup","coordinates":[0.2738012790679932,0.320561949412028,0.05420581102371216,0.06671878496805826]},{"name":"knife","coordinates":[0.6391747474670411,0.5092475891113282,0.019778187572956085,0.13142984708150227]},{"name":"knife","coordinates":[0.6611835479736328,0.5045407931009929,0.014072471857070923,0.13281598885854085]},{"name":"knife","coordinates":[0.68206787109375,0.5051403681437174,0.01266571432352066,0.12527329921722413]},{"name":"bottle","coordinates":[0.5740664958953857,0.23415873845418295,0.023468585312366487,0.05360268751780192]},{"name":"cup","coordinates":[0.37345850467681885,0.3524936676025391,0.02673448920249939,0.044256011644999184]},{"name":"cup","coordinates":[0.5939823627471924,0.3908994674682617,0.028441879153251647,0.031127079327901205]}]}
