{"src":"https://a0.muscache.com/im/pictures/dc89a32d-02a2-4dfc-a95f-064a9ebf5a32.jpg?aki_policy=xx_large","name":"Charming house, 300 m to the beach","listingId":22496594,"photoId":"864-0","tags":[{"name":"chair","coordinates":[0.14650344848632812,0.6254317601521809,0.2623021019829644,0.4857080777486165]},{"name":"chair","coordinates":[0.3317227045694987,0.45560792287190754,0.2515944586859809,0.4162713368733724]},{"name":"bed","coordinates":[0.9040228101942275,0.5336815516153971,0.184133423699273,0.41801513036092125]},{"name":"diningtable","coordinates":[0.5514338599310981,0.5727286656697591,0.2709322611490885,0.26475585301717125]},{"name":"vase","coordinates":[0.5980384402804905,0.4206006685892741,0.03140592839982775,0.07428778807322184]}]}
