{"src":"https://a0.muscache.com/im/pictures/67570966-58f9-46f8-8f18-171e17d459cc.jpg?aki_policy=xx_large","name":"Mooi appartement dicht bij het centrum","listingId":22500241,"photoId":"865-2","tags":[{"name":"diningtable","coordinates":[0.46472909715440536,0.7414036432902018,0.6580320570203994,0.4518787701924642]},{"name":"chair","coordinates":[0.5768271128336588,0.787466303507487,0.3396888944837782,0.40013135274251305]},{"name":"chair","coordinates":[0.20710936652289497,0.8175984700520833,0.27734421624077693,0.3995490074157715]},{"name":"chair","coordinates":[0.8301124572753906,0.6690709431966145,0.19054811265733507,0.30077937444051106]},{"name":"pottedplant","coordinates":[0.6105232662624783,0.4715961774190267,0.15696983337402343,0.1151158094406128]},{"name":"pottedplant","coordinates":[0.7465183681911892,0.47844820022583007,0.10244616402520074,0.11835668881734213]},{"name":"chair","coordinates":[0.5143648783365885,0.5158088048299153,0.11202996571858724,0.045012807846069335]},{"name":"vase","coordinates":[0.745912594265408,0.4951171557108561,0.06029000282287598,0.08025139172871908]},{"name":"chair","coordinates":[0.8209321763780382,0.5064157803853353,0.08920293384128147,0.0533283273379008]},{"name":"chair","coordinates":[0.44292483859592013,0.5475563049316406,0.11766444312201606,0.027717703580856325]}]}
