{"src":"https://a0.muscache.com/im/pictures/37268330-e2b7-4f44-84ca-c424b3f8e98c.jpg?aki_policy=xx_large","name":"송도의 아침(Morning of Sondo. ソンドの朝)","listingId":19466218,"photoId":"865-4","tags":[{"name":"diningtable","coordinates":[0.5086782455444336,0.5201309204101563,0.872492504119873,0.8625113169352213]},{"name":"sandwich","coordinates":[0.47832775115966797,0.2557221412658691,0.23846917152404784,0.30840657552083334]},{"name":"cup","coordinates":[0.7773806571960449,0.21730101903279622,0.22204298973083497,0.28644485473632814]},{"name":"knife","coordinates":[0.8289259910583496,0.6805985132853191,0.0869895339012146,0.5035059928894043]},{"name":"fork","coordinates":[0.7396145343780518,0.6601163864135742,0.0827208161354065,0.513524595896403]},{"name":"bowl","coordinates":[0.3874492645263672,0.7927279154459635,0.17756348848342896,0.23137089411417644]},{"name":"bowl","coordinates":[0.5641827583312988,0.7691490809122722,0.15392606258392333,0.20767609278361002]},{"name":"bowl","coordinates":[0.2259528398513794,0.6968479792277018,0.1469902753829956,0.19504577318827312]},{"name":"hot-dog","coordinates":[0.2958876132965088,0.3824844042460124,0.10209474563598633,0.20126404762268066]},{"name":"cup","coordinates":[0.21456220149993896,0.7145213445027669,0.07966099977493286,0.15728405316670735]}]}
