{"src":"https://a0.muscache.com/im/pictures/37268330-e2b7-4f44-84ca-c424b3f8e98c.jpg?aki_policy=xx_large","name":"송도의 아침(Morning of Sondo. ソンドの朝)","listingId":19466218,"photoId":"865-4","tags":[{"name":"diningtable","coordinates":[0.07243199348449714,0.08887526194254564,0.872492504119873,0.8625113169352213]},{"name":"sandwich","coordinates":[0.359093165397644,0.10151885350545245,0.23846917152404784,0.30840657552083334]},{"name":"cup","coordinates":[0.6663591623306274,0.07407859166463215,0.22204298973083497,0.28644485473632814]},{"name":"knife","coordinates":[0.7854312241077424,0.4288455168406169,0.0869895339012146,0.5035059928894043]},{"name":"fork","coordinates":[0.6982541263103486,0.4033540884653727,0.0827208161354065,0.513524595896403]},{"name":"bowl","coordinates":[0.2986675202846527,0.6770424683888754,0.17756348848342896,0.23137089411417644]},{"name":"bowl","coordinates":[0.48721972703933714,0.6653110345204671,0.15392606258392333,0.20767609278361002]},{"name":"bowl","coordinates":[0.15245770215988158,0.5993250926335653,0.1469902753829956,0.19504577318827312]},{"name":"hot-dog","coordinates":[0.24484024047851566,0.28185238043467203,0.10209474563598633,0.20126404762268066]},{"name":"cup","coordinates":[0.17473170161247253,0.6358793179194133,0.07966099977493286,0.15728405316670735]}]}
