{"src":"https://a0.muscache.com/im/pictures/0ffd79cf-20fe-4acd-abf6-5558a0d3245f.jpg?aki_policy=xx_large","name":"nice room in a eclictish style for lovely people","listingId":22501948,"photoId":"866-6","tags":[{"name":"chair","coordinates":[1.3258670383029514,0.81803404490153,0.9072049741391782,0.3426608721415202]},{"name":"sofa","coordinates":[0.34338946872287324,0.8313447952270507,0.670139001916956,0.32062288920084636]},{"name":"chair","coordinates":[0.34338946872287324,0.8313447952270507,0.670139001916956,0.32062288920084636]},{"name":"chair","coordinates":[1.9043002658420138,0.8048388799031575,0.3865570633499711,0.39436480204264324]},{"name":"tvmonitor","coordinates":[1.514319751880787,0.519986915588379,0.32366968790690104,0.1834079106648763]},{"name":"pottedplant","coordinates":[1.907863814742477,0.45581356684366864,0.335330652307581,0.17573283513387045]},{"name":"chair","coordinates":[2.3287403247974536,0.8987801233927409,0.3914019549334491,0.13633928298950196]},{"name":"pottedplant","coordinates":[0.9142943205656828,0.5941520055135091,0.28770147252965855,0.14163551330566407]},{"name":"bottle","coordinates":[2.1776425962094907,0.5126792271931966,0.07429795441804109,0.13226704597473143]},{"name":"bottle","coordinates":[1.7727516456886574,0.49315961201985675,0.043692058987087674,0.06615119377772014]}]}
