{"src":"https://a0.muscache.com/im/pictures/93319b8d-70e4-4f6b-bfe0-d680c93f95c6.jpg?aki_policy=xx_large","name":"❤️1泊3000円~❤️ティファニーブルー明るいお部屋︎★仲良し2家族でゆったりST♡Y♪近くコインPあり","listingId":19470556,"photoId":"866-1","tags":[{"name":"sofa","coordinates":[0.47277843952178955,0.02549053827921549,0.5252926349639893,0.5947322209676107]},{"name":"bowl","coordinates":[0.35551470518112177,0.5290042718251546,0.3550820589065552,0.26967573165893555]},{"name":"wine-glass","coordinates":[0.003431421518325803,0.538279660542806,0.13545432090759277,0.3951807657877604]},{"name":"bowl","coordinates":[0.5441250920295716,0.4099716742833456,0.2414942502975464,0.21713798840840656]},{"name":"cup","coordinates":[0.5039553821086884,0.33790942827860515,0.08283849954605102,0.16807012557983397]}]}
