{"src":"https://a0.muscache.com/im/pictures/93319b8d-70e4-4f6b-bfe0-d680c93f95c6.jpg?aki_policy=xx_large","name":"❤️1泊3000円~❤️ティファニーブルー明るいお部屋︎★仲良し2家族でゆったりST♡Y♪近くコインPあり","listingId":19470556,"photoId":"866-1","tags":[{"name":"sofa","coordinates":[0.7354247570037842,0.32285664876302084,0.5252926349639893,0.5947322209676107]},{"name":"bowl","coordinates":[0.5330557346343994,0.6638421376546224,0.3550820589065552,0.26967573165893555]},{"name":"wine-glass","coordinates":[0.07115858197212219,0.7358700434366862,0.13545432090759277,0.3951807657877604]},{"name":"bowl","coordinates":[0.6648722171783448,0.5185406684875489,0.2414942502975464,0.21713798840840656]},{"name":"cup","coordinates":[0.5453746318817139,0.4219444910685221,0.08283849954605102,0.16807012557983397]}]}
