{"src":"https://a0.muscache.com/im/pictures/225aa620-f3aa-4bc1-9209-bb4350957715.jpg?aki_policy=xx_large","name":"Upmarket, secure apartment in a great location","listingId":19482152,"photoId":"868-4","tags":[{"name":"sofa","coordinates":[0.4799600601196289,0.41200292905171715,0.4520557403564453,0.38718328475952146]},{"name":"bed","coordinates":[0.2096437096595764,0.5706927935282389,0.37435910701751707,0.30733000437418617]},{"name":"tvmonitor","coordinates":[0.0026596352458000197,0.40383114814758303,0.03337208926677704,0.4426990826924642]},{"name":"book","coordinates":[0.33344054222106934,0.6258012096087138,0.08720474243164063,0.03853010336558024]},{"name":"cell-phone","coordinates":[0.49175944179296494,0.6642583628495534,0.03605833351612091,0.01709039608637492]},{"name":"remote","coordinates":[0.49175944179296494,0.6642583628495534,0.03605833351612091,0.01709039608637492]}]}
