{"src":"https://a0.muscache.com/im/pictures/dd304823-981b-4992-a1ad-c76a137505d1.jpg?aki_policy=xx_large","name":"Luxurious 2 bedroom duplex apartment in The Hague","listingId":22543088,"photoId":"868-1","tags":[{"name":"diningtable","coordinates":[0.3390214072333442,0.8107462565104167,0.6957320743136935,0.35139395395914713]},{"name":"sofa","coordinates":[0.716678958468967,0.6555883407592773,0.299443605211046,0.19784151713053386]},{"name":"chair","coordinates":[0.9204042222764757,0.807659403483073,0.16342301898532444,0.33489631017049154]},{"name":"sofa","coordinates":[0.9204042222764757,0.807659403483073,0.16342301898532444,0.33489631017049154]},{"name":"pottedplant","coordinates":[0.5898076799180773,0.4892801920572917,0.1515987820095486,0.24347647031148276]},{"name":"chair","coordinates":[0.6261126200358073,0.8600346247355143,0.07829165458679199,0.2772617022196452]}]}
