{"src":"https://a0.muscache.com/im/pictures/88263d08-c4ab-4a09-9a11-0926e7087d10.jpg?aki_policy=xx_large","name":"Upmarket, secure apartment in a great location","listingId":19482152,"photoId":"868-1","tags":[{"name":"refrigerator","coordinates":[0.6819460034370423,0.2971552054087321,0.16595628261566162,0.45087989171346027]},{"name":"chair","coordinates":[0.07141220569610597,0.7688133319218954,0.21469786167144775,0.22583222389221191]},{"name":"chair","coordinates":[0.0010862529277801472,0.6953305244445801,0.11260371208190918,0.2960927963256836]},{"name":"pottedplant","coordinates":[0.01366586983203888,0.3331037044525147,0.08300285935401916,0.26859540939331056]},{"name":"chair","coordinates":[0.3034880518913269,0.8995764056841533,0.20687201023101806,0.0932341972986857]},{"name":"microwave","coordinates":[0.16722688674926758,0.4797354459762573,0.14344549179077148,0.10845691363016764]},{"name":"bowl","coordinates":[0.3361144185066223,0.6001769741376242,0.11417996883392334,0.07342166105906169]},{"name":"oven","coordinates":[0.38393324315547944,0.5575550397237142,0.09392874836921691,0.0655453364054362]},{"name":"sink","coordinates":[0.5103658556938171,0.5257862319548925,0.11722919940948487,0.025035303831100465]},{"name":"knife","coordinates":[0.42231196276843547,0.47023735046386717,0.008465788513422012,0.02773901621500651]},{"name":"knife","coordinates":[0.416358993947506,0.46890340050061546,0.007891467213630677,0.02943950891494751]}]}
