{"src":"https://a0.muscache.com/im/pictures/88263d08-c4ab-4a09-9a11-0926e7087d10.jpg?aki_policy=xx_large","name":"Upmarket, secure apartment in a great location","listingId":19482152,"photoId":"868-1","tags":[{"name":"refrigerator","coordinates":[0.764924144744873,0.5225951512654622,0.16595628261566162,0.45087989171346027]},{"name":"chair","coordinates":[0.17876113653182985,0.8817294438680013,0.21469786167144775,0.22583222389221191]},{"name":"chair","coordinates":[0.05738810896873474,0.8433769226074219,0.11260371208190918,0.2960927963256836]},{"name":"pottedplant","coordinates":[0.05516729950904846,0.46740140914916994,0.08300285935401916,0.26859540939331056]},{"name":"chair","coordinates":[0.4069240570068359,0.9461935043334961,0.20687201023101806,0.0932341972986857]},{"name":"microwave","coordinates":[0.23894963264465333,0.5339639027913411,0.14344549179077148,0.10845691363016764]},{"name":"bowl","coordinates":[0.393204402923584,0.636887804667155,0.11417996883392334,0.07342166105906169]},{"name":"oven","coordinates":[0.4308976173400879,0.5903277079264323,0.09392874836921691,0.0655453364054362]},{"name":"sink","coordinates":[0.5689804553985596,0.5383038838704427,0.11722919940948487,0.025035303831100465]},{"name":"knife","coordinates":[0.4265448570251465,0.4841068585713704,0.008465788513422012,0.02773901621500651]},{"name":"knife","coordinates":[0.4203047275543213,0.4836231549580892,0.007891467213630677,0.02943950891494751]}]}
