{"src":"https://a0.muscache.com/im/pictures/225aa620-f3aa-4bc1-9209-bb4350957715.jpg?aki_policy=xx_large","name":"Upmarket, secure apartment in a great location","listingId":19482152,"photoId":"868-4","tags":[{"name":"sofa","coordinates":[0.7059879302978516,0.6055945714314779,0.4520557403564453,0.38718328475952146]},{"name":"bed","coordinates":[0.39682326316833494,0.724357795715332,0.37435910701751707,0.30733000437418617]},{"name":"tvmonitor","coordinates":[0.01934567987918854,0.6251806894938151,0.03337208926677704,0.4426990826924642]},{"name":"book","coordinates":[0.37704291343688967,0.6450662612915039,0.08720474243164063,0.03853010336558024]},{"name":"cell-phone","coordinates":[0.5097886085510254,0.6728035608927408,0.03605833351612091,0.01709039608637492]},{"name":"remote","coordinates":[0.5097886085510254,0.6728035608927408,0.03605833351612091,0.01709039608637492]}]}
