{"src":"https://a0.muscache.com/im/pictures/4840c952-c547-4bf5-ae56-c2738dc8339f.jpg?aki_policy=xx_large","name":"Room in Characteristic 1912 mansion","listingId":12037937,"photoId":"87-5","tags":[{"name":"bed","coordinates":[0.5194911532931857,0.9106122334798177,0.8772465176052517,0.17890235582987468]},{"name":"chair","coordinates":[0.099177614847819,0.7682184855143229,0.20479727851019966,0.44573564529418946]},{"name":"chair","coordinates":[0.3779261695014106,0.6891735712687175,0.1397238943311903,0.31637118657430013]},{"name":"diningtable","coordinates":[0.25144293043348526,0.7569525400797527,0.16244583129882811,0.22240856488545735]},{"name":"pottedplant","coordinates":[0.25404404534233943,0.6294458389282227,0.061977852715386285,0.07546230951944986]}]}
