{"src":"https://a0.muscache.com/im/pictures/1410c0aa-e4fb-4f23-910f-3033b0729869.jpg?aki_policy=xx_large","name":"Beautiful apartment in the best part of town","listingId":22623107,"photoId":"871-11","tags":[{"name":"toilet","coordinates":[0.5375092824300131,0.7246546427408854,0.459674072265625,0.4936692555745443]},{"name":"sink","coordinates":[0.8375553554958768,0.7598104476928711,0.3316638734605577,0.2505107243855794]},{"name":"bowl","coordinates":[0.30009468926323785,0.4724831263224284,0.11739671495225694,0.07599002520243327]},{"name":"bottle","coordinates":[0.16239851845635309,0.33162975311279297,0.056333033243815105,0.0997804323832194]},{"name":"cup","coordinates":[0.1113293965657552,0.3532670656840006,0.06679708692762587,0.0728603998819987]},{"name":"bottle","coordinates":[0.2073285208808051,0.3219502766927083,0.044621282153659396,0.07736641565958659]}]}
