{"src":"https://a0.muscache.com/im/pictures/73734f1e-1f9b-41a4-877f-d5217ebcdb00.jpg?aki_policy=xx_large","name":"Casa de vacaciones ll","listingId":19530312,"photoId":"872-0","tags":[{"name":"diningtable","coordinates":[0.4453357484605577,0.4995282014211019,0.5461021847195096,0.3476787249247233]},{"name":"chair","coordinates":[0.6044808493720161,0.5688373883565266,0.3718495262993707,0.4301576614379883]},{"name":"sofa","coordinates":[0.05736999511718749,0.4400851964950562,0.4467032962375217,0.20592923164367677]},{"name":"chair","coordinates":[0.4608690473768446,0.5196742534637451,0.2020875718858507,0.31185617446899416]},{"name":"pottedplant","coordinates":[0.0025318357679579018,0.400616709391276,0.19201295640733507,0.14115384419759114]},{"name":"bottle","coordinates":[0.8282326009538438,0.45478197336196896,0.05186982684665256,0.12462934652964273]}]}
