{"src":"https://a0.muscache.com/im/pictures/73734f1e-1f9b-41a4-877f-d5217ebcdb00.jpg?aki_policy=xx_large","name":"Casa de vacaciones ll","listingId":19530312,"photoId":"872-0","tags":[{"name":"diningtable","coordinates":[0.7183868408203125,0.6733675638834635,0.5461021847195096,0.3476787249247233]},{"name":"chair","coordinates":[0.7904056125217014,0.7839162190755208,0.3718495262993707,0.4301576614379883]},{"name":"sofa","coordinates":[0.28072164323594834,0.5430498123168945,0.4467032962375217,0.20592923164367677]},{"name":"chair","coordinates":[0.5619128333197699,0.6756023406982422,0.2020875718858507,0.31185617446899416]},{"name":"pottedplant","coordinates":[0.09853831397162544,0.4711936314900716,0.19201295640733507,0.14115384419759114]},{"name":"bottle","coordinates":[0.8541675143771701,0.5170966466267903,0.05186982684665256,0.12462934652964273]}]}
