{"src":"https://a0.muscache.com/im/pictures/73734f1e-1f9b-41a4-877f-d5217ebcdb00.jpg?aki_policy=xx_large","name":"Casa de vacaciones ll","listingId":19530312,"photoId":"872-0","tags":[{"name":"diningtable","coordinates":[0.719385988025904,0.6733675638834635,0.5468617148790638,0.3476787249247233]},{"name":"chair","coordinates":[0.7915049249174201,0.7839162190755208,0.37236670227475227,0.4301576614379883]},{"name":"sofa","coordinates":[0.2811120766757758,0.5430498123168945,0.4473245803769341,0.20592923164367677]},{"name":"chair","coordinates":[0.5626943532548462,0.6756023406982422,0.20236863944062936,0.31185617446899416]},{"name":"pottedplant","coordinates":[0.09867536308702408,0.4711936314900716,0.19228001197952885,0.14115384419759114]},{"name":"bottle","coordinates":[0.8553555081384736,0.5170966466267903,0.0519419684695269,0.12462934652964273]}]}
