{"src":"https://a0.muscache.com/im/pictures/32207275/76b40a5f_original.jpg?aki_policy=xx_large","name":"Apt nearby the sea for â‚¬ 150,- /day","listingId":2264430,"photoId":"873-1","tags":[{"name":"diningtable","coordinates":[0.6804460313585069,0.8528501510620117,0.42762052747938367,0.2945336023966471]},{"name":"chair","coordinates":[0.09700685077243382,0.9089561462402344,0.19736194610595703,0.1788991928100586]},{"name":"tvmonitor","coordinates":[0.5433664957682292,0.44833339055379234,0.12524644003974067,0.16547710100809734]},{"name":"book","coordinates":[0.14530251820882162,0.6364992141723633,0.043275472852918835,0.12321858406066895]},{"name":"chair","coordinates":[0.9506258646647135,0.5116211891174316,0.04267618126339383,0.11153356234232585]},{"name":"vase","coordinates":[0.08195069630940756,0.6798583984375,0.049541197882758244,0.0936635414759318]},{"name":"cup","coordinates":[0.09333223766750759,0.3060660680135091,0.04509351518419054,0.08716655572255452]},{"name":"book","coordinates":[0.16464710235595703,0.6346188863118489,0.024263723691304525,0.1260114351908366]},{"name":"book","coordinates":[0.18271170722113717,0.6302084604899089,0.017466784848107233,0.12919482390085857]},{"name":"vase","coordinates":[0.6803531222873264,0.4859447479248047,0.01953949001100328,0.04854678710301717]}]}
