{"src":"https://a0.muscache.com/im/pictures/664f6e26-7662-4295-a5aa-29b8c8d49d25.jpg?aki_policy=xx_large","name":"Private room. 1- 2 guest.","listingId":22659639,"photoId":"874-7","tags":[{"name":"diningtable","coordinates":[0.5815355936686198,0.768278694152832,0.6155662960476346,0.42408777872721354]},{"name":"sofa","coordinates":[0.866998036702474,0.768108876546224,0.2866948233710395,0.3919526100158691]},{"name":"chair","coordinates":[0.32939383188883464,0.8568408330281575,0.3725887722439236,0.26515394846598306]},{"name":"chair","coordinates":[0.4315177917480469,0.6357902526855469,0.13672761917114257,0.15359649658203126]},{"name":"pottedplant","coordinates":[0.9509577433268229,0.47357069651285805,0.07971026102701823,0.19483067194620768]},{"name":"chair","coordinates":[0.546384514702691,0.5968771616617838,0.08903180228339301,0.11099459330240885]},{"name":"pottedplant","coordinates":[0.7463951958550348,0.4864242871602376,0.037480831146240234,0.09755415916442871]},{"name":"pottedplant","coordinates":[0.5438015407986111,0.4962189038594564,0.039790948232014976,0.06703036626180013]},{"name":"pottedplant","coordinates":[0.4928513844807943,0.49396982192993166,0.03122220304277208,0.04666313330332438]},{"name":"vase","coordinates":[0.583833736843533,0.49459444681803383,0.014161001311408149,0.0738440752029419]}]}
