{"src":"https://a0.muscache.com/im/pictures/ee7c6a28-98f9-4421-9739-8174047c6a0c.jpg?aki_policy=xx_large","name":"Private room. 1- 2 guest.","listingId":22659639,"photoId":"874-5","tags":[{"name":"diningtable","coordinates":[0.5187982347276475,0.8023388544718425,0.7432968139648437,0.3674681345621745]},{"name":"sofa","coordinates":[0.126716242896186,0.835063362121582,0.2347500695122613,0.28783677419026693]},{"name":"chair","coordinates":[0.6615450541178386,0.749148941040039,0.1676615079243978,0.2049096425374349]},{"name":"sofa","coordinates":[0.297289064195421,0.6289531071980794,0.13811973995632595,0.12839542229970297]},{"name":"pottedplant","coordinates":[0.43933902316623263,0.6818492889404297,0.08327377637227376,0.17148620287577312]},{"name":"chair","coordinates":[0.5313421461317275,0.669357426961263,0.09818120532565647,0.13234153588612874]},{"name":"chair","coordinates":[0.2184157477484809,0.5357521057128907,0.04784019788106283,0.09234399795532226]}]}
