{"src":"https://a0.muscache.com/im/pictures/89781c13-f0f5-435b-9428-60f87718e9cf.jpg?aki_policy=xx_large","name":"Lovely room near a Quiet beach and Airport","listingId":19537348,"photoId":"875-3","tags":[{"name":"refrigerator","coordinates":[0.31160335540771483,0.6066028594970703,0.21608195304870606,0.5189929644266764]},{"name":"oven","coordinates":[0.7290322303771972,0.7984315872192382,0.25694420337677004,0.36181777318318686]},{"name":"sink","coordinates":[0.863869571685791,0.8906606038411459,0.2345364809036255,0.2043183485666911]},{"name":"microwave","coordinates":[0.5089520454406739,0.5452986399332682,0.1804201126098633,0.14216861724853516]},{"name":"pottedplant","coordinates":[0.19494273662567138,0.4653346379597982,0.037915277481079104,0.08056774139404296]}]}
