{"src":"https://a0.muscache.com/im/pictures/89781c13-f0f5-435b-9428-60f87718e9cf.jpg?aki_policy=xx_large","name":"Lovely room near a Quiet beach and Airport","listingId":19537348,"photoId":"875-3","tags":[{"name":"refrigerator","coordinates":[0.20356237888336182,0.34710637728373206,0.21608195304870606,0.5189929644266764]},{"name":"oven","coordinates":[0.6005601286888123,0.6175227006276448,0.25694420337677004,0.36181777318318686]},{"name":"sink","coordinates":[0.7466013312339783,0.7885014295578003,0.2345364809036255,0.2043183485666911]},{"name":"microwave","coordinates":[0.41874198913574223,0.47421433130900065,0.1804201126098633,0.14216861724853516]},{"name":"pottedplant","coordinates":[0.17598509788513184,0.4250507672627767,0.037915277481079104,0.08056774139404296]}]}
