{"src":"https://a0.muscache.com/im/pictures/89781c13-f0f5-435b-9428-60f87718e9cf.jpg?aki_policy=xx_large","name":"Lovely room near a Quiet beach and Airport","listingId":19537348,"photoId":"875-3","tags":[{"name":"refrigerator","coordinates":[0.5539615207248264,0.6066028594970703,0.38414569430881074,0.5189929644266764]},{"name":"oven","coordinates":[1.2960572984483507,0.7984315872192382,0.4567896948920356,0.36181777318318686]},{"name":"sink","coordinates":[1.5357681274414063,0.8906606038411459,0.4169537438286675,0.2043183485666911]},{"name":"microwave","coordinates":[0.9048036363389756,0.5452986399332682,0.3207468668619792,0.14216861724853516]},{"name":"pottedplant","coordinates":[0.34656486511230467,0.4653346379597982,0.06740493774414062,0.08056774139404296]}]}
