{"src":"https://a0.muscache.com/im/pictures/56ef6729-ce9d-4baa-98ef-bff6ba9b37d1.jpg?aki_policy=xx_large","name":"*New* \"bamboo\" theme room with breakfast!","listingId":19557054,"photoId":"876-3","tags":[{"name":"diningtable","coordinates":[0.6748313426971435,0.816174062093099,0.7020755767822265,0.32531042098999025]},{"name":"sofa","coordinates":[0.28431785106658936,0.6023030598958333,0.3100299835205078,0.22795701026916504]},{"name":"bed","coordinates":[0.28431785106658936,0.6023030598958333,0.3100299835205078,0.22795701026916504]},{"name":"chair","coordinates":[0.3701785564422607,0.8156410853068033,0.21206278800964357,0.32486848831176757]},{"name":"chair","coordinates":[0.9372676849365235,0.7709204991658528,0.12093462944030761,0.22369942665100098]},{"name":"chair","coordinates":[0.7897746562957764,0.6764895757039388,0.14339495897293092,0.16837913195292156]},{"name":"chair","coordinates":[0.4884665489196777,0.6157083511352539,0.1480913281440735,0.13999543190002442]},{"name":"sofa","coordinates":[0.056140708923339847,0.5364205042521158,0.10124236345291138,0.20012470881144206]},{"name":"vase","coordinates":[0.6495208740234375,0.6892590204874675,0.06741673350334168,0.1675273100535075]},{"name":"tvmonitor","coordinates":[0.22407028675079346,0.43975019454956055,0.1161857008934021,0.09231202602386475]}]}
