{"src":"https://a0.muscache.com/im/pictures/e7a5a723-7d30-4413-a8e8-7a5550f90086.jpg?aki_policy=xx_large","name":"Spacious private living- and bedroom","listingId":22683229,"photoId":"876-3","tags":[{"name":"sofa","coordinates":[0.7846091453534599,0.8908577601114909,0.40652548173067654,0.20106045405069986]},{"name":"tvmonitor","coordinates":[0.19568596974463304,0.428191089630127,0.20540435955721134,0.2645113468170166]},{"name":"pottedplant","coordinates":[0.11187734728881553,0.8767543156941732,0.21023199571125675,0.24824724197387696]},{"name":"sofa","coordinates":[0.9497388429428488,0.7859302520751953,0.09979226870452246,0.4031439145406087]},{"name":"pottedplant","coordinates":[0.3617256064551007,0.5162102063496907,0.10774588603282213,0.22058722178141277]},{"name":"chair","coordinates":[0.6289756145492,0.5402124404907227,0.05523876346067548,0.2277664025624593]},{"name":"pottedplant","coordinates":[0.5836714345304067,0.35397380193074546,0.07591982851050501,0.14263558387756348]},{"name":"bowl","coordinates":[0.5721476017371819,0.41376301447550456,0.03299783134607508,0.030031768480936687]}]}
