{"src":"https://a0.muscache.com/im/pictures/3567b201-8dac-4199-99aa-abc167d1e8cd.jpg?aki_policy=xx_large","name":"*New* \"bamboo\" theme room with breakfast!","listingId":19557054,"photoId":"876-2","tags":[{"name":"diningtable","coordinates":[0.47774533033370975,0.5602445443471273,0.37320187091827395,0.43036362330118816]},{"name":"chair","coordinates":[0.33977116346359254,0.5770879268646241,0.29370262622833254,0.4220884641011556]},{"name":"chair","coordinates":[0.6828324615955352,0.5692867596944173,0.19956201314926147,0.4200382868448893]},{"name":"chair","coordinates":[0.42771443724632263,0.5292662421862284,0.0942353367805481,0.07469009558359782]},{"name":"chair","coordinates":[0.5177310705184937,0.5221665958563486,0.07390475273132324,0.062339476744333905]},{"name":"clock","coordinates":[0.5698994055390358,0.23768929243087766,0.027003690600395203,0.05862092177073161]},{"name":"orange","coordinates":[0.6538991861045361,0.5555123209953308,0.019182981550693513,0.02407858371734619]},{"name":"apple","coordinates":[0.6727820970118046,0.5575821250677109,0.017485694587230684,0.02232417861620585]},{"name":"orange","coordinates":[0.6727820970118046,0.5575821250677109,0.017485694587230684,0.02232417861620585]},{"name":"apple","coordinates":[0.6724080681800843,0.5759577403465906,0.019003748893737793,0.01682612697283427]}]}
