{"src":"https://a0.muscache.com/im/pictures/3567b201-8dac-4199-99aa-abc167d1e8cd.jpg?aki_policy=xx_large","name":"*New* \"bamboo\" theme room with breakfast!","listingId":19557054,"photoId":"876-2","tags":[{"name":"diningtable","coordinates":[0.6643462657928467,0.7754263559977214,0.37320187091827395,0.43036362330118816]},{"name":"chair","coordinates":[0.4866224765777588,0.7881321589152018,0.29370262622833254,0.4220884641011556]},{"name":"chair","coordinates":[0.782613468170166,0.779305903116862,0.19956201314926147,0.4200382868448893]},{"name":"chair","coordinates":[0.47483210563659667,0.5666112899780273,0.0942353367805481,0.07469009558359782]},{"name":"chair","coordinates":[0.5546834468841553,0.5533363342285156,0.07390475273132324,0.062339476744333905]},{"name":"clock","coordinates":[0.5834012508392334,0.2669997533162435,0.027003690600395203,0.05862092177073161]},{"name":"orange","coordinates":[0.6634906768798828,0.5675516128540039,0.019182981550693513,0.02407858371734619]},{"name":"apple","coordinates":[0.6815249443054199,0.5687442143758138,0.017485694587230684,0.02232417861620585]},{"name":"orange","coordinates":[0.6815249443054199,0.5687442143758138,0.017485694587230684,0.02232417861620585]},{"name":"apple","coordinates":[0.6819099426269531,0.5843708038330078,0.019003748893737793,0.01682612697283427]}]}
