{"src":"https://a0.muscache.com/im/pictures/56ef6729-ce9d-4baa-98ef-bff6ba9b37d1.jpg?aki_policy=xx_large","name":"*New* \"bamboo\" theme room with breakfast!","listingId":19557054,"photoId":"876-3","tags":[{"name":"diningtable","coordinates":[0.32379355430603024,0.6535188515981039,0.7020755767822265,0.32531042098999025]},{"name":"sofa","coordinates":[0.12930285930633545,0.4883245547612508,0.3100299835205078,0.22795701026916504]},{"name":"bed","coordinates":[0.12930285930633545,0.4883245547612508,0.3100299835205078,0.22795701026916504]},{"name":"chair","coordinates":[0.26414716243743896,0.6532068411509195,0.21206278800964357,0.32486848831176757]},{"name":"chair","coordinates":[0.8768003702163697,0.6590707858403523,0.12093462944030761,0.22369942665100098]},{"name":"chair","coordinates":[0.7180771768093109,0.592300009727478,0.14339495897293092,0.16837913195292156]},{"name":"chair","coordinates":[0.41442088484764095,0.5457106351852417,0.1480913281440735,0.13999543190002442]},{"name":"sofa","coordinates":[0.005519527196884158,0.4363581498463948,0.10124236345291138,0.20012470881144206]},{"name":"vase","coordinates":[0.6158125072717666,0.6054953654607137,0.06741673350334168,0.1675273100535075]},{"name":"tvmonitor","coordinates":[0.1659774363040924,0.39359418153762815,0.1161857008934021,0.09231202602386475]}]}
