{"src":"https://a0.muscache.com/im/pictures/ca5c5fc0-4d31-46c8-bf6f-58dc8bbbccde.jpg?aki_policy=xx_large","name":"Apartment with large terrace 40 sqm","listingId":19571103,"photoId":"878-10","tags":[{"name":"sofa","coordinates":[-0.015636003017425515,0.5672667980194092,0.36335728168487547,0.4122412045796712]},{"name":"sofa","coordinates":[-0.004053038358688352,0.5932991027832031,0.17382946014404296,0.3867603302001953]},{"name":"microwave","coordinates":[0.7533829331398011,0.5686833540598552,0.2462895154953003,0.18314606348673504]},{"name":"cup","coordinates":[0.7138640612363816,0.13137723604838053,0.05002627968788147,0.08520800272623698]},{"name":"book","coordinates":[0.13357098847627638,0.3521536668141683,0.014303025603294373,0.0659962018330892]}]}
