{"src":"https://a0.muscache.com/im/pictures/285f8d55-2480-4cf2-aad6-2b7661493c0a.jpg?aki_policy=xx_large","name":"Apartment with large terrace 40 sqm","listingId":19571103,"photoId":"878-1","tags":[{"name":"chair","coordinates":[0.7206459999084472,0.8354830423990885,0.34047613143920896,0.2819035530090332]},{"name":"sofa","coordinates":[0.8848310470581054,0.8023576736450195,0.2454371690750122,0.3853346188863119]},{"name":"diningtable","coordinates":[0.5255356311798096,0.9281304041544597,0.32657124996185305,0.09407042662302653]},{"name":"tvmonitor","coordinates":[0.32860090732574465,0.43927574157714844,0.15850554704666137,0.16480029424031575]},{"name":"pottedplant","coordinates":[0.9301897048950195,0.4701330820719401,0.12150746583938599,0.1320907751719157]},{"name":"pottedplant","coordinates":[0.45447416305541993,0.4619632085164388,0.0375325620174408,0.12415056228637696]},{"name":"vase","coordinates":[0.8756662368774414,0.5118420282999675,0.02236550748348236,0.067426864306132]}]}
