{"src":"https://a0.muscache.com/im/pictures/285f8d55-2480-4cf2-aad6-2b7661493c0a.jpg?aki_policy=xx_large","name":"Apartment with large terrace 40 sqm","listingId":19571103,"photoId":"878-1","tags":[{"name":"chair","coordinates":[0.5504079341888428,0.6945312658945719,0.34047613143920896,0.2819035530090332]},{"name":"sofa","coordinates":[0.7621124625205994,0.6096903642018636,0.2454371690750122,0.3853346188863119]},{"name":"diningtable","coordinates":[0.3622500061988831,0.8810951908429464,0.32657124996185305,0.09407042662302653]},{"name":"tvmonitor","coordinates":[0.24934813380241397,0.3568755944569906,0.15850554704666137,0.16480029424031575]},{"name":"pottedplant","coordinates":[0.8694359719753265,0.40408769448598225,0.12150746583938599,0.1320907751719157]},{"name":"pottedplant","coordinates":[0.4357078820466995,0.3998879273732503,0.0375325620174408,0.12415056228637696]},{"name":"vase","coordinates":[0.8644834831357002,0.4781285961469015,0.02236550748348236,0.067426864306132]}]}
