{"src":"https://a0.muscache.com/im/pictures/ca5c5fc0-4d31-46c8-bf6f-58dc8bbbccde.jpg?aki_policy=xx_large","name":"Apartment with large terrace 40 sqm","listingId":19571103,"photoId":"878-10","tags":[{"name":"sofa","coordinates":[0.16604263782501222,0.7733874003092448,0.36335728168487547,0.4122412045796712]},{"name":"sofa","coordinates":[0.08286169171333313,0.7866792678833008,0.17382946014404296,0.3867603302001953]},{"name":"microwave","coordinates":[0.8765276908874512,0.6602563858032227,0.2462895154953003,0.18314606348673504]},{"name":"cup","coordinates":[0.7388772010803223,0.173981237411499,0.05002627968788147,0.08520800272623698]},{"name":"book","coordinates":[0.14072250127792357,0.3851517677307129,0.014303025603294373,0.0659962018330892]}]}
