{"src":"https://a0.muscache.com/im/pictures/adf44a78-4a88-4b51-9386-05fe797a9a30.jpg?aki_policy=xx_large","name":"Cozy Room Near Beach","listingId":19575212,"photoId":"879-4","tags":[{"name":"bed","coordinates":[0.5874800852631706,0.7197940190633138,0.7992576492333301,0.5331390380859375]},{"name":"diningtable","coordinates":[0.3600333586080263,0.5881085713704427,0.35434897320452224,0.31617059707641604]},{"name":"chair","coordinates":[0.20107543375777606,0.6258029937744141,0.1900742621295745,0.41636632283528646]},{"name":"tvmonitor","coordinates":[0.34388163375261227,0.09788342316945393,0.2376808652981629,0.2015707810719808]},{"name":"chair","coordinates":[0.5156395706010644,0.4602919896443685,0.09812011837403103,0.196827761332194]}]}
