{"src":"https://a0.muscache.com/im/pictures/4c76b33d-ac50-4e2d-a40c-4b22369a2688.jpg?aki_policy=xx_large","name":"Modern room 10min to center !","listingId":22800250,"photoId":"881-0","tags":[{"name":"sofa","coordinates":[0.330312705039978,0.6922297795613607,0.7076566696166993,0.38362347284952797]},{"name":"tvmonitor","coordinates":[0.8914585113525391,0.5095667839050293,0.13503012657165528,0.20303152402242025]},{"name":"pottedplant","coordinates":[0.7331788539886475,0.41546058654785156,0.05753565430641174,0.11529138882954916]},{"name":"pottedplant","coordinates":[0.629772424697876,0.4197698593139648,0.06607899069786072,0.09414889017740885]},{"name":"vase","coordinates":[0.47080678939819337,0.4318305333455404,0.026183897256851198,0.03476846218109131]}]}
