{"src":"https://a0.muscache.com/im/pictures/12876e68-b42c-4aad-a92b-606bdfb72a4d.jpg?aki_policy=xx_large","name":"La Casa del Molino","listingId":22807983,"photoId":"882-1","tags":[{"name":"bed","coordinates":[0.182059203253852,0.880083974202474,0.40376146104600696,0.23903648058573404]},{"name":"vase","coordinates":[0.2449790318806966,0.2545366923014323,0.0780477629767524,0.10656093756357829]},{"name":"pottedplant","coordinates":[0.2926786210801866,0.5737382253011067,0.05390000873141819,0.07582780520121256]},{"name":"pottedplant","coordinates":[0.19809269375271268,0.7089303970336914,0.0457060972849528,0.07603464921315511]},{"name":"book","coordinates":[0.1958235846625434,0.43024905522664386,0.022581479284498426,0.0717030922571818]},{"name":"book","coordinates":[0.1795800526936849,0.4297552744547526,0.018176617887285022,0.08329385121663412]},{"name":"book","coordinates":[0.16950769424438478,0.4300763448079427,0.01733586523267958,0.08182857831319174]},{"name":"book","coordinates":[0.15849569108751085,0.4290988604227702,0.012372534804873997,0.08380819161732991]}]}
