{"src":"https://a0.muscache.com/im/pictures/4ac3d19f-27e3-45fb-a7d1-d1326217e22c.jpg?aki_policy=xx_large","name":"Stylish apartment, private roof terras","listingId":22877198,"photoId":"888-10","tags":[{"name":"person","coordinates":[1.1124421832342044,0.7366496404012044,1.9183020152837365,0.13169382413228353]},{"name":"umbrella","coordinates":[1.704854742041244,0.6222485224405925,0.38773678022316205,0.057834152380625406]},{"name":"umbrella","coordinates":[1.2864708387163613,0.6315624237060546,0.2693129612391527,0.06111979087193807]},{"name":"person","coordinates":[1.9758276024400352,0.797391128540039,0.0917740046699036,0.14606542587280275]},{"name":"chair","coordinates":[0.7137349287916829,0.8092926661173503,0.10845994874951248,0.1226076364517212]},{"name":"pottedplant","coordinates":[0.876722981516917,0.8248839696248372,0.0876546017651253,0.10185879866282145]},{"name":"person","coordinates":[1.4061541148169365,0.7494600931803386,0.0794014714995338,0.10245498021443684]},{"name":"person","coordinates":[0.4535392963570105,0.6962416330973308,0.0948744787254869,0.06536996364593506]},{"name":"person","coordinates":[1.797704354463241,0.7375905990600586,0.0717176892642112,0.046439774831136066]}]}
