{"src":"https://a0.muscache.com/im/pictures/f22e13fd-5aee-400f-9ddc-a82d93a44a38.jpg?aki_policy=xx_large","name":"Mika&amp;Marcels canal house","listingId":22883803,"photoId":"890-5","tags":[{"name":"diningtable","coordinates":[0.6857860141330295,0.7149347305297852,0.636752192179362,0.4911347389221191]},{"name":"sofa","coordinates":[0.1597285164727105,0.5064879099527995,0.3265441682603624,0.32443971633911134]},{"name":"pottedplant","coordinates":[0.6787040710449219,0.4405127843221029,0.22728682623969185,0.25981109937032065]},{"name":"chair","coordinates":[0.5055165184868706,0.45237916310628257,0.20765266418457032,0.1878381093343099]},{"name":"vase","coordinates":[0.6739938100179036,0.4924488067626953,0.12642459869384765,0.1402084509531657]},{"name":"vase","coordinates":[0.07995216051737468,0.31702000300089517,0.05593112309773763,0.06667679150899251]}]}
