{"src":"https://a0.muscache.com/im/pictures/5accc354-cdbf-4948-8618-0af3000b155f.jpg?aki_policy=xx_large","name":"Mika&amp;Marcels canal house","listingId":22883803,"photoId":"890-7","tags":[{"name":"pottedplant","coordinates":[0.6082804785834418,0.7590981801350911,0.28146338992648656,0.21212921142578126]},{"name":"orange","coordinates":[0.7500274658203125,0.9091765721638997,0.21134185791015625,0.13538495699564615]},{"name":"pottedplant","coordinates":[0.1299658881293403,0.7827979405721028,0.11238649156358507,0.12291696866353354]},{"name":"chair","coordinates":[0.2719964133368598,0.7085018793741862,0.07067261801825629,0.1590081532796224]},{"name":"vase","coordinates":[0.6239283667670356,0.8332529703776042,0.10135989718967015,0.07528573671976725]},{"name":"pottedplant","coordinates":[0.10210573408338759,0.8201555252075196,0.07125678062438964,0.08000273704528808]},{"name":"orange","coordinates":[0.7985527038574218,0.9055772145589193,0.06015328831142849,0.04433480103810628]}]}
