{"src":"https://a0.muscache.com/im/pictures/30e4267b-926b-4cc3-a079-afb9dd0a046e.jpg?aki_policy=xx_large","name":"Circus Theatre view studio","listingId":22905172,"photoId":"891-4","tags":[{"name":"chair","coordinates":[0.1600302193003154,0.7969452540079752,0.2859408585986214,0.39961446126302086]},{"name":"sofa","coordinates":[0.8327599612419622,0.6852553685506185,0.36177038012866575,0.23769443829854328]},{"name":"pottedplant","coordinates":[0.5841481661480661,0.5305854161580403,0.10663770644439911,0.36728725433349607]},{"name":"tvmonitor","coordinates":[0.3255421139723792,0.6427793502807617,0.1559620929340413,0.19270666440327963]},{"name":"pottedplant","coordinates":[0.8050762601690374,0.7242369333902995,0.04717064349798142,0.0808470646540324]}]}
