{"src":"https://a0.muscache.com/im/pictures/f10df70d-962e-4467-bfe9-05b02db138a9.jpg?aki_policy=xx_large","name":"Zee, rust, cultuur, vermaak in Den Haag/Kijkduin","listingId":22915764,"photoId":"892-1","tags":[{"name":"sofa","coordinates":[0.35523073408338757,0.5921945571899414,0.6867145114474826,0.35135421752929685]},{"name":"chair","coordinates":[1.3587933010525173,0.5706281661987305,0.3910307142469618,0.3297135353088379]},{"name":"chair","coordinates":[1.6980595906575522,0.48825737635294597,0.14937095642089843,0.163220485051473]},{"name":"tvmonitor","coordinates":[0.6946403503417968,0.40100371042887367,0.1856887181599935,0.11440077622731527]},{"name":"pottedplant","coordinates":[0.7992069668240017,0.5650651931762696,0.1418160120646159,0.13317173322041828]}]}
