{"src":"https://a0.muscache.com/im/pictures/a3c29e9c-ef13-49c5-a891-1a6cae62d8b4.jpg?aki_policy=xx_large","name":"Zee, rust, cultuur, vermaak in Den Haag/Kijkduin","listingId":22915764,"photoId":"892-3","tags":[{"name":"sofa","coordinates":[0.20743774837917753,0.7502566655476888,0.3776397705078125,0.48584620157877606]},{"name":"sofa","coordinates":[0.4680299970838759,0.5185782750447591,0.6085684458414714,0.2194969654083252]},{"name":"diningtable","coordinates":[0.6974651760525173,0.653680165608724,0.5072266048855252,0.23202484448750813]},{"name":"pottedplant","coordinates":[0.061003923416137695,0.4092757225036621,0.12594458262125652,0.1597399393717448]},{"name":"tvmonitor","coordinates":[0.7812225341796875,0.3974346478780111,0.13677901162041559,0.09253808657328287]}]}
