{"src":"https://a0.muscache.com/im/pictures/6ce3832d-372d-4084-a9ae-a14b0419309b.jpg?aki_policy=xx_large","name":"Hendricks Home","listingId":22917471,"photoId":"893-1","tags":[{"name":"diningtable","coordinates":[0.23577200571695964,0.6624217987060547,0.3163725111219618,0.41877609888712564]},{"name":"chair","coordinates":[0.3964661068386502,0.7882474263509115,0.10626689063178169,0.40854225158691404]},{"name":"chair","coordinates":[0.053375222947862414,0.7902182896931966,0.1000684102376302,0.4236493428548177]},{"name":"chair","coordinates":[0.21399919721815322,0.9156260808308919,0.23477844662136502,0.1493707021077474]},{"name":"sofa","coordinates":[0.32281653086344403,0.4386958440144857,0.12965786192152234,0.10497081279754639]},{"name":"chair","coordinates":[0.08384000990125869,0.6218439737955729,0.05550618171691894,0.18620572090148926]},{"name":"chair","coordinates":[0.3744529300265842,0.5932310740152995,0.05390411482916938,0.16516229311625164]},{"name":"chair","coordinates":[0.11897110409206814,0.5572751998901367,0.03465341462029351,0.1395231564839681]},{"name":"chair","coordinates":[0.3487752278645833,0.5454025904337565,0.029158054457770453,0.10892987251281738]},{"name":"wine-glass","coordinates":[0.29690691630045574,0.6849311192830404,0.023934205373128254,0.09427550633748373]},{"name":"cup","coordinates":[0.20288121965196398,0.6634618123372396,0.02604827086130778,0.08298449516296387]},{"name":"cup","coordinates":[0.3284957461886936,0.7262961069742838,0.02765003840128581,0.0621898094813029]},{"name":"fork","coordinates":[0.12715674506293403,0.7360160191853841,0.06640769640604655,0.018797882397969565]},{"name":"fork","coordinates":[0.17849479251437717,0.7761941909790039,0.01182463698916965,0.04841552178064982]}]}
