{"src":"https://a0.muscache.com/im/pictures/9e876dbe-e760-477b-b787-7ea02cb8380a.jpg?aki_policy=xx_large","name":"Hendricks Home","listingId":22917471,"photoId":"893-2","tags":[{"name":"sofa","coordinates":[0.3745426177978516,0.6803677876790365,0.6771519978841146,0.31765495936075844]},{"name":"sofa","coordinates":[0.18291428883870442,0.8434634526570638,0.41413133409288194,0.3352613131205241]},{"name":"chair","coordinates":[0.9688142564561631,0.9258490244547526,0.6499854617648655,0.17187800407409667]},{"name":"sofa","coordinates":[0.9688142564561631,0.9258490244547526,0.6499854617648655,0.17187800407409667]},{"name":"chair","coordinates":[0.9427975124782986,0.6388989130655924,0.24172134399414064,0.2109300136566162]},{"name":"tvmonitor","coordinates":[1.5119099934895834,0.43110809326171873,0.3067700915866428,0.15176903406778972]},{"name":"vase","coordinates":[0.46094534132215714,0.6961846669514974,0.08627800941467285,0.09270056088765462]},{"name":"book","coordinates":[1.147624715169271,0.40416110356648766,0.016368007659912108,0.0367566704750061]}]}
