{"src":"https://a0.muscache.com/im/pictures/44932813/702b7389_original.jpg?aki_policy=xx_large","name":"Charming apartment with sunny garden","listingId":2293589,"photoId":"894-3","tags":[{"name":"sofa","coordinates":[0.583630625406901,0.8805134455362956,0.6248770819769965,0.22280186017354328]},{"name":"pottedplant","coordinates":[0.10371693505181206,0.4841084162394206,0.1953858693440755,0.5759804407755534]},{"name":"tvmonitor","coordinates":[0.5473888397216797,0.5947778701782227,0.13396489885118273,0.16218396822611492]},{"name":"pottedplant","coordinates":[0.2738380644056532,0.49391533533732096,0.05041939947340224,0.14114216168721516]},{"name":"pottedplant","coordinates":[0.43161231146918405,0.4964583079020182,0.03930599689483642,0.1061544418334961]},{"name":"pottedplant","coordinates":[0.35108583238389757,0.5039251327514649,0.0413572523328993,0.09572667280832926]},{"name":"vase","coordinates":[0.8489998711480035,0.4589366912841797,0.036089142163594566,0.10221579074859619]}]}
