{"src":"https://a0.muscache.com/im/pictures/69baa092-f2ea-4854-af35-410f453099b4.jpg?aki_policy=xx_large","name":"Studio 66","listingId":19698851,"photoId":"895-11","tags":[{"name":"chair","coordinates":[0.35704266583478006,0.5534234841664633,0.5115660490813079,0.4442489941914876]},{"name":"diningtable","coordinates":[0.14263520417390044,0.5171432813008626,0.47699302390769677,0.40639756520589193]},{"name":"chair","coordinates":[0.1388555879946108,0.4432649612426757,0.2343602215802228,0.3162035624186198]},{"name":"microwave","coordinates":[0.37814480816876445,0.3646090706189473,0.21505652533637154,0.07833565870920817]},{"name":"bottle","coordinates":[0.3434691605744538,0.36463272174199424,0.04566790262858073,0.07045970757802328]}]}
