{"src":"https://a0.muscache.com/im/pictures/553b530f-3a8d-42ca-bae1-60d83421ed52.jpg?aki_policy=xx_large","name":"Studio 66","listingId":19698851,"photoId":"895-5","tags":[{"name":"microwave","coordinates":[0.9057358635796441,0.6987354278564453,0.16194622251722549,0.1501006285349528]},{"name":"sink","coordinates":[0.1636903444925944,0.7411665598551432,0.22938575744628906,0.09677081108093262]},{"name":"bottle","coordinates":[0.7977222018771701,0.6710803985595704,0.03351787726084391,0.1502055009206136]},{"name":"vase","coordinates":[0.20416543748643662,0.23142085075378419,0.0355440272225274,0.1014979600906372]},{"name":"vase","coordinates":[0.66445435418023,0.2645864486694336,0.04280787309010824,0.04193011919657389]},{"name":"vase","coordinates":[0.13707186381022135,0.2531525452931722,0.023758316040039064,0.05652283827463786]},{"name":"cup","coordinates":[0.12926434410942925,0.6795270919799805,0.021269894970787896,0.05854281187057495]}]}
