{"src":"https://a0.muscache.com/im/pictures/553b530f-3a8d-42ca-bae1-60d83421ed52.jpg?aki_policy=xx_large","name":"Studio 66","listingId":19698851,"photoId":"895-5","tags":[{"name":"microwave","coordinates":[0.8247627523210314,0.6236851135889688,0.16194622251722549,0.1501006285349528]},{"name":"sink","coordinates":[0.04899746576944987,0.6927811543146769,0.22938575744628906,0.09677081108093262]},{"name":"bottle","coordinates":[0.7809632632467481,0.5959776480992636,0.03351787726084391,0.1502055009206136]},{"name":"vase","coordinates":[0.1863934238751729,0.18067187070846558,0.0355440272225274,0.1014979600906372]},{"name":"vase","coordinates":[0.6430504176351759,0.24362138907114664,0.04280787309010824,0.04193011919657389]},{"name":"vase","coordinates":[0.1251927057902018,0.22489112615585327,0.023758316040039064,0.05652283827463786]},{"name":"cup","coordinates":[0.1186293966240353,0.6502556860446931,0.021269894970787896,0.05854281187057495]}]}
