{"src":"https://a0.muscache.com/im/pictures/69baa092-f2ea-4854-af35-410f453099b4.jpg?aki_policy=xx_large","name":"Studio 66","listingId":19698851,"photoId":"895-11","tags":[{"name":"chair","coordinates":[0.612825690375434,0.775547981262207,0.5115660490813079,0.4442489941914876]},{"name":"diningtable","coordinates":[0.3811317161277488,0.7203420639038086,0.47699302390769677,0.40639756520589193]},{"name":"chair","coordinates":[0.2560356987847222,0.6013667424519856,0.2343602215802228,0.3162035624186198]},{"name":"microwave","coordinates":[0.4856730708369502,0.40377689997355143,0.21505652533637154,0.07833565870920817]},{"name":"bottle","coordinates":[0.3663031118887442,0.39986257553100585,0.04566790262858073,0.07045970757802328]}]}
