{"src":"https://a0.muscache.com/im/pictures/5fef05f6-784c-434e-b764-73a8df49dc00.jpg?aki_policy=xx_large","name":"Home away from Home","listingId":19721409,"photoId":"897-9","tags":[{"name":"sofa","coordinates":[0.7651231553819444,0.5278278827667237,0.22983788384331597,0.43934113184611]},{"name":"chair","coordinates":[0.7651231553819444,0.5278278827667237,0.22983788384331597,0.43934113184611]},{"name":"sofa","coordinates":[0.6491741286383735,0.455190372467041,0.24685183631049262,0.3476853052775065]},{"name":"chair","coordinates":[0.6491741286383735,0.455190372467041,0.24685183631049262,0.3476853052775065]},{"name":"sofa","coordinates":[-0.0078019777933756446,0.7161813418070475,0.24045961168077257,0.26820062001546224]},{"name":"tvmonitor","coordinates":[0.06844975153605143,0.06595830917358397,0.23408976660834419,0.2557949701944987]},{"name":"chair","coordinates":[0.6273844295077854,0.3296354452768962,0.08447386423746744,0.19777549107869466]},{"name":"book","coordinates":[0.40348289277818467,0.6774664600690206,0.1295834223429362,0.07931835651397705]}]}
