{"src":"https://a0.muscache.com/im/pictures/5fef05f6-784c-434e-b764-73a8df49dc00.jpg?aki_policy=xx_large","name":"Home away from Home","listingId":19721409,"photoId":"897-9","tags":[{"name":"sofa","coordinates":[0.8800420973036024,0.7474984486897787,0.22983788384331597,0.43934113184611]},{"name":"chair","coordinates":[0.8800420973036024,0.7474984486897787,0.22983788384331597,0.43934113184611]},{"name":"sofa","coordinates":[0.7726000467936198,0.6290330251057943,0.24685183631049262,0.3476853052775065]},{"name":"chair","coordinates":[0.7726000467936198,0.6290330251057943,0.24685183631049262,0.3476853052775065]},{"name":"sofa","coordinates":[0.11242782804701064,0.8502816518147787,0.24045961168077257,0.26820062001546224]},{"name":"tvmonitor","coordinates":[0.18549463484022352,0.19385579427083333,0.23408976660834419,0.2557949701944987]},{"name":"chair","coordinates":[0.6696213616265191,0.4285231908162435,0.08447386423746744,0.19777549107869466]},{"name":"book","coordinates":[0.46827460394965276,0.7171256383260091,0.1295834223429362,0.07931835651397705]}]}
