{"src":"https://a0.muscache.com/im/pictures/aad79e02-f981-4851-80a7-2892deb926ef.jpg?aki_policy=xx_large","name":"Spacious Beach Apartment Keizerstraat","listingId":22940553,"photoId":"897-0","tags":[{"name":"sofa","coordinates":[0.21378506958939647,0.7275317509969076,0.4258937224177004,0.5144477526346842]},{"name":"diningtable","coordinates":[0.8813492403685591,0.6145890553792318,0.46613205771409827,0.2664367516835531]},{"name":"chair","coordinates":[0.9137479126908397,0.8579109191894532,0.35979311411617365,0.2275295575459798]},{"name":"chair","coordinates":[0.7935098662631203,0.7075729370117188,0.17622768023541865,0.31564213434855143]},{"name":"chair","coordinates":[0.9657636569656488,0.7126078287760417,0.19403045887255488,0.21569592157999676]},{"name":"person","coordinates":[0.6178089869841364,0.40368531545003256,0.09042395671815362,0.24138288497924804]},{"name":"tvmonitor","coordinates":[0.2807542174827051,0.4254834810892741,0.16326257836727695,0.12627716064453126]},{"name":"chair","coordinates":[0.8954630844465649,0.48607991536458334,0.106791652067927,0.04005651473999024]},{"name":"chair","coordinates":[1.0289048522483302,0.49201844533284506,0.08402228319007932,0.04226028521855672]}]}
