{"src":"https://a0.muscache.com/im/pictures/8c964586-68b8-489b-aae5-8d01382ab5b5.jpg?aki_policy=xx_large","name":"Charming apartment next to the Zeeheldenkwartier","listingId":22982408,"photoId":"899-6","tags":[{"name":"diningtable","coordinates":[0.357511478000217,0.6733440399169922,0.6532729254828559,0.4679885228474935]},{"name":"chair","coordinates":[0.5763267940945096,0.6735144297281901,0.3497120115492079,0.5365559260050455]},{"name":"chair","coordinates":[0.21689940558539497,0.7458192189534505,0.3191208733452691,0.3005785306294759]},{"name":"vase","coordinates":[0.8780525207519532,0.45775359471639,0.059476810031467015,0.08532672723134359]},{"name":"bottle","coordinates":[0.3853053198920356,0.414179007212321,0.035154570473564996,0.10875500837961832]},{"name":"chair","coordinates":[0.5988425784640842,0.4510692278544108,0.0314933803346422,0.05562880833943685]},{"name":"book","coordinates":[0.788425530327691,0.49040292104085287,0.09358828862508138,0.010894856850306193]}]}
