{"src":"https://a0.muscache.com/im/pictures/d082bd8a-714b-4ce7-a815-6d7e8cd55bbd.jpg?aki_policy=xx_large","name":"廊坊高铁站对面钻石国际大厦豪华大床房大沙发","listingId":19737704,"photoId":"899-5","tags":[{"name":"bed","coordinates":[0.6253044605255127,0.8124830245971679,0.6602406024932861,0.34973389307657876]},{"name":"pottedplant","coordinates":[0.8584944725036621,0.4934927622477214,0.29584646224975586,0.509479268391927]},{"name":"sofa","coordinates":[0.7882333755493164,0.5895357131958008,0.16162718534469606,0.16961216926574707]},{"name":"refrigerator","coordinates":[0.437520694732666,0.5207560221354167,0.08020434379577637,0.17474924723307292]},{"name":"tvmonitor","coordinates":[0.2752396821975708,0.5584821701049805,0.0870509147644043,0.14637738863627117]},{"name":"vase","coordinates":[0.35765149593353274,0.5445695241292318,0.03995699882507324,0.1117340882619222]}]}
