{"src":"https://a0.muscache.com/im/pictures/1497697b-ecfa-4aea-bab7-1e5860cbf9a5.jpg?aki_policy=xx_large","name":"廊坊高铁站对面钻石国际大厦豪华大床房大沙发","listingId":19737704,"photoId":"899-4","tags":[{"name":"refrigerator","coordinates":[0.4193622589111328,0.5712013880411784,0.24330570697784423,0.5089319864908854]},{"name":"pottedplant","coordinates":[0.283979606628418,0.2114237149556478,0.15704283714294434,0.37813920974731446]},{"name":"pottedplant","coordinates":[0.5106914520263672,0.06613856554031372,0.18734471797943114,0.1394405682881673]},{"name":"sink","coordinates":[0.5294352531433105,0.5792669932047526,0.17370333671569824,0.14434034029642742]},{"name":"bottle","coordinates":[0.7787764549255372,0.6238097508748373,0.05184694528579712,0.18289798100789387]},{"name":"bottle","coordinates":[0.7537356376647949,0.6131467819213867,0.038907143473625186,0.15003801981608073]}]}
