{"src":"https://a0.muscache.com/im/pictures/d082bd8a-714b-4ce7-a815-6d7e8cd55bbd.jpg?aki_policy=xx_large","name":"廊坊高铁站对面钻石国际大厦豪华大床房大沙发","listingId":19737704,"photoId":"899-5","tags":[{"name":"bed","coordinates":[0.29518415927886965,0.6376160780588785,0.6602406024932861,0.34973389307657876]},{"name":"pottedplant","coordinates":[0.7105712413787841,0.23875312805175786,0.29584646224975586,0.509479268391927]},{"name":"sofa","coordinates":[0.7074197828769684,0.5047296285629272,0.16162718534469606,0.16961216926574707]},{"name":"refrigerator","coordinates":[0.39741852283477785,0.43338139851888025,0.08020434379577637,0.17474924723307292]},{"name":"tvmonitor","coordinates":[0.23171422481536863,0.4852934757868449,0.0870509147644043,0.14637738863627117]},{"name":"vase","coordinates":[0.33767299652099614,0.48870247999827066,0.03995699882507324,0.1117340882619222]}]}
