{"src":"https://a0.muscache.com/im/pictures/c7429e47-6520-4d5f-89e9-0267349c02f1.jpg?aki_policy=xx_large","name":"Charming apartment next to the Zeeheldenkwartier","listingId":22982408,"photoId":"899-5","tags":[{"name":"diningtable","coordinates":[0.4615525139702691,0.6348960240681966,0.29245902167426213,0.20961554845174155]},{"name":"chair","coordinates":[0.3670741187201606,0.6422386169433594,0.16518395741780598,0.2100011984507243]},{"name":"chair","coordinates":[0.5566099378797743,0.6393342971801758,0.15684578153822157,0.2135113557179769]},{"name":"pottedplant","coordinates":[0.7118075900607639,0.5086043993631999,0.09893897374471029,0.13850638071695964]},{"name":"vase","coordinates":[0.7355291578504775,0.5481806437174479,0.030479303995768228,0.052295029163360596]},{"name":"chair","coordinates":[0.5687718285454644,0.5418534596761068,0.02591214444902208,0.03224862019220988]}]}
