{"src":"https://a0.muscache.com/im/pictures/1497697b-ecfa-4aea-bab7-1e5860cbf9a5.jpg?aki_policy=xx_large","name":"廊坊高铁站对面钻石国际大厦豪华大床房大沙发","listingId":19737704,"photoId":"899-6","tags":[{"name":"refrigerator","coordinates":[0.2977094054222107,0.31673539479573565,0.24330570697784423,0.5089319864908854]},{"name":"pottedplant","coordinates":[0.20545818805694582,0.022354110081990564,0.15704283714294434,0.37813920974731446]},{"name":"pottedplant","coordinates":[0.41701909303665163,-0.0035817186037699345,0.18734471797943114,0.1394405682881673]},{"name":"sink","coordinates":[0.4425835847854614,0.5070968230565389,0.17370333671569824,0.14434034029642742]},{"name":"bottle","coordinates":[0.7528529822826386,0.5323607603708903,0.05184694528579712,0.18289798100789387]},{"name":"bottle","coordinates":[0.7342820659279823,0.5381277720133464,0.038907143473625186,0.15003801981608073]}]}
