{"src":"https://a0.muscache.com/im/pictures/fe151ef5-0087-4a4c-8484-ef1fe5e0f06e.jpg?aki_policy=xx_large","name":"Cozy bedroom -Closer to the city","listingId":10166369,"photoId":"9-2","tags":[{"name":"diningtable","coordinates":[0.5314182281494141,0.7656490325927734,0.3973121643066406,0.43836886088053384]},{"name":"chair","coordinates":[0.5620262622833252,0.8719249089558919,0.14662777185440062,0.25270236333211266]},{"name":"chair","coordinates":[0.6422902107238769,0.8477566401163737,0.10924396514892579,0.3141074498494466]},{"name":"chair","coordinates":[0.7029138088226319,0.7908408482869466,0.08231757879257202,0.2688652992248535]},{"name":"apple","coordinates":[0.5663710594177246,0.5866984685262044,0.019883058965206146,0.02349874973297119]},{"name":"orange","coordinates":[0.552025032043457,0.5683577219645183,0.017818538844585417,0.022357183694839477]},{"name":"apple","coordinates":[0.552025032043457,0.5683577219645183,0.017818538844585417,0.022357183694839477]},{"name":"apple","coordinates":[0.5495146751403809,0.5873601913452149,0.01841864883899689,0.020836102962493896]},{"name":"apple","coordinates":[0.5640033721923828,0.5690202077229818,0.016848525404930113,0.02031274437904358]}]}
