{"src":"https://a0.muscache.com/im/pictures/fe151ef5-0087-4a4c-8484-ef1fe5e0f06e.jpg?aki_policy=xx_large","name":"Cozy bedroom -Closer to the city","listingId":10166369,"photoId":"9-2","tags":[{"name":"diningtable","coordinates":[0.33276214599609377,0.5464646021525065,0.3973121643066406,0.43836886088053384]},{"name":"chair","coordinates":[0.48871237635612486,0.7455737272898356,0.14662777185440062,0.25270236333211266]},{"name":"chair","coordinates":[0.587668228149414,0.6907029151916504,0.10924396514892579,0.3141074498494466]},{"name":"chair","coordinates":[0.6617550194263458,0.6564081986745198,0.08231757879257202,0.2688652992248535]},{"name":"apple","coordinates":[0.5564295299351215,0.5749490936597188,0.019883058965206146,0.02349874973297119]},{"name":"orange","coordinates":[0.5431157626211642,0.5571791301170985,0.017818538844585417,0.022357183694839477]},{"name":"apple","coordinates":[0.5431157626211642,0.5571791301170985,0.017818538844585417,0.022357183694839477]},{"name":"apple","coordinates":[0.5403053507208825,0.5769421398639679,0.01841864883899689,0.020836102962493896]},{"name":"apple","coordinates":[0.5555791094899177,0.55886383553346,0.016848525404930113,0.02031274437904358]}]}
