{"src":"https://a0.muscache.com/im/pictures/c292a416-6682-4409-b745-5a706459e70a.jpg?aki_policy=xx_large","name":"Cozy bedroom -Closer to the city","listingId":10166369,"photoId":"9-3","tags":[{"name":"diningtable","coordinates":[0.22938752174377441,0.7197699228922526,0.33640279769897463,0.5090105692545573]},{"name":"chair","coordinates":[0.1230435848236084,0.7566105524698893,0.24644582271575927,0.4864562352498372]},{"name":"chair","coordinates":[0.3305914878845215,0.6752227147420248,0.1157849907875061,0.4157201131184896]},{"name":"chair","coordinates":[0.3863577604293823,0.6033091227213542,0.034980350732803346,0.3112939198811849]},{"name":"chair","coordinates":[0.4023420810699463,0.5887980779012044,0.0336787611246109,0.29636767705281575]},{"name":"chair","coordinates":[0.08249350786209106,0.48704678217569985,0.09051508307456971,0.10254111289978027]},{"name":"pottedplant","coordinates":[0.24575338363647461,0.4714928309122721,0.055932217836380006,0.10209777355194091]},{"name":"chair","coordinates":[0.1702326536178589,0.450333309173584,0.05584359765052795,0.09957443078358968]},{"name":"chair","coordinates":[0.32833042144775393,0.4187917709350586,0.07019012570381164,0.07502237955729167]},{"name":"vase","coordinates":[0.2482602596282959,0.48569548924764,0.015138745307922363,0.037661635875701906]}]}
