{"src":"https://a0.muscache.com/im/pictures/c292a416-6682-4409-b745-5a706459e70a.jpg?aki_policy=xx_large","name":"Cozy bedroom -Closer to the city","listingId":10166369,"photoId":"9-3","tags":[{"name":"diningtable","coordinates":[0.40780003865559894,0.7197699228922526,0.5980494181315105,0.5090105692545573]},{"name":"chair","coordinates":[0.21874415079752604,0.7566105524698893,0.43812590705023874,0.4864562352498372]},{"name":"chair","coordinates":[0.5877182006835937,0.6752227147420248,0.20583998362223307,0.4157201131184896]},{"name":"chair","coordinates":[0.6868582407633463,0.6033091227213542,0.06218729019165039,0.3112939198811849]},{"name":"chair","coordinates":[0.7152748107910156,0.5887980779012044,0.05987335311041938,0.29636767705281575]},{"name":"chair","coordinates":[0.1466551250881619,0.48704678217569985,0.16091570324367946,0.10254111289978027]},{"name":"pottedplant","coordinates":[0.4368949042426215,0.4714928309122721,0.09943505393134223,0.10209777355194091]},{"name":"chair","coordinates":[0.3026358286539714,0.450333309173584,0.09927750693427193,0.09957443078358968]},{"name":"chair","coordinates":[0.5836985270182292,0.4187917709350586,0.12478244569566514,0.07502237955729167]},{"name":"vase","coordinates":[0.44135157267252606,0.48569548924764,0.02691332499186198,0.037661635875701906]}]}
