{"src":"https://a0.muscache.com/im/pictures/deaf8243-d3ee-4220-9672-d53f6527b7cd.jpg?aki_policy=xx_large","name":"The Xunaroo Heritage - BnB Mahogany Premier Room","listingId":19741511,"photoId":"900-2","tags":[{"name":"teddy-bear","coordinates":[0.2395536541938782,0.45189139048258464,0.1987062692642212,0.4634446461995443]},{"name":"chair","coordinates":[0.6717622876167297,0.671201515197754,0.21973187923431398,0.2672491709391276]},{"name":"chair","coordinates":[0.42135956287384035,0.5483690659205119,0.20831971168518065,0.23112263679504394]},{"name":"sofa","coordinates":[0.42135956287384035,0.5483690659205119,0.20831971168518065,0.23112263679504394]},{"name":"pottedplant","coordinates":[0.6407773107290269,0.589120109875997,0.09299009442329406,0.1595082441965739]},{"name":"vase","coordinates":[0.8060844659805297,0.8611115058263143,0.07441763877868653,0.07069513003031412]}]}
