{"src":"https://a0.muscache.com/im/pictures/deaf8243-d3ee-4220-9672-d53f6527b7cd.jpg?aki_policy=xx_large","name":"The Xunaroo Heritage - BnB Mahogany Premier Room","listingId":19741511,"photoId":"900-2","tags":[{"name":"teddy-bear","coordinates":[0.3389067888259888,0.6836137135823568,0.1987062692642212,0.4634446461995443]},{"name":"chair","coordinates":[0.7816282272338867,0.8048261006673177,0.21973187923431398,0.2672491709391276]},{"name":"chair","coordinates":[0.5255194187164307,0.6639303843180339,0.20831971168518065,0.23112263679504394]},{"name":"sofa","coordinates":[0.5255194187164307,0.6639303843180339,0.20831971168518065,0.23112263679504394]},{"name":"pottedplant","coordinates":[0.6872723579406739,0.6688742319742839,0.09299009442329406,0.1595082441965739]},{"name":"vase","coordinates":[0.843293285369873,0.8964590708414714,0.07441763877868653,0.07069513003031412]}]}
