{"src":"https://a0.muscache.com/im/pictures/1b264819-e526-48ba-8eb4-0020b25ddd36.jpg?aki_policy=xx_large","name":"Modern &amp; spacious studio apartment in city center","listingId":23020735,"photoId":"902-8","tags":[{"name":"diningtable","coordinates":[0.19781824747721355,0.7647179921468099,0.33019610510932074,0.4078617731730143]},{"name":"chair","coordinates":[0.10201939476860894,0.8159835179646809,0.20023926628960503,0.3761202176411947]},{"name":"chair","coordinates":[0.2815129174126519,0.7534990946451823,0.14435804155137805,0.41649627685546875]},{"name":"bed","coordinates":[0.6477975633409289,0.6374825795491537,0.19940664503309463,0.2480221112569173]},{"name":"wine-glass","coordinates":[0.26559477912055124,0.5673248926798503,0.030956416659884984,0.11064043045043945]},{"name":"vase","coordinates":[0.48678902520073786,0.519193172454834,0.03698563575744629,0.08842828273773193]},{"name":"bowl","coordinates":[0.5350285000271268,0.553108024597168,0.04125863181220161,0.03687293926874797]}]}
