{"src":"https://a0.muscache.com/im/pictures/86d11761-ff83-4587-b40c-4830c4c5b69f.jpg?aki_policy=xx_large","name":"Large Gorilla Room at Great Rotterdams Apartment","listingId":19773081,"photoId":"905-6","tags":[{"name":"chair","coordinates":[0.6209666728973389,0.4219821929931641,0.28129425048828127,0.440524419148763]},{"name":"sink","coordinates":[-0.0029482126235961803,0.8495206872622172,0.4210641860961914,0.1333328167597453]},{"name":"sofa","coordinates":[0.6467718601226806,0.8694955746332804,0.30064897537231444,0.12711259524027507]},{"name":"pottedplant","coordinates":[0.4739349514245987,0.07964457670847574,0.07666003108024597,0.08501060803731282]},{"name":"bowl","coordinates":[0.04295397698879243,0.5972797493139903,0.05714547038078308,0.04849025011062622]},{"name":"vase","coordinates":[0.4991517171263695,0.12735315163930258,0.026556757092475892,0.037952152887980144]},{"name":"book","coordinates":[0.5222332179546356,0.29507373621066413,0.06071153879165649,0.013971319794654847]},{"name":"book","coordinates":[0.5281169772148132,0.27785171419382093,0.05124552249908447,0.015498595436414082]},{"name":"book","coordinates":[0.5210137784481048,0.2237882470091184,0.05649176836013794,0.013197927673657735]},{"name":"book","coordinates":[0.5195273399353028,0.1987641284863154,0.06520147323608398,0.010913858811060587]},{"name":"book","coordinates":[0.4447548970580101,0.2661442855993907,0.011376360058784485,0.048016464710235594]},{"name":"book","coordinates":[0.4473881520330906,0.19436081647872927,0.008715097606182099,0.054769253730773924]},{"name":"book","coordinates":[0.503662808611989,0.19968716104825338,0.008208688348531723,0.04919116099675496]},{"name":"book","coordinates":[0.4691366359591484,0.19888545870780944,0.00814920961856842,0.047909955183664955]},{"name":"book","coordinates":[0.4862780187278986,0.20266901850700378,0.008245163410902024,0.04340196847915649]}]}
