{"src":"https://a0.muscache.com/im/pictures/86d11761-ff83-4587-b40c-4830c4c5b69f.jpg?aki_policy=xx_large","name":"Large Gorilla Room at Great Rotterdams Apartment","listingId":19773081,"photoId":"905-4","tags":[{"name":"chair","coordinates":[0.7616137981414794,0.6422444025675456,0.28129425048828127,0.440524419148763]},{"name":"sink","coordinates":[0.20758388042449952,0.9161870956420899,0.4210641860961914,0.1333328167597453]},{"name":"sofa","coordinates":[0.7970963478088379,0.933051872253418,0.30064897537231444,0.12711259524027507]},{"name":"pottedplant","coordinates":[0.5122649669647217,0.12214988072713216,0.07666003108024597,0.08501060803731282]},{"name":"bowl","coordinates":[0.07152671217918397,0.6215248743693034,0.05714547038078308,0.04849025011062622]},{"name":"vase","coordinates":[0.5124300956726074,0.14632922808329266,0.026556757092475892,0.037952152887980144]},{"name":"book","coordinates":[0.5525889873504639,0.30205939610799154,0.06071153879165649,0.013971319794654847]},{"name":"book","coordinates":[0.5537397384643554,0.28560101191202797,0.05124552249908447,0.015498595436414082]},{"name":"book","coordinates":[0.5492596626281738,0.23038721084594727,0.05649176836013794,0.013197927673657735]},{"name":"book","coordinates":[0.5521280765533447,0.2042210578918457,0.06520147323608398,0.010913858811060587]},{"name":"book","coordinates":[0.45044307708740233,0.29015251795450847,0.011376360058784485,0.048016464710235594]},{"name":"book","coordinates":[0.45174570083618165,0.22174544334411622,0.008715097606182099,0.054769253730773924]},{"name":"book","coordinates":[0.5077671527862548,0.22428274154663086,0.008208688348531723,0.04919116099675496]},{"name":"book","coordinates":[0.47321124076843263,0.22284043629964193,0.00814920961856842,0.047909955183664955]},{"name":"book","coordinates":[0.4904006004333496,0.22437000274658203,0.008245163410902024,0.04340196847915649]}]}
