{"src":"https://z0.muscache.cn/im/pictures/4281331f-eeea-4726-9062-437dcc087d1d.jpg?aki_policy=xx_large","name":"Romantic, happy appt in city centre","listingId":2307272,"photoId":"905-0","tags":[{"name":"pottedplant","coordinates":[0.2669469948370095,0.6502926508585612,0.33508085064481546,0.5030158678690593]},{"name":"diningtable","coordinates":[0.3677239368462513,0.8871254603068034,0.6886399362290475,0.2195989767710368]},{"name":"sofa","coordinates":[0.4638090074186266,0.4320435841878255,0.29614029406509873,0.1660900592803955]},{"name":"chair","coordinates":[0.3908288206231321,0.7030630111694336,0.15334396203689415,0.20446171760559081]},{"name":"vase","coordinates":[0.24150561295031509,0.8132829666137695,0.13866954335551748,0.20266297658284504]},{"name":"cup","coordinates":[0.13829563957737787,0.7971484502156575,0.07963826899221187,0.10446833769480388]},{"name":"pottedplant","coordinates":[0.533896400626137,0.35572732289632164,0.07216805281609359,0.04799998601277669]},{"name":"book","coordinates":[0.17395620683126786,0.3240711530049642,0.010236840238194456,0.05536797046661377]},{"name":"book","coordinates":[0.17389187247738272,0.26218148867289226,0.011764140733810076,0.04178452889124552]},{"name":"book","coordinates":[0.1707587608924279,0.2063125451405843,0.011670330705860796,0.04120585123697917]},{"name":"book","coordinates":[0.19199950283629483,0.32235577901204426,0.008897580128945332,0.04820050001144409]},{"name":"book","coordinates":[0.21413496180036706,0.3196847915649414,0.009365478325286674,0.04392276604970296]},{"name":"book","coordinates":[0.22983603368430028,0.317205015818278,0.009127708086104998,0.03942902088165283]},{"name":"book","coordinates":[0.25023354512490253,0.3148798942565918,0.008751438957737785,0.038286503156026205]},{"name":"book","coordinates":[0.2518033921842516,0.22346380551656086,0.00843265596893374,0.03595726092656453]}]}
