{"src":"https://z0.muscache.cn/im/pictures/4b64249a-739f-4b33-9dd9-7031f0384479.jpg?aki_policy=xx_large","name":"Romantic, happy appt in city centre","listingId":2307272,"photoId":"905-4","tags":[{"name":"person","coordinates":[0.09589580959743924,0.50373322168986,0.18552379608154296,1.018472671508789]},{"name":"oven","coordinates":[0.29986065758599173,0.7159266789754232,0.1338389926486545,0.3059507687886556]},{"name":"chair","coordinates":[0.6036876678466797,0.7847969055175781,0.1243440204196506,0.3250519116719564]},{"name":"chair","coordinates":[0.4928314208984375,0.7995990117390951,0.13565732108222114,0.27342201868693033]},{"name":"bottle","coordinates":[0.3337283664279514,0.4086205800374349,0.019236797756618924,0.10365213553110758]},{"name":"bottle","coordinates":[0.5090234968397352,0.14923632939656575,0.019520966211954753,0.07147100766499838]}]}
