{"src":"https://a0.muscache.com/im/pictures/929cbe1e-6679-45f5-aef3-46c1f64d6e3c.jpg?aki_policy=xx_large","name":"Appartement Classique Nearby The Beach!","listingId":23073236,"photoId":"906-0","tags":[{"name":"sofa","coordinates":[0.41314797323258196,0.8230845769246419,0.2759752712800668,0.35936113993326824]},{"name":"chair","coordinates":[0.07495062394034202,0.8251267751057942,0.15721045798570452,0.3429080645243327]},{"name":"pottedplant","coordinates":[0.17463775801528347,0.5314261754353841,0.09946519075940123,0.13212960561116535]},{"name":"book","coordinates":[0.3482760355679157,0.7374171574910482,0.05485169576723812,0.028498897949854534]},{"name":"vase","coordinates":[0.17508463446373682,0.5648804346720377,0.025198326736200052,0.054165383179982506]}]}
