{"src":"https://a0.muscache.com/im/pictures/c6f6f28b-460f-468a-948d-68c0675d2b40.jpg?aki_policy=xx_large","name":"Cozy Apartment","listingId":19781814,"photoId":"908-0","tags":[{"name":"sofa","coordinates":[0.8031289322102229,0.6798718770345052,0.3807689198485755,0.6138586044311524]},{"name":"sofa","coordinates":[0.2446567514522454,0.7844284057617188,0.4675467150392152,0.4202427864074707]},{"name":"chair","coordinates":[0.2446567514522454,0.7844284057617188,0.4675467150392152,0.4202427864074707]},{"name":"bed","coordinates":[0.600310635063404,0.3122419357299805,0.2790710592381744,0.2806030591328939]},{"name":"diningtable","coordinates":[0.12621723142240643,0.4199741681416829,0.2521390221471242,0.2811525026957194]},{"name":"chair","coordinates":[0.087863525438346,0.4638271649678548,0.13778106713313623,0.2628183364868164]},{"name":"book","coordinates":[0.6784342511544664,0.7862549463907877,0.14649208194115276,0.15220170021057128]},{"name":"chair","coordinates":[0.24023900393679143,0.3825614293416341,0.057771338253304584,0.25677520434061685]},{"name":"remote","coordinates":[0.5364649506450352,0.7437024434407552,0.035577155166160696,0.047953911622365314]}]}
