{"src":"https://a0.muscache.com/im/pictures/2bdd5194-9d99-43cb-9705-fb6e01a3f5e2.jpg?aki_policy=xx_large","name":"Cosy apartment just next to the harbour and beach","listingId":23082879,"photoId":"908-3","tags":[{"name":"diningtable","coordinates":[0.3052321528045224,0.7521999994913737,0.39698056503080986,0.17804187138875324]},{"name":"chair","coordinates":[0.25204304439920777,0.9162484486897786,0.22826065278389085,0.14492942492167155]},{"name":"chair","coordinates":[0.4262110320615097,0.9064309438069661,0.16226394008582745,0.16613779067993165]},{"name":"clock","coordinates":[0.4790702712367958,0.21114371617635092,0.06033807673924406,0.30841636657714844]},{"name":"chair","coordinates":[0.3392800344547755,0.6661540349324544,0.1308197988590724,0.0631142258644104]},{"name":"bottle","coordinates":[0.2503660819899868,0.44491237004597983,0.013749629007258886,0.07490355173746745]},{"name":"bowl","coordinates":[0.2549406239684199,0.26237732569376626,0.04102053306472134,0.016293059786160788]},{"name":"bottle","coordinates":[0.12163565192424075,0.453768253326416,0.010584508869009959,0.06168363094329834]},{"name":"bowl","coordinates":[0.24789183710662413,0.3308370590209961,0.028345588898994554,0.021296854813893637]},{"name":"cup","coordinates":[0.294196416290713,0.2595575968424479,0.018716432007265763,0.025364001592000324]},{"name":"cup","coordinates":[0.2752854897942342,0.18925251960754394,0.016975491483446577,0.02532073458035787]},{"name":"cup","coordinates":[0.29626060808208626,0.1889647642771403,0.016394599054900694,0.02579824725786845]},{"name":"cup","coordinates":[0.25784104038292255,0.18894770940144856,0.015614418244697678,0.02676435907681783]},{"name":"cup","coordinates":[0.23804454534826144,0.1885305881500244,0.016067217437314315,0.02545182506243388]}]}
