{"src":"https://a0.muscache.com/im/pictures/a1ef6878-72eb-48d9-a1de-8f35bb3439ab.jpg?aki_policy=xx_large","name":"Cozy Apartment","listingId":19781814,"photoId":"908-6","tags":[{"name":"chair","coordinates":[0.7526210361056858,0.6023050308227539,0.5061216566297743,0.5840367635091146]},{"name":"sofa","coordinates":[0.26479888492160375,0.7161687215169271,0.4935604095458984,0.567920430501302]},{"name":"diningtable","coordinates":[0.5285512288411458,0.7482152303059896,0.3223674986097548,0.414251708984375]},{"name":"book","coordinates":[0.5264999813503689,0.5700755437215169,0.10880478752983941,0.06807095209757487]},{"name":"cup","coordinates":[0.4153986612955729,0.5502850850423177,0.027053814464145235,0.04396515289942424]}]}
