{"src":"https://a0.muscache.com/im/pictures/c6f6f28b-460f-468a-948d-68c0675d2b40.jpg?aki_policy=xx_large","name":"Cozy Apartment","listingId":19781814,"photoId":"908-0","tags":[{"name":"sofa","coordinates":[0.6127444722859351,0.37294257481892906,0.3807689198485755,0.6138586044311524]},{"name":"sofa","coordinates":[0.01088339393263782,0.5743070125579834,0.4675467150392152,0.4202427864074707]},{"name":"chair","coordinates":[0.01088339393263782,0.5743070125579834,0.4675467150392152,0.4202427864074707]},{"name":"bed","coordinates":[0.46077510544431677,0.17194040616353354,0.2790710592381744,0.2806030591328939]},{"name":"diningtable","coordinates":[0.00014772034884433238,0.2793979167938232,0.2521390221471242,0.2811525026957194]},{"name":"chair","coordinates":[0.01897299187177788,0.3324179967244466,0.13778106713313623,0.2628183364868164]},{"name":"book","coordinates":[0.60518821018389,0.7101540962855021,0.14649208194115276,0.15220170021057128]},{"name":"chair","coordinates":[0.21135333481013913,0.2541738271713257,0.057771338253304584,0.25677520434061685]},{"name":"remote","coordinates":[0.5186763730619548,0.7197254876295726,0.035577155166160696,0.047953911622365314]}]}
