{"src":"https://a0.muscache.com/im/pictures/12a801a8-53ea-4924-861d-39901ea64474.jpg?aki_policy=xx_large","name":"Квартира на Пушкинской (Центр)","listingId":19783539,"photoId":"909-1","tags":[{"name":"tvmonitor","coordinates":[0.14823573430379228,0.22674890359242758,0.24924136267768013,0.24652291933695475]},{"name":"tvmonitor","coordinates":[0.18186376359727652,0.27025741736094155,0.1556706322564019,0.15499978065490722]},{"name":"person","coordinates":[0.18186376359727652,0.27025741736094155,0.1556706322564019,0.15499978065490722]},{"name":"person","coordinates":[0.21504442161983917,0.2958091696103414,0.07884661886427137,0.11152795950571696]},{"name":"book","coordinates":[0.48262620502048065,0.03224263787269592,0.012163649664984809,0.06629279851913453]},{"name":"book","coordinates":[0.4676659302579032,0.03109673261642456,0.009847209850947062,0.06676334540049235]},{"name":"tie","coordinates":[0.25325981378555296,0.3549488216638565,0.008525835143195258,0.030765503644943237]}]}
