{"src":"https://a0.muscache.com/im/pictures/4f1dd31a-9802-49b9-a43c-5425c3a32bcf.jpg?aki_policy=xx_large","name":"Квартира на Пушкинской (Центр)","listingId":19783539,"photoId":"909-3","tags":[{"name":"bed","coordinates":[0.17634198930528433,0.6796829859415691,0.634872563680013,0.31535746256510416]},{"name":"diningtable","coordinates":[0.17634198930528433,0.6796829859415691,0.634872563680013,0.31535746256510416]},{"name":"chair","coordinates":[0.7457619455125597,0.6733035723368327,0.24643387264675565,0.3112099329630534]},{"name":"chair","coordinates":[0.0017601013183593667,0.6594971179962159,0.21321158938937718,0.3336629549662272]},{"name":"chair","coordinates":[0.2928630193074544,0.8969041585922242,0.377859369913737,0.1009069283803304]},{"name":"bottle","coordinates":[0.4501932091183133,0.48172429800033567,0.026890616946750216,0.11906801064809164]}]}
