{"src":"https://a0.muscache.com/im/pictures/12a801a8-53ea-4924-861d-39901ea64474.jpg?aki_policy=xx_large","name":"Квартира на Пушкинской (Центр)","listingId":19783539,"photoId":"909-1","tags":[{"name":"tvmonitor","coordinates":[0.27285641564263236,0.35001036326090496,0.24924136267768013,0.24652291933695475]},{"name":"tvmonitor","coordinates":[0.25969907972547746,0.3477573076883952,0.1556706322564019,0.15499978065490722]},{"name":"person","coordinates":[0.25969907972547746,0.3477573076883952,0.1556706322564019,0.15499978065490722]},{"name":"person","coordinates":[0.25446773105197484,0.3515731493631999,0.07884661886427137,0.11152795950571696]},{"name":"book","coordinates":[0.48870802985297307,0.06538903713226318,0.012163649664984809,0.06629279851913453]},{"name":"book","coordinates":[0.47258953518337676,0.06447840531667073,0.009847209850947062,0.06676334540049235]},{"name":"tie","coordinates":[0.2575227313571506,0.3703315734863281,0.008525835143195258,0.030765503644943237]}]}
