{"src":"https://a0.muscache.com/im/pictures/4f1dd31a-9802-49b9-a43c-5425c3a32bcf.jpg?aki_policy=xx_large","name":"Квартира на Пушкинской (Центр)","listingId":19783539,"photoId":"909-3","tags":[{"name":"bed","coordinates":[0.4937782711452908,0.8373617172241211,0.634872563680013,0.31535746256510416]},{"name":"diningtable","coordinates":[0.4937782711452908,0.8373617172241211,0.634872563680013,0.31535746256510416]},{"name":"chair","coordinates":[0.8689788818359375,0.8289085388183594,0.24643387264675565,0.3112099329630534]},{"name":"chair","coordinates":[0.10836589601304795,0.8263285954793295,0.21321158938937718,0.3336629549662272]},{"name":"chair","coordinates":[0.4817927042643229,0.9473576227823893,0.377859369913737,0.1009069283803304]},{"name":"bottle","coordinates":[0.4636385175916884,0.5412583033243815,0.026890616946750216,0.11906801064809164]}]}
