{"src":"https://a0.muscache.com/im/pictures/760feaf7-1f84-4fe1-bf28-b2b9e49a3617.jpg?aki_policy=xx_large","name":"Cosy room close to the center","listingId":12142967,"photoId":"91-0","tags":[{"name":"oven","coordinates":[0.3232706069946289,0.7117829004923503,0.10717538197835287,0.5101507186889649]},{"name":"microwave","coordinates":[0.14271827273898655,0.3864790916442871,0.12435798645019532,0.10526173909505208]},{"name":"wine-glass","coordinates":[0.16779393090142145,0.11164236068725586,0.01482517851723565,0.08011571566263835]},{"name":"wine-glass","coordinates":[0.18075010511610243,0.11074798107147217,0.01430574655532837,0.07777915795644125]},{"name":"cup","coordinates":[0.18595502641465927,0.4300333340962728,0.027807164192199706,0.02903869152069092]},{"name":"bowl","coordinates":[0.09563137690226237,0.14816357294718424,0.02275032467312283,0.025322389602661134]},{"name":"wine-glass","coordinates":[0.1941268073187934,0.12708558241526285,0.01187777386771308,0.041999348004659015]},{"name":"wine-glass","coordinates":[0.20501649644639758,0.12557908693949382,0.010612369908226862,0.042297712961832684]}]}
