{"src":"https://a0.muscache.com/im/pictures/760feaf7-1f84-4fe1-bf28-b2b9e49a3617.jpg?aki_policy=xx_large","name":"Cosy room close to the center","listingId":12142967,"photoId":"91-0","tags":[{"name":"oven","coordinates":[0.7191544426812065,0.4567075411478678,0.28580101860894097,0.5101507186889649]},{"name":"microwave","coordinates":[0.214771412037037,0.33384822209676107,0.33162129720052086,0.10526173909505208]},{"name":"wine-glass","coordinates":[0.42768357771414295,0.07158450285593668,0.039533809379295064,0.08011571566263835]},{"name":"wine-glass","coordinates":[0.4629259515691686,0.07185840209325155,0.038148657480875654,0.07777915795644125]},{"name":"cup","coordinates":[0.4588038515161585,0.41551398833592734,0.07415243784586588,0.02903869152069092]},{"name":"bowl","coordinates":[0.2246832388418692,0.13550237814585367,0.06066753246166088,0.025322389602661134]},{"name":"wine-glass","coordinates":[0.5018344543598316,0.10608590841293335,0.03167406364723488,0.041999348004659015]},{"name":"wine-glass","coordinates":[0.5325608306460909,0.10443023045857748,0.02829965308860496,0.042297712961832684]}]}
