{"src":"https://a0.muscache.com/im/pictures/760feaf7-1f84-4fe1-bf28-b2b9e49a3617.jpg?aki_policy=xx_large","name":"Cosy room close to the center","listingId":12142967,"photoId":"91-0","tags":[{"name":"oven","coordinates":[0.862054951985677,0.7117829004923503,0.28580101860894097,0.5101507186889649]},{"name":"microwave","coordinates":[0.38058206063729744,0.3864790916442871,0.33162129720052086,0.10526173909505208]},{"name":"wine-glass","coordinates":[0.4474504824037905,0.11164236068725586,0.039533809379295064,0.08011571566263835]},{"name":"wine-glass","coordinates":[0.48200028030960645,0.11074798107147217,0.038148657480875654,0.07777915795644125]},{"name":"cup","coordinates":[0.49588007043909144,0.4300333340962728,0.07415243784586588,0.02903869152069092]},{"name":"bowl","coordinates":[0.25501700507269964,0.14816357294718424,0.06066753246166088,0.025322389602661134]},{"name":"wine-glass","coordinates":[0.517671486183449,0.12708558241526285,0.03167406364723488,0.041999348004659015]},{"name":"wine-glass","coordinates":[0.5467106571903935,0.12557908693949382,0.02829965308860496,0.042297712961832684]}]}
