{"src":"https://a0.muscache.com/im/pictures/970c8778-a9aa-4a06-8b52-304dbbe05950.jpg?aki_policy=xx_large","name":"Appartement a Tangier Free Zone","listingId":19789468,"photoId":"911-2","tags":[{"name":"sofa","coordinates":[0.6121334923638238,0.5996980508168539,0.3643331739637587,0.39862534205118816]},{"name":"tvmonitor","coordinates":[0.16862423155042858,0.52511785030365,0.21665643056233724,0.25622334480285647]},{"name":"laptop","coordinates":[0.5810068713294135,0.7754924615224202,0.16891955269707573,0.23300326665242513]},{"name":"bottle","coordinates":[0.5437036368581984,0.8742167949676514,0.03555305004119873,0.1315347989400228]},{"name":"book","coordinates":[0.7632915841208564,0.24839328527450563,0.03100434939066569,0.05497435728708903]},{"name":"book","coordinates":[0.7955574777391222,0.27835308909416195,0.046657159593370225,0.016287736097971597]},{"name":"book","coordinates":[0.6992628441916572,0.1894354169567426,0.04745616383022732,0.013732785979906717]}]}
