{"src":"https://a0.muscache.com/im/pictures/970c8778-a9aa-4a06-8b52-304dbbe05950.jpg?aki_policy=xx_large","name":"Appartement a Tangier Free Zone","listingId":19789468,"photoId":"911-2","tags":[{"name":"sofa","coordinates":[0.7943000793457031,0.7990107218424479,0.3643331739637587,0.39862534205118816]},{"name":"tvmonitor","coordinates":[0.2769524468315972,0.6532295227050782,0.21665643056233724,0.25622334480285647]},{"name":"laptop","coordinates":[0.6654666476779514,0.8919940948486328,0.16891955269707573,0.23300326665242513]},{"name":"bottle","coordinates":[0.5614801618787978,0.9399841944376628,0.03555305004119873,0.1315347989400228]},{"name":"book","coordinates":[0.7787937588161893,0.27588046391805016,0.03100434939066569,0.05497435728708903]},{"name":"book","coordinates":[0.8188860575358073,0.28649695714314777,0.046657159593370225,0.016287736097971597]},{"name":"book","coordinates":[0.7229909261067708,0.19630180994669597,0.04745616383022732,0.013732785979906717]}]}
