{"src":"https://a0.muscache.com/im/pictures/49350042-0a40-4c8d-a555-50cea2aac224.jpg?aki_policy=xx_large","name":"Close to beach","listingId":23112555,"photoId":"911-5","tags":[{"name":"diningtable","coordinates":[0.7085507392883301,0.7954172770182292,0.620739221572876,0.38336868286132814]},{"name":"chair","coordinates":[0.55215425491333,0.6992322921752929,0.24248108863830567,0.14262916247049967]},{"name":"chair","coordinates":[0.7641009330749512,0.6355676651000977,0.19845796823501588,0.11881004969278972]},{"name":"vase","coordinates":[0.3901057243347168,0.5743787129720052,0.0871565580368042,0.20360485712687174]},{"name":"bottle","coordinates":[0.7627360343933105,0.4841429392496745,0.030524343252182007,0.14892231623331706]}]}
