{"src":"https://a0.muscache.com/im/pictures/f5d03661-e4c0-4ab0-ae84-9f3a349b986a.jpg?aki_policy=xx_large","name":"Close to beach","listingId":23112555,"photoId":"911-2","tags":[{"name":"refrigerator","coordinates":[0.8617584228515625,0.3549910545349121,0.19328904151916504,0.4398677190144857]},{"name":"oven","coordinates":[0.17005354166030884,0.8808436711629232,0.3608256340026855,0.22405567169189453]},{"name":"sink","coordinates":[0.6238359928131103,0.42932211558024086,0.11985468864440918,0.04096217552820842]},{"name":"vase","coordinates":[0.13784176111221313,0.505414072672526,0.05054579377174377,0.06763570308685303]},{"name":"bottle","coordinates":[0.5336107730865478,0.4012649854024251,0.021410270035266875,0.06449898878733316]}]}
