{"src":"https://a0.muscache.com/im/pictures/29dcc931-8821-4047-800a-5de53c2f78ea.jpg?aki_policy=xx_large","name":"Close to beach","listingId":23112555,"photoId":"911-4","tags":[{"name":"chair","coordinates":[0.4108737945556641,0.7754390080769856,0.2111968517303467,0.3341674486796061]},{"name":"chair","coordinates":[0.5819663524627685,0.7338153839111328,0.1723008632659912,0.29502038955688475]},{"name":"chair","coordinates":[0.5659162998199463,0.5263817469278972,0.11561768054962158,0.17086753845214844]},{"name":"bowl","coordinates":[0.2089627504348755,0.5219280242919921,0.08422569036483765,0.035537660121917725]},{"name":"vase","coordinates":[0.684870719909668,0.4551128387451172,0.028625816106796265,0.08011111418406168]},{"name":"bottle","coordinates":[0.27277705669403074,0.4972418149312337,0.021530596911907195,0.09028786023457845]},{"name":"vase","coordinates":[0.4696310043334961,0.48346624374389646,0.01756535768508911,0.056848474343617755]}]}
