{"src":"https://a0.muscache.com/im/pictures/24aed261-ed20-4d2b-89eb-4065d8ffe811.jpg?aki_policy=xx_large","name":"Heerlijk en gezellig huis in Scheveningen","listingId":23117518,"photoId":"912-4","tags":[{"name":"oven","coordinates":[0.6434703826904297,0.7284212112426758,0.5809514999389649,0.4761322021484375]},{"name":"pottedplant","coordinates":[0.3940443754196167,0.3758339564005534,0.16133898496627808,0.34946374893188475]},{"name":"chair","coordinates":[0.40234899520874023,0.5197396278381348,0.0682863473892212,0.17706233660380047]},{"name":"chair","coordinates":[0.7846459865570068,0.5411090215047201,0.11785253286361694,0.06822894414265951]},{"name":"chair","coordinates":[0.6382873058319092,0.5180613835652669,0.10047258138656616,0.06671794255574544]},{"name":"pottedplant","coordinates":[0.20819361209869386,0.45941540400187175,0.044705760478973386,0.1341427008310954]},{"name":"cat","coordinates":[0.5534449577331543,0.4527062098185221,0.06842231154441833,0.07389974594116211]},{"name":"pottedplant","coordinates":[0.10781993865966796,0.31589568456014,0.044719535112380984,0.06256879965464274]}]}
