{"src":"https://a0.muscache.com/im/pictures/24223fa9-ad75-49c6-b0d7-005ab085c5d7.jpg?aki_policy=xx_large","name":"Luxury house, 500m from beach (near free parking)","listingId":23134825,"photoId":"914-3","tags":[{"name":"pottedplant","coordinates":[0.8920827865600586,0.32380606333414713,0.2099750280380249,0.2633559068044027]},{"name":"chair","coordinates":[0.06890474557876587,0.5150026639302572,0.13386572599411012,0.28404153188069664]},{"name":"chair","coordinates":[0.2573115348815918,0.3277094523111979,0.09879677295684815,0.10024964014689128]},{"name":"chair","coordinates":[0.3923866510391235,0.3288986841837565,0.0914749801158905,0.10616150697072348]},{"name":"chair","coordinates":[0.5361747741699219,0.33500169118245443,0.08501344323158264,0.10617925326029459]},{"name":"microwave","coordinates":[0.7459596633911133,0.1258081038792928,0.10412056446075439,0.07558082739512126]},{"name":"vase","coordinates":[0.9001020431518555,0.4036733945210775,0.07308281064033509,0.09826231002807617]},{"name":"bowl","coordinates":[0.780348253250122,0.4361184438069661,0.11726419925689698,0.0464814027150472]}]}
