{"src":"https://a0.muscache.com/im/pictures/34f9d194-94e8-43ec-952b-2f6671c597c7.jpg?aki_policy=xx_large","name":"Luxury house, 500m from beach (near free parking)","listingId":23134825,"photoId":"914-4","tags":[{"name":"diningtable","coordinates":[0.31617279052734376,0.7370400746663411,0.4073065757751465,0.47137695948282876]},{"name":"chair","coordinates":[0.4468142032623291,0.7341415405273437,0.16617193222045898,0.4090984980265299]},{"name":"pottedplant","coordinates":[0.3138944149017334,0.5245361963907877,0.15346620082855225,0.19615732828776042]},{"name":"vase","coordinates":[0.3051741600036621,0.5880314509073893,0.05413628816604614,0.09660631020863851]},{"name":"chair","coordinates":[0.4546787261962891,0.49370835622151693,0.06431124210357667,0.034063982963562014]},{"name":"bottle","coordinates":[0.3225849151611328,0.380101998647054,0.0170926958322525,0.04528663158416748]}]}
