{"src":"https://a0.muscache.com/im/pictures/d1509fff-09d0-49bd-b4f0-8fe2fe61a042.jpg?aki_policy=xx_large","name":"unique apartment in Zeeheldenkwartier","listingId":23154738,"photoId":"917-4","tags":[{"name":"oven","coordinates":[0.8707242849124268,0.8620885848999024,0.22788564932516864,0.26022369066874185]},{"name":"sink","coordinates":[0.5361254311352,0.6468893051147461,0.1983631466393043,0.024489267667134603]},{"name":"bottle","coordinates":[0.74343114091454,0.5886260350545247,0.04958979454090133,0.07553935050964355]},{"name":"pottedplant","coordinates":[0.2986659730829405,0.6080698013305664,0.0614902412007782,0.04761436382929484]},{"name":"bottle","coordinates":[0.42992679908464726,0.5984530131022135,0.02634229027558365,0.0701012929280599]}]}
