{"src":"https://a0.muscache.com/im/pictures/d30209ce-d390-4217-8c4e-766940d346b5.jpg?aki_policy=xx_large","name":"unique apartment in Zeeheldenkwartier","listingId":23154738,"photoId":"917-5","tags":[{"name":"oven","coordinates":[0.5228485107421875,0.940831184387207,0.14757509231567384,0.10989898045857747]},{"name":"sink","coordinates":[0.1590993285179138,0.7441725413004557,0.18313385248184205,0.0862764835357666]},{"name":"bottle","coordinates":[0.3179738759994507,0.6350215911865235,0.03732381761074066,0.12024887402852376]},{"name":"bottle","coordinates":[0.052559322118759154,0.6638694127400716,0.029739460349082945,0.10527307192484538]},{"name":"spoon","coordinates":[0.5677535533905029,0.6869537989298503,0.03143503963947296,0.07388203144073487]},{"name":"bowl","coordinates":[0.37985212802886964,0.472400697072347,0.0478481262922287,0.040762881437937416]}]}
