{"src":"https://a0.muscache.com/im/pictures/9380bec3-285f-4041-bdb9-79e5dc56114b.jpg?aki_policy=xx_large","name":"Для Вас уютная квартира на Взлётной","listingId":19822218,"photoId":"918-5","tags":[{"name":"pottedplant","coordinates":[0.7629447937011719,0.8225659688313802,0.11080506642659506,0.2138663609822591]},{"name":"banana","coordinates":[0.17334254582722983,0.6848898569742838,0.056297323438856336,0.17627579371134441]},{"name":"banana","coordinates":[0.1465483029683431,0.6828644434611003,0.054437118106418186,0.17376766204833985]},{"name":"apple","coordinates":[0.30781050788031683,0.6768571217854817,0.09600522783067492,0.073886505762736]},{"name":"bottle","coordinates":[0.2927553388807509,0.3833900451660156,0.05747749010721843,0.09490058422088624]},{"name":"bottle","coordinates":[0.2363294389512804,0.3701231638590495,0.04326334794362386,0.1112278381983439]},{"name":"bottle","coordinates":[0.18810869852701823,0.3677387555440267,0.03957290119594998,0.11429099241892497]}]}
