{"src":"https://a0.muscache.com/im/pictures/051d27a6-cb55-4935-b39b-0ef91eb46cbc.jpg?aki_policy=xx_large","name":"APARTAMENTO NOVO / DUAS VAGAS DE GARAGEM","listingId":12171799,"photoId":"92-0","tags":[{"name":"diningtable","coordinates":[0.3902358770370484,0.6540634314219157,0.34522404670715334,0.30179084142049156]},{"name":"chair","coordinates":[0.25804153680801395,0.7031975269317627,0.3186816930770874,0.27004232406616213]},{"name":"sofa","coordinates":[0.07010352611541748,0.46847168604532874,0.36661267280578613,0.22689634958902996]},{"name":"chair","coordinates":[0.6146222114562988,0.6981828689575195,0.2693166732788086,0.2884548187255859]},{"name":"chair","coordinates":[0.2194029211997986,0.565332825978597,0.16664421558380127,0.15355828603108723]},{"name":"chair","coordinates":[0.5570342659950256,0.5613577445348104,0.1421896696090698,0.14121133486429852]},{"name":"bowl","coordinates":[0.5015844941139221,0.6151622752348581,0.08651788234710693,0.06642977794011434]},{"name":"bottle","coordinates":[0.5228992469608783,0.5138304154078166,0.01570129245519638,0.05976885159810384]}]}
