{"src":"https://a0.muscache.com/im/pictures/ffbb0437-6234-4dc4-82ff-25f1888f7011.jpg?aki_policy=xx_large","name":"Roofterrace-sunny center apt (longterm possible)","listingId":12117352,"photoId":"92-0","tags":[{"name":"sofa","coordinates":[0.1696526815231387,0.6923809687296549,0.3238778147478594,0.3800990104675293]},{"name":"pottedplant","coordinates":[0.0694339789336182,0.3603263219197591,0.15113899538679482,0.8136812210083008]},{"name":"diningtable","coordinates":[0.17756040570467338,0.923978042602539,0.3486490262897688,0.11985950469970703]},{"name":"chair","coordinates":[0.6291702970841664,0.5290506998697917,0.1397422716249511,0.20639262199401856]},{"name":"bottle","coordinates":[0.9410228066053112,0.8650206883748373,0.07409581488130487,0.1757326602935791]},{"name":"chair","coordinates":[0.16837652469046094,0.8218108495076497,0.12440727350609028,0.09917771021525065]},{"name":"bottle","coordinates":[0.9719903810631085,0.8983660380045573,0.043614505560905445,0.11866219838460286]}]}
