{"src":"https://a0.muscache.com/im/pictures/051d27a6-cb55-4935-b39b-0ef91eb46cbc.jpg?aki_policy=xx_large","name":"APARTAMENTO NOVO / DUAS VAGAS DE GARAGEM","listingId":12171799,"photoId":"92-0","tags":[{"name":"diningtable","coordinates":[0.562847900390625,0.8049588521321615,0.34522404670715334,0.30179084142049156]},{"name":"chair","coordinates":[0.41738238334655764,0.8382186889648438,0.3186816930770874,0.27004232406616213]},{"name":"sofa","coordinates":[0.25340986251831055,0.5819198608398437,0.36661267280578613,0.22689634958902996]},{"name":"chair","coordinates":[0.7492805480957031,0.8424102783203125,0.2693166732788086,0.2884548187255859]},{"name":"chair","coordinates":[0.30272502899169923,0.6421119689941406,0.16664421558380127,0.15355828603108723]},{"name":"chair","coordinates":[0.6281291007995605,0.6319634119669596,0.1421896696090698,0.14121133486429852]},{"name":"bowl","coordinates":[0.5448434352874756,0.6483771642049153,0.08651788234710693,0.06642977794011434]},{"name":"bottle","coordinates":[0.5307498931884765,0.5437148412068685,0.01570129245519638,0.05976885159810384]}]}
