{"src":"https://a0.muscache.com/im/pictures/44eddf11-a0bf-43e0-a7ea-d8803ccb8c39.jpg?aki_policy=xx_large","name":"APARTAMENTO NOVO / DUAS VAGAS DE GARAGEM","listingId":12171799,"photoId":"92-8","tags":[{"name":"refrigerator","coordinates":[0.5497854868570964,0.6302041371663412,0.44963501824273006,0.7273214975992839]},{"name":"oven","coordinates":[1.571963161892361,0.8308137893676758,0.5000731998019748,0.3342034975687663]},{"name":"microwave","coordinates":[0.14052256478203667,0.5889880498250325,0.2478436787923177,0.1881048838297526]},{"name":"diningtable","coordinates":[0.21236784193250868,0.9436558405558269,0.3885464562310113,0.11361752351125082]},{"name":"chair","coordinates":[0.17927771674262152,0.8672879536946615,0.3154078801472982,0.1364564259847005]}]}
