{"src":"https://a0.muscache.com/im/pictures/fcf51b72-b714-441a-9c72-d44e019f580e.jpg?aki_policy=xx_large","name":"Cozy house with sunny backyard near the beach!","listingId":23214199,"photoId":"920-2","tags":[{"name":"sink","coordinates":[0.8374569363064236,0.5602881113688151,0.30551213158501517,0.16805755297342936]},{"name":"sink","coordinates":[0.8353029039171007,0.5314933141072591,0.2290085474650065,0.08831791083017985]},{"name":"bottle","coordinates":[0.3505808512369792,0.662343152364095,0.060460233688354494,0.09051327705383301]},{"name":"wine-glass","coordinates":[0.2579411188761393,0.5671332041422527,0.061070018344455294,0.07608882586161296]},{"name":"bottle","coordinates":[0.8011495802137587,0.1890739599863688,0.06326892111036513,0.06854586601257324]},{"name":"vase","coordinates":[0.29143502977159286,0.6741996765136719,0.05678857697380914,0.0557439923286438]},{"name":"bottle","coordinates":[0.741329108344184,0.18855307896931967,0.046262661616007485,0.06564059257507324]}]}
