{"src":"https://a0.muscache.com/im/pictures/aa412763-df63-4f7f-a6e9-cb1aa8853790.jpg?aki_policy=xx_large","name":"NEW Студия в стиле LOFT and Coffee","listingId":19839673,"photoId":"920-2","tags":[{"name":"microwave","coordinates":[0.42759389877319337,0.5953461329142252,0.16684831380844117,0.19296515782674153]},{"name":"sink","coordinates":[0.08138623833656311,0.9441420873006184,0.16451890468597413,0.10523343086242676]},{"name":"pottedplant","coordinates":[0.2250375509262085,0.25837149620056155,0.09246712327003478,0.15715023676554363]},{"name":"bowl","coordinates":[0.7343209266662598,0.7873137791951498,0.08362746238708496,0.09305674235026042]},{"name":"cup","coordinates":[0.8970827102661133,0.7768599828084309,0.05225273370742798,0.09258987108866373]},{"name":"bowl","coordinates":[0.593477201461792,0.6960702260335286,0.058983069658279416,0.0584759513537089]},{"name":"pottedplant","coordinates":[0.5745935916900635,0.5801825205485026,0.049147340655326846,0.06606742143630981]},{"name":"bowl","coordinates":[0.5745935916900635,0.5801825205485026,0.049147340655326846,0.06606742143630981]}]}
