{"src":"https://a0.muscache.com/im/pictures/ea1c4d34-878e-4a13-aa15-5818b8ec0818.jpg?aki_policy=xx_large","name":"Zonnige stadswoning in knus straatje in Den Haag","listingId":23268401,"photoId":"925-0","tags":[{"name":"diningtable","coordinates":[0.5084331512451172,0.7114906946818034,0.28343911170959474,0.3370539983113607]},{"name":"bed","coordinates":[0.12285424470901489,0.883857536315918,0.23847973346710205,0.24287411371866863]},{"name":"chair","coordinates":[0.4869394779205322,0.7290095647176107,0.11393382549285888,0.31026198069254557]},{"name":"chair","coordinates":[0.37830147743225095,0.6945095698038737,0.1155542016029358,0.3037880261739095]},{"name":"chair","coordinates":[0.25182816982269285,0.7997810999552409,0.14311211109161376,0.19311157862345377]},{"name":"car","coordinates":[0.7625315666198731,0.4346196492513021,0.16801793575286866,0.156735356648763]},{"name":"vase","coordinates":[0.48224968910217286,0.5613872528076171,0.036808055639266965,0.06917808850606283]}]}
