{"src":"https://a0.muscache.com/im/pictures/e1adad99-4b4a-493a-b26c-70dcfc830b25.jpg?aki_policy=xx_large","name":"Sunny, Relaxing Home in Toronto Suburb","listingId":19878167,"photoId":"925-2","tags":[{"name":"chair","coordinates":[0.8682785881890192,0.7463727315266927,0.2371230019463433,0.267240047454834]},{"name":"chair","coordinates":[0.5289394378662109,0.7914086023966471,0.20671405792236328,0.293303108215332]},{"name":"chair","coordinates":[0.28180321587456597,0.7556989034016927,0.20722902086046008,0.25859049161275227]},{"name":"chair","coordinates":[0.7695094638400608,0.6782732645670573,0.15622901916503906,0.2529388109842936]},{"name":"chair","coordinates":[0.07438260184393988,0.7093529383341471,0.15279570685492622,0.23260167439778645]},{"name":"refrigerator","coordinates":[0.3389189614189996,0.43557923634847007,0.17190321816338433,0.15721341768900554]},{"name":"chair","coordinates":[0.48670531378851994,0.5746811548868815,0.19508544074164497,0.046102221806844076]},{"name":"microwave","coordinates":[0.9519141303168402,0.4778354962666829,0.10399671130710178,0.03994625012079875]},{"name":"pottedplant","coordinates":[0.8737148708767362,0.46496540705362954,0.06446892950269911,0.04842151403427124]}]}
