{"src":"https://a0.muscache.com/im/pictures/e1adad99-4b4a-493a-b26c-70dcfc830b25.jpg?aki_policy=xx_large","name":"Sunny, Relaxing Home in Toronto Suburb","listingId":19878167,"photoId":"925-2","tags":[{"name":"chair","coordinates":[0.7497170872158475,0.6127527077992757,0.2371230019463433,0.267240047454834]},{"name":"chair","coordinates":[0.42558240890502924,0.6447570482889811,0.20671405792236328,0.293303108215332]},{"name":"chair","coordinates":[0.17818870544433593,0.6264036575953165,0.20722902086046008,0.25859049161275227]},{"name":"chair","coordinates":[0.6913949542575413,0.5518038590749105,0.15622901916503906,0.2529388109842936]},{"name":"chair","coordinates":[-0.0020152515835232254,0.5930521011352539,0.15279570685492622,0.23260167439778645]},{"name":"refrigerator","coordinates":[0.2529673523373074,0.3569725275039673,0.17190321816338433,0.15721341768900554]},{"name":"chair","coordinates":[0.38916259341769743,0.5516300439834595,0.19508544074164497,0.046102221806844076]},{"name":"microwave","coordinates":[0.8999157746632893,0.45786237120628354,0.10399671130710178,0.03994625012079875]},{"name":"pottedplant","coordinates":[0.8414804061253867,0.44075465003649394,0.06446892950269911,0.04842151403427124]}]}
