{"src":"https://a0.muscache.com/im/pictures/de23fe52-aa5d-41b0-b779-51c8df129eb3.jpg?aki_policy=xx_large","name":"Sunny, Relaxing Home in Toronto Suburb","listingId":19878167,"photoId":"925-5","tags":[{"name":"diningtable","coordinates":[0.22189697689480253,0.507481066385905,0.4131682925754123,0.28562901814778646]},{"name":"chair","coordinates":[0.1436997519599067,0.5029126167297363,0.28491554260253904,0.32312170664469403]},{"name":"chair","coordinates":[0.4631435394287109,0.5035555521647135,0.255218505859375,0.3169703165690104]},{"name":"pottedplant","coordinates":[0.34506011539035375,0.408695125579834,0.1721782684326172,0.1319091796875]},{"name":"chair","coordinates":[0.4622254742516411,0.4696238458156586,0.13905528386433919,0.0501416007677714]},{"name":"chair","coordinates":[0.16038297017415365,0.4809724509716034,0.12789285447862414,0.044987229506174724]},{"name":"vase","coordinates":[0.4081655528810289,0.476436052719752,0.046431345409817165,0.06546120246251425]}]}
