{"src":"https://a0.muscache.com/im/pictures/3a414df6-3a87-4ac5-8166-632578b17bb8.jpg?aki_policy=xx_large","name":"Zonnige stadswoning in knus straatje in Den Haag","listingId":23268401,"photoId":"925-1","tags":[{"name":"sofa","coordinates":[0.19607473611831666,0.7798457463582357,0.3826595306396484,0.4061110178629557]},{"name":"chair","coordinates":[0.7299554347991943,0.8259675979614258,0.403667688369751,0.33437906901041664]},{"name":"sofa","coordinates":[0.7299554347991943,0.8259675979614258,0.403667688369751,0.33437906901041664]},{"name":"tvmonitor","coordinates":[0.4582871437072754,0.4800031026204427,0.106474769115448,0.1275027275085449]},{"name":"book","coordinates":[0.26198248863220214,0.8971133550008138,0.10559935569763183,0.07809774080912273]},{"name":"pottedplant","coordinates":[0.9282707214355469,0.6449277877807618,0.07797461748123169,0.10403459866841634]},{"name":"pottedplant","coordinates":[0.5632614135742188,0.4307395617167155,0.07078136205673217,0.11255215009053549]},{"name":"book","coordinates":[0.3369448661804199,0.8687901178995768,0.09454405307769775,0.07275525728861491]},{"name":"clock","coordinates":[0.4028027534484863,0.2564247608184814,0.0379484236240387,0.0814897616704305]}]}
