{"src":"https://a0.muscache.com/im/pictures/e1adad99-4b4a-493a-b26c-70dcfc830b25.jpg?aki_policy=xx_large","name":"Sunny, Relaxing Home in Toronto Suburb","listingId":19878167,"photoId":"925-2","tags":[{"name":"chair","coordinates":[0.48840670585632323,0.7463727315266927,0.1333816885948181,0.267240047454834]},{"name":"chair","coordinates":[0.29752843379974364,0.7914086023966471,0.11627665758132935,0.293303108215332]},{"name":"chair","coordinates":[0.15851430892944335,0.7556989034016927,0.11656632423400878,0.25859049161275227]},{"name":"chair","coordinates":[0.4328490734100342,0.6782732645670573,0.08787882328033447,0.2529388109842936]},{"name":"chair","coordinates":[0.04184021353721619,0.7093529383341471,0.085947585105896,0.23260167439778645]},{"name":"refrigerator","coordinates":[0.19064191579818726,0.43557923634847007,0.09669556021690369,0.15721341768900554]},{"name":"chair","coordinates":[0.27377173900604246,0.5746811548868815,0.10973556041717529,0.046102221806844076]},{"name":"microwave","coordinates":[0.5354516983032227,0.4778354962666829,0.05849815011024475,0.03994625012079875]},{"name":"pottedplant","coordinates":[0.49146461486816406,0.46496540705362954,0.03626377284526825,0.04842151403427124]}]}
