{"src":"https://a0.muscache.com/im/pictures/de23fe52-aa5d-41b0-b779-51c8df129eb3.jpg?aki_policy=xx_large","name":"Sunny, Relaxing Home in Toronto Suburb","listingId":19878167,"photoId":"925-5","tags":[{"name":"diningtable","coordinates":[0.4284811231825087,0.6502955754597982,0.4131682925754123,0.28562901814778646]},{"name":"chair","coordinates":[0.2861575232611762,0.6644734700520833,0.28491554260253904,0.32312170664469403]},{"name":"chair","coordinates":[0.5907527923583984,0.6620407104492188,0.255218505859375,0.3169703165690104]},{"name":"pottedplant","coordinates":[0.43114924960666234,0.474649715423584,0.1721782684326172,0.1319091796875]},{"name":"chair","coordinates":[0.5317531161838107,0.4946946461995443,0.13905528386433919,0.0501416007677714]},{"name":"chair","coordinates":[0.22432939741346572,0.5034660657246908,0.12789285447862414,0.044987229506174724]},{"name":"vase","coordinates":[0.4313812255859375,0.5091666539510091,0.046431345409817165,0.06546120246251425]}]}
