{"src":"https://a0.muscache.com/im/pictures/a66197ff-9352-4b40-a6cd-66faad5beb89.jpg?aki_policy=xx_large","name":"Chic Villa + Walk to Shopping Precinct. Pet ok","listingId":19882234,"photoId":"926-8","tags":[{"name":"bowl","coordinates":[0.006374955177307129,0.7469109058380128,0.37251880168914797,0.24721899032592773]},{"name":"refrigerator","coordinates":[0.005022579431533815,0.2695815404256185,0.11828111410140991,0.5348791758219401]},{"name":"oven","coordinates":[0.3707384288311005,0.5409656524658203,0.1439099907875061,0.26976407368977867]},{"name":"microwave","coordinates":[0.17159976959228518,0.2022425572077433,0.1582956314086914,0.15400678316752117]},{"name":"bottle","coordinates":[0.8494518592953682,0.5014424840609233,0.028956922888755798,0.07969369093577067]}]}
