{"src":"https://a0.muscache.com/im/pictures/67e71892-f938-4d1e-a16f-93b78465af18.jpg?aki_policy=xx_large","name":"Cosy room for 1 person or for a couple in Wroc≈Çaw","listingId":19891468,"photoId":"928-4","tags":[{"name":"diningtable","coordinates":[0.31347550286187065,0.5384730656941732,0.4174712287055122,0.22591781616210938]},{"name":"chair","coordinates":[0.5919802665710449,0.5208990573883057,0.16698246002197265,0.2406184196472168]},{"name":"chair","coordinates":[0.29354647000630696,0.5271125157674154,0.16151520411173503,0.23123016357421874]},{"name":"chair","coordinates":[0.4523393842909071,0.5354652245839437,0.1380724589029948,0.22497421900431316]},{"name":"bed","coordinates":[0.03153679105970594,0.5513474305470785,0.2038757112291124,0.150621763865153]},{"name":"chair","coordinates":[0.6994768010245429,0.523904267946879,0.06643047862582736,0.22714403470357258]},{"name":"clock","coordinates":[0.6238496912850274,0.32181349992752073,0.05462063153584798,0.04010032812754313]},{"name":"chair","coordinates":[0.5057424518797133,0.5194324274857839,0.06368904643588597,0.021828313668568928]}]}
