{"src":"https://a0.muscache.com/im/pictures/1ec122ca-dcd7-4eac-8778-7a7b5a7238f3.jpg?aki_policy=xx_large","name":"Light, family house with big garden","listingId":12160134,"photoId":"93-5","tags":[{"name":"diningtable","coordinates":[0.5060348510742188,0.8058228810628255,0.5722896999782986,0.4300038973490397]},{"name":"chair","coordinates":[0.7069209628634983,0.8329872131347656,0.1617891311645508,0.3239322026570638]},{"name":"chair","coordinates":[0.4744718763563368,0.8874188741048177,0.22693837483723958,0.1987808386484782]},{"name":"pottedplant","coordinates":[0.6080461714002822,0.6071146647135417,0.10479105843438043,0.1858337720235189]},{"name":"pottedplant","coordinates":[0.4269271002875434,0.4899597485860189,0.0742334418826633,0.12241721947987874]},{"name":"vase","coordinates":[0.6179134792751736,0.6592174530029297,0.044763210084703235,0.07563735644022623]},{"name":"vase","coordinates":[0.2846552742852105,0.5376380284627279,0.04292519092559814,0.04729603528976441]}]}
