{"src":"https://a0.muscache.com/im/pictures/42c287c1-3d83-4745-8eeb-52235d5ebeb9.jpg?aki_policy=xx_large","name":"J-D&amp;D \nCOZY APARTMENT NEAR ARENA ZAGREB + PARKING","listingId":19907426,"photoId":"930-2","tags":[{"name":"sofa","coordinates":[0.7456390857696533,0.7147507985432943,0.4784689426422119,0.48617671330769857]},{"name":"diningtable","coordinates":[0.3281732082366943,0.6179015477498372,0.2690693140029907,0.310079828898112]},{"name":"chair","coordinates":[0.22329046726226806,0.6425736745198568,0.15532734394073486,0.3326186498006185]},{"name":"chair","coordinates":[0.4324700355529785,0.592380968729655,0.13856685161590576,0.27964337666829425]},{"name":"remote","coordinates":[0.5619428157806396,0.8953852335611979,0.048382344841957095,0.07070976893107096]}]}
