{"src":"https://a0.muscache.com/im/pictures/42c287c1-3d83-4745-8eeb-52235d5ebeb9.jpg?aki_policy=xx_large","name":"J-D&amp;D \nCOZY APARTMENT NEAR ARENA ZAGREB + PARKING","listingId":19907426,"photoId":"930-2","tags":[{"name":"sofa","coordinates":[0.5064046144485473,0.47166244188944495,0.4784689426422119,0.48617671330769857]},{"name":"diningtable","coordinates":[0.19363855123519896,0.46286163330078123,0.2690693140029907,0.310079828898112]},{"name":"chair","coordinates":[0.14562679529190065,0.47626434961954756,0.15532734394073486,0.3326186498006185]},{"name":"chair","coordinates":[0.36318660974502565,0.45255928039550786,0.13856685161590576,0.27964337666829425]},{"name":"remote","coordinates":[0.5377516433596611,0.8600303490956624,0.048382344841957095,0.07070976893107096]}]}
