{"src":"https://a0.muscache.com/im/pictures/28198155/3900725b_original.jpg?aki_policy=xx_large","name":"FLAT VITÃ“RIA MARINA","listingId":1991616,"photoId":"932-3","tags":[{"name":"bed","coordinates":[0.5774688243865966,0.8674352645874024,1.0348033905029297,0.2508782068888346]},{"name":"tvmonitor","coordinates":[0.14990314245223998,0.1963340123494466,0.23493611812591553,0.33738349278767904]},{"name":"sofa","coordinates":[1.0458559036254882,0.7125265757242839,0.1473368763923645,0.33591556549072266]},{"name":"diningtable","coordinates":[0.6258590221405029,0.6057279586791993,0.1662235975265503,0.20635999043782552]},{"name":"chair","coordinates":[0.5277664184570312,0.6006741841634115,0.14024763107299804,0.2390143871307373]},{"name":"chair","coordinates":[0.6733356952667237,0.5994392395019531,0.09414307475090027,0.2250322977701823]}]}
