{"src":"https://a0.muscache.com/im/pictures/0164c8d2-386a-4848-a118-70fe22341fed.jpg?aki_policy=xx_large","name":"Ar-Rahmah Homestay Lampung","listingId":19918827,"photoId":"933-3","tags":[{"name":"refrigerator","coordinates":[0.1553481419881185,0.6568957646687825,0.21473895178900826,0.6405039469401042]},{"name":"oven","coordinates":[0.37260428534613715,0.5304003397623698,0.19062186347113716,0.13944827715555827]},{"name":"sink","coordinates":[0.786761474609375,0.4881140391031901,0.24020663367377387,0.03307366371154785]},{"name":"bottle","coordinates":[0.6625028398301867,0.4491687456766764,0.031533159150017635,0.07436351776123047]},{"name":"bottle","coordinates":[0.6330114152696398,0.4484910329182943,0.027783279948764377,0.07653924624125162]}]}
