{"src":"https://a0.muscache.com/im/pictures/959d6e59-7dca-435b-af8f-2e89fb05d1db.jpg?aki_policy=xx_large","name":"Ar-Rahmah Homestay Lampung","listingId":19918827,"photoId":"933-3","tags":[{"name":"car","coordinates":[1.1833965725368925,0.5369076410929362,0.7606165568033855,0.3301827430725098]},{"name":"motorbike","coordinates":[1.3983627319335938,0.6816687266031901,0.4697861565483941,0.3201851526896159]},{"name":"car","coordinates":[0.6121771918402777,0.4706997553507487,0.5823279910617405,0.18346497217814128]},{"name":"car","coordinates":[0.7648392571343317,0.5032851537068684,0.39594815572102865,0.216614294052124]},{"name":"truck","coordinates":[0.3574954562717014,0.43430856068929036,0.3184920205010308,0.13119542598724365]},{"name":"person","coordinates":[0.6284341600206164,0.6468493779500325,0.15964957343207464,0.2532917340596517]},{"name":"person","coordinates":[0.0485877513885498,0.6671815236409505,0.0775981585184733,0.1505165417989095]}]}
