{"src":"https://a0.muscache.com/im/pictures/0164c8d2-386a-4848-a118-70fe22341fed.jpg?aki_policy=xx_large","name":"Ar-Rahmah Homestay Lampung","listingId":19918827,"photoId":"933-3","tags":[{"name":"refrigerator","coordinates":[0.04797866609361437,0.33664379119873045,0.21473895178900826,0.6405039469401042]},{"name":"oven","coordinates":[0.27729335361056856,0.46067620118459063,0.19062186347113716,0.13944827715555827]},{"name":"sink","coordinates":[0.666658157772488,0.4715772072474162,0.24020663367377387,0.03307366371154785]},{"name":"bottle","coordinates":[0.6467362602551778,0.41198698679606116,0.031533159150017635,0.07436351776123047]},{"name":"bottle","coordinates":[0.6191197752952576,0.41022140979766847,0.027783279948764377,0.07653924624125162]}]}
