{"src":"https://a0.muscache.com/im/pictures/959d6e59-7dca-435b-af8f-2e89fb05d1db.jpg?aki_policy=xx_large","name":"Ar-Rahmah Homestay Lampung","listingId":19918827,"photoId":"933-3","tags":[{"name":"car","coordinates":[0.6656605720520019,0.5369076410929362,0.4278468132019043,0.3301827430725098]},{"name":"motorbike","coordinates":[0.7865790367126465,0.6816687266031901,0.2642547130584717,0.3201851526896159]},{"name":"car","coordinates":[0.34434967041015624,0.4706997553507487,0.327559494972229,0.18346497217814128]},{"name":"car","coordinates":[0.4302220821380615,0.5032851537068684,0.22272083759307862,0.216614294052124]},{"name":"truck","coordinates":[0.20109119415283203,0.43430856068929036,0.17915176153182982,0.13119542598724365]},{"name":"person","coordinates":[0.35349421501159667,0.6468493779500325,0.08980288505554199,0.2532917340596517]},{"name":"person","coordinates":[0.027330610156059264,0.6671815236409505,0.043648964166641234,0.1505165417989095]}]}
