{"src":"https://a0.muscache.com/im/pictures/71d543e5-fadf-44b2-8fca-aa49d2b5c924.jpg?aki_policy=xx_large","name":"Quiet studio (city center) and amazing view!","listingId":23382681,"photoId":"935-13","tags":[{"name":"sofa","coordinates":[0.2704411268234253,0.7664534886678059,0.5588099002838135,0.44744224548339845]},{"name":"chair","coordinates":[0.8486601829528808,0.7806652069091797,0.15796177387237548,0.4212584177652995]},{"name":"diningtable","coordinates":[1.002396583557129,0.8969647725423177,0.23745255470275878,0.1836126486460368]},{"name":"microwave","coordinates":[0.9769153594970703,0.5226951917012532,0.12531155347824097,0.09908638000488282]},{"name":"bottle","coordinates":[0.8965068817138672,0.5188875198364258,0.016823586821556092,0.05806252161661784]}]}
