{"src":"https://a0.muscache.com/im/pictures/0c231fd8-f955-4ba3-bf40-0901cf8d5397.jpg?aki_policy=xx_large","name":"CHARMING APARTMENT IN A QUIET STREET IN THE CENTRE","listingId":23408580,"photoId":"938-0","tags":[{"name":"diningtable","coordinates":[0.2885456755862122,0.86992982228597,0.6402682319136779,0.26200137138366697]},{"name":"chair","coordinates":[0.49840501659194797,0.8035424550374349,0.21481162284496969,0.27742586135864256]},{"name":"chair","coordinates":[0.6304629040166798,0.7657400131225586,0.2093378595494352,0.2475154717763265]},{"name":"pottedplant","coordinates":[0.04198622133493759,0.8434223175048828,0.09086750529486419,0.26407828330993655]},{"name":"tvmonitor","coordinates":[0.8275830661864891,0.5686184565226237,0.1342231439303413,0.14224940935770672]}]}
