{"src":"https://a0.muscache.com/im/pictures/7231c8f0-c4cd-4041-aeda-112a3b13546c.jpg?aki_policy=xx_large","name":"Peaceful posh locality","listingId":12183105,"photoId":"94-1","tags":[{"name":"diningtable","coordinates":[0.21828308105468752,0.4889997164408365,0.5325140953063965,0.46026681264241537]},{"name":"chair","coordinates":[0.5110062599182129,0.5657006740570069,0.2543932914733887,0.4463134447733561]},{"name":"chair","coordinates":[0.1816507816314697,0.4811139742533366,0.14232935905456542,0.4962301254272461]},{"name":"chair","coordinates":[0.14235524237155917,0.44563433329264324,0.07736050486564636,0.4657299041748047]},{"name":"chair","coordinates":[0.5555262207984925,0.4504947185516357,0.10804297924041747,0.15227365493774414]},{"name":"chair","coordinates":[0.4487196922302246,0.39801756540934247,0.08845806121826172,0.1539115269978841]},{"name":"bowl","coordinates":[0.6924179196357727,0.44708817005157475,0.14863765239715576,0.0602021058400472]},{"name":"chair","coordinates":[0.24133111536502838,0.3941463549931844,0.08513566851615906,0.08484711647033691]},{"name":"vase","coordinates":[0.5981419578194618,0.37326414585113527,0.043188855051994324,0.07889882723490398]}]}
