{"src":"https://a0.muscache.com/im/pictures/7231c8f0-c4cd-4041-aeda-112a3b13546c.jpg?aki_policy=xx_large","name":"Peaceful posh locality","listingId":12183105,"photoId":"94-1","tags":[{"name":"diningtable","coordinates":[0.48454012870788576,0.7191331227620442,0.5325140953063965,0.46026681264241537]},{"name":"chair","coordinates":[0.6382029056549072,0.7888573964436849,0.2543932914733887,0.4463134447733561]},{"name":"chair","coordinates":[0.2528154611587524,0.7292290369669596,0.14232935905456542,0.4962301254272461]},{"name":"chair","coordinates":[0.18103549480438233,0.6784992853800456,0.07736050486564636,0.4657299041748047]},{"name":"chair","coordinates":[0.6095477104187011,0.5266315460205078,0.10804297924041747,0.15227365493774414]},{"name":"chair","coordinates":[0.4929487228393555,0.47497332890828453,0.08845806121826172,0.1539115269978841]},{"name":"bowl","coordinates":[0.7667367458343506,0.4771892229715983,0.14863765239715576,0.0602021058400472]},{"name":"chair","coordinates":[0.2838989496231079,0.43656991322835287,0.08513566851615906,0.08484711647033691]},{"name":"vase","coordinates":[0.6197363853454589,0.41271355946858723,0.043188855051994324,0.07889882723490398]}]}
