{"src":"https://a0.muscache.com/im/pictures/a3c8b4fa-b424-40ae-87e2-5075a7d4e499.jpg?aki_policy=xx_large","name":"Uniek, Ruim, Industrieel &amp; Modern","listingId":12160874,"photoId":"94-2","tags":[{"name":"diningtable","coordinates":[0.32780367533365884,0.8026259104410808,0.3011659622192383,0.42803401947021485]},{"name":"chair","coordinates":[0.43756624857584636,0.804835828145345,0.11047714021470811,0.37280664443969724]},{"name":"chair","coordinates":[0.29320123460557723,0.8909607569376627,0.1469090779622396,0.22737550735473633]},{"name":"chair","coordinates":[0.21005450354682076,0.8742305755615234,0.13678689532809787,0.2368466059366862]},{"name":"bottle","coordinates":[0.24383633931477863,0.6044235229492188,0.02777293258243137,0.08711043993631999]},{"name":"vase","coordinates":[0.24383633931477863,0.6044235229492188,0.02777293258243137,0.08711043993631999]}]}
