{"src":"https://a0.muscache.com/im/pictures/dc081a6b-7c39-49af-8cb1-4413fb3b60e7.jpg?aki_policy=xx_large","name":"Peaceful posh locality","listingId":12183105,"photoId":"94-4","tags":[{"name":"car","coordinates":[0.2734044551849365,0.7917352040608724,0.12701947689056398,0.13741555213928222]},{"name":"truck","coordinates":[0.2734044551849365,0.7917352040608724,0.12701947689056398,0.13741555213928222]},{"name":"car","coordinates":[0.5825904846191406,0.7936651229858398,0.1235653281211853,0.11352194945017496]},{"name":"car","coordinates":[0.47084670066833495,0.8033819834391276,0.11716685295104981,0.09771859645843506]},{"name":"pottedplant","coordinates":[0.17004482746124266,0.8264990488688151,0.04489131569862366,0.11675569216410318]},{"name":"pottedplant","coordinates":[0.39003541469573977,0.8265329996744791,0.036980810761451724,0.0694737434387207]},{"name":"person","coordinates":[0.1212917685508728,0.7964031219482421,0.020956769585609436,0.07270307540893554]}]}
