{"src":"https://a0.muscache.com/im/pictures/dc081a6b-7c39-49af-8cb1-4413fb3b60e7.jpg?aki_policy=xx_large","name":"Peaceful posh locality","listingId":12183105,"photoId":"94-4","tags":[{"name":"car","coordinates":[0.2098947167396545,0.7230274279912313,0.12701947689056398,0.13741555213928222]},{"name":"truck","coordinates":[0.2098947167396545,0.7230274279912313,0.12701947689056398,0.13741555213928222]},{"name":"car","coordinates":[0.520807820558548,0.7369041482607523,0.1235653281211853,0.11352194945017496]},{"name":"car","coordinates":[0.41226327419281006,0.7545226852099101,0.11716685295104981,0.09771859645843506]},{"name":"pottedplant","coordinates":[0.14759916961193084,0.7681212027867635,0.04489131569862366,0.11675569216410318]},{"name":"pottedplant","coordinates":[0.3715450093150139,0.7917961279551188,0.036980810761451724,0.0694737434387207]},{"name":"person","coordinates":[0.11081338375806808,0.7600515842437744,0.020956769585609436,0.07270307540893554]}]}
