{"src":"https://a0.muscache.com/im/pictures/42a4238f-d07b-4c39-9a4e-55a796e51a2a.jpg?aki_policy=xx_large","name":"Uniek, Ruim, Industrieel &amp; Modern","listingId":12160874,"photoId":"94-7","tags":[{"name":"person","coordinates":[1.562452220916748,0.7049869537353516,0.26507017612457273,0.5145226796468099]},{"name":"handbag","coordinates":[1.5008132934570313,0.6329390843709309,0.129275381565094,0.24067301750183107]},{"name":"person","coordinates":[0.5112208366394043,0.7043812433878581,0.053123241662979125,0.07504076957702636]},{"name":"person","coordinates":[0.47305755615234374,0.6990856170654297,0.04694963991641998,0.08123350143432617]},{"name":"person","coordinates":[0.1714724898338318,0.7051225026448568,0.036382737755775454,0.06136333545049032]},{"name":"clock","coordinates":[0.5229206562042237,0.45257314046223956,0.04419953227043152,0.036770566304524736]},{"name":"person","coordinates":[0.657882833480835,0.7075323104858399,0.03790532648563385,0.0405483881632487]},{"name":"bicycle","coordinates":[0.657882833480835,0.7075323104858399,0.03790532648563385,0.0405483881632487]},{"name":"person","coordinates":[0.8573003768920898,0.6965107599894206,0.025226888060569764,0.03379587332407633]}]}
