{"src":"https://a0.muscache.com/im/pictures/d5d5c28b-dc1f-42e9-b639-80483ef1e4d9.jpg?aki_policy=xx_large","name":"Beautiful dutch Apartment, 10min. to centre","listingId":23444225,"photoId":"940-4","tags":[{"name":"diningtable","coordinates":[0.7631125926971436,0.7193367640177409,0.4966078758239746,0.4483291308085124]},{"name":"chair","coordinates":[0.6499041557312012,0.7510600407918294,0.2648016929626465,0.2713966687520345]},{"name":"sofa","coordinates":[0.5942691802978516,0.4542050043741862,0.24170260429382323,0.09625237782796224]},{"name":"pottedplant","coordinates":[0.08199898004531861,0.47181905110677086,0.11757076978683471,0.17000805536905925]},{"name":"vase","coordinates":[0.9554660797119141,0.524175516764323,0.08931738734245301,0.1665767987569173]},{"name":"pottedplant","coordinates":[0.16676712036132812,0.3877868970235189,0.12628124952316283,0.09000039100646973]},{"name":"pottedplant","coordinates":[0.5617336750030517,0.37080675760904946,0.1274857997894287,0.0855100949605306]}]}
