{"src":"https://a0.muscache.com/im/pictures/35a59b1c-482f-4a27-8468-a553ffa256d8.jpg?aki_policy=xx_large","name":"Quiet room 40 minutes from downtown SINGLE BED","listingId":19958275,"photoId":"941-4","tags":[{"name":"pottedplant","coordinates":[0.893428717719184,0.5069725036621093,0.2086771223280165,0.724903424580892]},{"name":"cup","coordinates":[0.628184085422092,0.589872169494629,0.2740199195014106,0.4134133656819661]},{"name":"apple","coordinates":[0.22845147450764974,0.8242145538330078,0.13449752595689562,0.20586735407511395]},{"name":"apple","coordinates":[0.11206825044420031,0.8090749104817708,0.1273665428161621,0.20134453773498534]},{"name":"banana","coordinates":[0.20428329043918186,0.5791760762532552,0.1564180268181695,0.1452154795328776]}]}
