{"src":"https://a0.muscache.com/im/pictures/2779f8bd-e2d1-4ce3-a5a1-eaa700eb9c18.jpg?aki_policy=xx_large","name":"Quiet room 40 minutes from downtown SINGLE BED","listingId":19958275,"photoId":"941-3","tags":[{"name":"oven","coordinates":[0.1555087407430013,0.7031397819519043,0.7107513003879123,0.2955595016479492]},{"name":"bowl","coordinates":[0.7614819208780924,0.7545118689537048,0.11038831075032553,0.09240156014760335]},{"name":"spoon","coordinates":[0.04280442131890191,0.6311571637789409,0.07683166927761502,0.09597882429758707]},{"name":"bottle","coordinates":[0.8179689274893867,0.2127585808436076,0.04562020301818848,0.1380060036977132]},{"name":"spoon","coordinates":[0.0844686852561103,0.7085026979446412,0.046435944239298504,0.12645506858825684]},{"name":"spoon","coordinates":[0.10524867640601264,0.6956326484680176,0.037937264972262914,0.14445896148681642]},{"name":"bottle","coordinates":[0.8882465561230978,0.19707988500595094,0.043667647573682994,0.11975748538970947]},{"name":"bowl","coordinates":[0.9188912974463569,0.741031018892924,0.06599056455824111,0.0669680118560791]},{"name":"bottle","coordinates":[0.9495400879118178,0.6124955733617147,0.04425003793504503,0.09625786145528158]},{"name":"cup","coordinates":[0.8808167722490098,0.7731578230857848,0.06021161609225803,0.05917802651723226]},{"name":"bowl","coordinates":[0.8808167722490098,0.7731578230857848,0.06021161609225803,0.05917802651723226]},{"name":"bottle","coordinates":[0.861130854818556,0.20256366332372028,0.03028599951002333,0.11367836793263754]},{"name":"bottle","coordinates":[0.8780930439631144,0.026003360748291016,0.02473788261413574,0.10453782081604004]}]}
