{"src":"https://a0.muscache.com/im/pictures/3e9be81a-770b-4fc0-aace-84bc1d382479.jpg?aki_policy=xx_large","name":"苏州北站文艺小屋 Suzhou North Railway Station Apartment","listingId":19970041,"photoId":"943-0","tags":[{"name":"sofa","coordinates":[0.033516430854797385,0.489779281616211,0.5724286556243896,0.4557154337565104]},{"name":"pottedplant","coordinates":[0.8286408364772796,0.41863536834716797,0.16736851930618285,0.41755383809407554]},{"name":"tvmonitor","coordinates":[0.7528263628482819,0.4413455804189046,0.08605316877365113,0.187329896291097]},{"name":"vase","coordinates":[0.9030364513397217,0.644259476661682,0.0686945915222168,0.19943652153015137]},{"name":"pottedplant","coordinates":[0.6926136463880539,0.4866592884063721,0.06669846177101135,0.15020666122436524]},{"name":"pottedplant","coordinates":[0.7026900678873061,0.5053930719693502,0.05966903567314148,0.07969809373219808]},{"name":"pottedplant","coordinates":[0.5093253999948502,0.5608516812324524,0.06541282534599305,0.06906303564707438]}]}
