{"src":"https://a0.muscache.com/im/pictures/3e9be81a-770b-4fc0-aace-84bc1d382479.jpg?aki_policy=xx_large","name":"苏州北站文艺小屋 Suzhou North Railway Station Apartment","listingId":19970041,"photoId":"943-0","tags":[{"name":"sofa","coordinates":[0.3197307586669922,0.7176369984944662,0.5724286556243896,0.4557154337565104]},{"name":"pottedplant","coordinates":[0.912325096130371,0.6274122873942057,0.16736851930618285,0.41755383809407554]},{"name":"tvmonitor","coordinates":[0.7958529472351075,0.5350105285644531,0.08605316877365113,0.187329896291097]},{"name":"vase","coordinates":[0.9373837471008301,0.7439777374267578,0.0686945915222168,0.19943652153015137]},{"name":"pottedplant","coordinates":[0.7259628772735596,0.5617626190185547,0.06669846177101135,0.15020666122436524]},{"name":"pottedplant","coordinates":[0.7325245857238769,0.5452421188354493,0.05966903567314148,0.07969809373219808]},{"name":"pottedplant","coordinates":[0.5420318126678467,0.5953831990559896,0.06541282534599305,0.06906303564707438]}]}
