{"src":"https://a0.muscache.com/im/pictures/45e20f90-a1cf-44fb-8737-9f7234c665b0.jpg?aki_policy=xx_large","name":"Трехкомнатная в центре","listingId":19972697,"photoId":"944-10","tags":[{"name":"diningtable","coordinates":[0.5199269771575927,0.9537282307942708,0.4381056308746338,0.07271776994069418]},{"name":"oven","coordinates":[0.5152881145477295,0.6703965504964192,0.12164340019226075,0.18568394978841146]},{"name":"microwave","coordinates":[0.45240936279296873,0.4399890899658203,0.15094711780548095,0.10340942541758219]},{"name":"microwave","coordinates":[0.5216203689575195,0.5384450276692708,0.0847201406955719,0.06484207312266031]},{"name":"bowl","coordinates":[0.5428230285644531,0.36267150243123375,0.0407466471195221,0.028235083818435668]},{"name":"knife","coordinates":[0.2234471082687378,0.5640427271525065,0.008437545597553253,0.08410417238871257]},{"name":"knife","coordinates":[0.23517060279846191,0.562735112508138,0.007856943458318711,0.0746424913406372]},{"name":"bottle","coordinates":[0.31688551902770995,0.6079671859741211,0.011888234317302704,0.04427568515141805]}]}
