{"src":"https://a0.muscache.com/im/pictures/45e20f90-a1cf-44fb-8737-9f7234c665b0.jpg?aki_policy=xx_large","name":"Трехкомнатная в центре","listingId":19972697,"photoId":"944-10","tags":[{"name":"diningtable","coordinates":[0.3008741617202758,0.9173693458239237,0.4381056308746338,0.07271776994069418]},{"name":"oven","coordinates":[0.45446641445159913,0.5775545756022135,0.12164340019226075,0.18568394978841146]},{"name":"microwave","coordinates":[0.37693580389022824,0.38828437725702925,0.15094711780548095,0.10340942541758219]},{"name":"microwave","coordinates":[0.47926029860973357,0.5060239911079407,0.0847201406955719,0.06484207312266031]},{"name":"bowl","coordinates":[0.522449705004692,0.3485539605220159,0.0407466471195221,0.028235083818435668]},{"name":"knife","coordinates":[0.21922833546996115,0.5219906409581502,0.008437545597553253,0.08410417238871257]},{"name":"knife","coordinates":[0.23124213106930255,0.5254138668378194,0.007856943458318711,0.0746424913406372]},{"name":"bottle","coordinates":[0.3109414018690586,0.5858293433984121,0.011888234317302704,0.04427568515141805]}]}
