{"src":"https://a0.muscache.com/im/pictures/993fa66d-7777-4832-9352-7c0fcd8c2311.jpg?aki_policy=xx_large","name":"The best room in the center + FREE bikes","listingId":19982574,"photoId":"946-2","tags":[{"name":"diningtable","coordinates":[0.04408738878038193,0.5166553656260172,0.9406094868977865,0.4932207425435384]},{"name":"clock","coordinates":[0.002079052395290798,-0.008336941401163728,0.316764767964681,0.2894062678019206]},{"name":"chair","coordinates":[0.5660794046190051,0.44985980987548824,0.11780007680257161,0.18034451802571613]},{"name":"pottedplant","coordinates":[0.7435574372609457,0.3625341733296712,0.14291679594251844,0.14162947336832682]},{"name":"pottedplant","coordinates":[0.8984693765640258,0.39393046696980794,0.08336876233418783,0.15837039947509765]},{"name":"pottedplant","coordinates":[0.445003620783488,0.3755544583002726,0.07248826556735569,0.17425856590270997]},{"name":"pottedplant","coordinates":[0.5670245594448513,0.4105427900950114,0.10386965009901258,0.0941624641418457]},{"name":"vase","coordinates":[0.8016818881034851,0.46410727898279824,0.033810872501797144,0.10544168949127197]},{"name":"vase","coordinates":[0.9223869310484992,0.48496193091074624,0.033846031294928657,0.06948520342508951]}]}
