{"src":"https://a0.muscache.com/im/pictures/a2f69490-bf33-458e-b8a5-45af676c3146.jpg?aki_policy=xx_large","name":"Student studio room -Close to center Den Haag","listingId":23570073,"photoId":"947-1","tags":[{"name":"bed","coordinates":[0.4830295986599392,0.9353650410970052,1.0535820855034723,0.13626019159952799]},{"name":"chair","coordinates":[0.7293708801269532,0.7547163009643555,0.15368325975206162,0.24819389979044595]},{"name":"bottle","coordinates":[0.8267261081271702,0.6028417587280274,0.029349970817565917,0.09003843466440836]},{"name":"clock","coordinates":[0.32351031833224825,0.559944216410319,0.0486501587761773,0.029258761803309122]},{"name":"bottle","coordinates":[0.9188526577419704,0.6064455032348632,0.02655064264933268,0.04964774052302043]}]}
