{"src":"https://a0.muscache.com/im/pictures/69b4c2db-4e6a-45cf-8d04-83b30b9b23d8.jpg?aki_policy=xx_large","name":"Home as a central base to explore The Hague or NL","listingId":23571530,"photoId":"948-2","tags":[{"name":"sofa","coordinates":[0.7939676284790039,0.7461199442545573,0.31874752044677734,0.38734375635782875]},{"name":"diningtable","coordinates":[0.19432424306869506,0.8211846669514974,0.39133291244506835,0.29112316767374674]},{"name":"chair","coordinates":[0.12216417789459229,0.8815649032592774,0.22611491680145263,0.2598158200581869]},{"name":"chair","coordinates":[0.1089517593383789,0.6656075159708659,0.11785123348236085,0.09174349308013915]},{"name":"chair","coordinates":[0.274286150932312,0.6636287689208984,0.10893608331680298,0.09525307019551595]},{"name":"bowl","coordinates":[0.2190882921218872,0.7130844116210937,0.08124585151672363,0.059411048889160156]},{"name":"vase","coordinates":[0.012082429230213165,0.6883227030436198,0.019896231591701508,0.12375586032867432]}]}
