{"src":"https://a0.muscache.com/im/pictures/48ffccda-72e5-466a-ad16-e82dd8f874e9.jpg?aki_policy=xx_large","name":"Historic House Scheveningen","listingId":12162725,"photoId":"95-6","tags":[{"name":"chair","coordinates":[0.6768912315368653,0.7827292124430338,0.39124431610107424,0.41374406814575193]},{"name":"pottedplant","coordinates":[0.9143167495727539,0.6277173360188802,0.16704514026641845,0.31869818369547526]},{"name":"chair","coordinates":[0.43739094734191897,0.5664635340372721,0.12423888444900513,0.32162135442097983]},{"name":"tvmonitor","coordinates":[0.3895864486694336,0.43020690282185875,0.07803419828414918,0.1029218037923177]},{"name":"clock","coordinates":[0.9875020980834961,0.02290266752243042,0.02426486611366272,0.05222089687983195]},{"name":"book","coordinates":[0.46997780799865724,0.2250215212504069,0.014157204329967499,0.0604256788889567]},{"name":"book","coordinates":[0.4523607730865479,0.22556276321411134,0.011762432754039764,0.05931255022684733]},{"name":"book","coordinates":[0.4526264190673828,0.3033610343933105,0.01261722892522812,0.04979130029678345]},{"name":"book","coordinates":[0.43338866233825685,0.30828332901000977,0.012006473541259766,0.052044256528218584]}]}
