{"src":"https://a0.muscache.com/im/pictures/c6016768-19ac-4d8c-8c41-3c9eaa77772f.jpg?aki_policy=xx_large","name":"Peace on the river","listingId":20010945,"photoId":"953-6","tags":[{"name":"diningtable","coordinates":[0.5038497924804688,0.7142984390258789,0.3740470462375217,0.5766315460205078]},{"name":"chair","coordinates":[0.2994665781656901,0.702233632405599,0.3149148517184787,0.5593287150065104]},{"name":"chair","coordinates":[0.9016530354817708,0.6620904922485351,0.19552118513319228,0.56427427927653]},{"name":"sofa","coordinates":[0.9016530354817708,0.6620904922485351,0.19552118513319228,0.56427427927653]},{"name":"chair","coordinates":[0.6254793379041884,0.7144861221313477,0.1809578577677409,0.48157434463500975]},{"name":"oven","coordinates":[0.09278114106920031,0.4739018758138021,0.1537034034729004,0.3671659151713053]},{"name":"chair","coordinates":[0.5418528238932292,0.4060202598571777,0.08214458889431424,0.12271701494852702]},{"name":"vase","coordinates":[0.7863378736707899,0.6111600875854493,0.03816262616051568,0.14816139539082845]},{"name":"cup","coordinates":[0.131997373369005,0.2740242640177409,0.04253658983442518,0.07052799860636393]},{"name":"bowl","coordinates":[0.4016806284586589,0.45379037857055665,0.03422969712151421,0.03613440990447998]},{"name":"orange","coordinates":[0.43138164944118923,0.4333366394042969,0.02720546987321642,0.031917776664098105]},{"name":"bottle","coordinates":[0.4958048078748915,0.10197733243306478,0.014161633120642768,0.05579498608907064]},{"name":"bottle","coordinates":[0.5090984768337674,0.10530040264129639,0.012436883979373509,0.04686400095621745]},{"name":"bottle","coordinates":[0.5291925642225478,0.10927721659342447,0.010570084386401706,0.04313239653905233]},{"name":"bottle","coordinates":[0.5459088219536675,0.11269001166025798,0.011003733343548245,0.03902470668156942]}]}
