{"src":"https://a0.muscache.com/im/pictures/284ec5ab-d381-43da-8e04-ce67380a8d1e.jpg?aki_policy=xx_large","name":"Peace on the river","listingId":20010945,"photoId":"953-6","tags":[{"name":"bed","coordinates":[0.010126590728759766,0.4863847414652506,0.6194982528686523,0.504591687520345]},{"name":"bowl","coordinates":[0.6750234335660934,0.6113086342811584,0.06938663125038147,0.04654052257537842]},{"name":"remote","coordinates":[0.6499506652355194,0.6851471821467081,0.07130829095840455,0.035620959599812825]},{"name":"orange","coordinates":[0.6888308525085449,0.6194783091545105,0.029801273345947267,0.024639471371968587]},{"name":"orange","coordinates":[0.7080350816249847,0.6212655822436015,0.02720853090286255,0.021999653180440268]}]}
