{"src":"https://a0.muscache.com/im/pictures/c6016768-19ac-4d8c-8c41-3c9eaa77772f.jpg?aki_policy=xx_large","name":"Peace on the river","listingId":20010945,"photoId":"953-6","tags":[{"name":"diningtable","coordinates":[0.5668310165405274,0.7142984390258789,0.4208029270172119,0.5766315460205078]},{"name":"chair","coordinates":[0.3368999004364014,0.702233632405599,0.35427920818328856,0.5593287150065104]},{"name":"chair","coordinates":[1.0143596649169921,0.6620904922485351,0.2199613332748413,0.56427427927653]},{"name":"sofa","coordinates":[1.0143596649169921,0.6620904922485351,0.2199613332748413,0.56427427927653]},{"name":"chair","coordinates":[0.7036642551422119,0.7144861221313477,0.2035775899887085,0.48157434463500975]},{"name":"oven","coordinates":[0.10437878370285034,0.4739018758138021,0.17291632890701295,0.3671659151713053]},{"name":"chair","coordinates":[0.6095844268798828,0.4060202598571777,0.09241266250610351,0.12271701494852702]},{"name":"vase","coordinates":[0.8846301078796387,0.6111600875854493,0.042932954430580136,0.14816139539082845]},{"name":"cup","coordinates":[0.14849704504013062,0.2740242640177409,0.04785366356372833,0.07052799860636393]},{"name":"bowl","coordinates":[0.4518907070159912,0.45379037857055665,0.03850840926170349,0.03613440990447998]},{"name":"orange","coordinates":[0.4853043556213379,0.4333366394042969,0.03060615360736847,0.031917776664098105]},{"name":"bottle","coordinates":[0.557780408859253,0.10197733243306478,0.015931837260723114,0.05579498608907064]},{"name":"bottle","coordinates":[0.5727357864379883,0.10530040264129639,0.013991494476795197,0.04686400095621745]},{"name":"bottle","coordinates":[0.5953416347503662,0.10927721659342447,0.01189134493470192,0.04313239653905233]},{"name":"bottle","coordinates":[0.614147424697876,0.11269001166025798,0.012379200011491776,0.03902470668156942]}]}
