{"src":"https://a0.muscache.com/im/pictures/db66141e-c26c-4a2a-a401-210fca83c335.jpg?aki_policy=xx_large","name":"Dar Amina: comfort and quietness","listingId":12214976,"photoId":"96-0","tags":[{"name":"diningtable","coordinates":[0.24366686079237196,0.7403694152832031,0.30825027889675566,0.4286458969116211]},{"name":"chair","coordinates":[0.3290344662136502,0.7547874450683594,0.13823016484578451,0.3701068878173828]},{"name":"chair","coordinates":[0.1834328121609158,0.8312435150146484,0.15062246322631836,0.33229099909464516]},{"name":"diningtable","coordinates":[0.24157774183485242,0.6007534027099609,0.23116298251681858,0.19259813626607258]},{"name":"sink","coordinates":[0.5641417609320747,0.5288031578063965,0.1627525117662218,0.1019250233968099]},{"name":"bottle","coordinates":[0.5402908325195312,0.4552779197692871,0.01784383323457506,0.06509027481079102]}]}
