{"src":"https://a0.muscache.com/im/pictures/db66141e-c26c-4a2a-a401-210fca83c335.jpg?aki_policy=xx_large","name":"Dar Amina: comfort and quietness","listingId":12214976,"photoId":"96-0","tags":[{"name":"diningtable","coordinates":[0.3760774700332429,0.7403694152832031,0.47575605746123056,0.4286458969116211]},{"name":"chair","coordinates":[0.5078345459246048,0.7547874450683594,0.21334559204494072,0.3701068878173828]},{"name":"chair","coordinates":[0.28311173581105975,0.8312435150146484,0.232471968966665,0.33229099909464516]},{"name":"diningtable","coordinates":[0.37285310636890406,0.6007534027099609,0.3567788797687232,0.19259813626607258]},{"name":"sink","coordinates":[0.8707011101202439,0.5288031578063965,0.2511935872919179,0.1019250233968099]},{"name":"bottle","coordinates":[0.8338893878114951,0.4552779197692871,0.027540321390984016,0.06509027481079102]}]}
