{"src":"https://a0.muscache.com/im/pictures/15137952-4605-46bb-9edb-155943e6e975.jpg?aki_policy=xx_large","name":"Beautiful city centre apartment","listingId":12196605,"photoId":"96-4","tags":[{"name":"car","coordinates":[0.8816424899631077,0.6102904637654623,0.23116686079237198,0.2357127825419108]},{"name":"bicycle","coordinates":[0.2653944863213433,0.5893833796183269,0.07700283262464735,0.1890919844309489]},{"name":"motorbike","coordinates":[0.7209640502929687,0.5510765711466471,0.08659929699367946,0.09555530548095703]},{"name":"bicycle","coordinates":[0.3951547410753038,0.5729291280110677,0.043875410821702744,0.11697635650634766]},{"name":"motorbike","coordinates":[0.48656349182128905,0.5468749364217123,0.0252292447619968,0.0559960126876831]},{"name":"bicycle","coordinates":[0.31822950575086806,0.5376958211263021,0.020470563570658365,0.061950441201527914]},{"name":"person","coordinates":[0.48740560743543837,0.5145783424377441,0.016973518000708687,0.05449238618214925]},{"name":"person","coordinates":[0.431165525648329,0.5403902689615886,0.011719662613338894,0.06096584796905517]}]}
