{"src":"https://a0.muscache.com/im/pictures/55175715/004795e7_original.jpg?aki_policy=xx_large","name":"ground floor apartment/studio","listingId":2374358,"photoId":"960-0","tags":[{"name":"sofa","coordinates":[0.789665937423706,0.6880212148030599,0.4388263702392578,0.2806836128234863]},{"name":"chair","coordinates":[0.5959062576293945,0.8465054829915365,0.2704724073410034,0.2765481948852539]},{"name":"diningtable","coordinates":[0.1592646360397339,0.9048674901326498,0.28202831745147705,0.1895501931508382]},{"name":"tvmonitor","coordinates":[0.4053318023681641,0.504758071899414,0.13766974210739136,0.1922063668568929]},{"name":"vase","coordinates":[0.03136307597160339,0.7712774912516276,0.058463507890701295,0.3296285311381022]},{"name":"chair","coordinates":[0.2366659164428711,0.8422712961832682,0.15187584161758422,0.12668294906616212]},{"name":"vase","coordinates":[0.09293968081474305,0.8523974736531575,0.09422926902770996,0.19962555567423504]},{"name":"book","coordinates":[0.7517637252807617,0.7019484202067058,0.06278688311576844,0.03891102870305379]}]}
