{"src":"https://a0.muscache.com/im/pictures/55176002/0820af4d_original.jpg?aki_policy=xx_large","name":"ground floor apartment/studio","listingId":2374358,"photoId":"960-1","tags":[{"name":"sofa","coordinates":[0.7985022068023682,0.627220090230306,0.4218432903289795,0.31969827016194663]},{"name":"sofa","coordinates":[0.6083050727844238,0.800082270304362,0.27827911376953124,0.3318630218505859]},{"name":"chair","coordinates":[0.6083050727844238,0.800082270304362,0.27827911376953124,0.3318630218505859]},{"name":"diningtable","coordinates":[0.15961885452270508,0.8368408838907878,0.3275564670562744,0.27459869384765623]},{"name":"chair","coordinates":[0.26156890392303467,0.8276915232340495,0.1447124719619751,0.298152224222819]},{"name":"chair","coordinates":[0.1450322985649109,0.9537022272745769,0.26371397972106936,0.08213793436686198]},{"name":"tvmonitor","coordinates":[0.4476179122924805,0.42348219553629557,0.12040656805038452,0.1690879185994466]},{"name":"chair","coordinates":[0.2631316423416138,0.7421589533487956,0.13111180067062378,0.13122281233469646]},{"name":"vase","coordinates":[0.12853546142578126,0.7410830815633138,0.08469018340110779,0.18678995768229167]},{"name":"book","coordinates":[0.7733282089233399,0.6388840993245443,0.06454959511756897,0.03688329855600993]}]}
