{"src":"https://z0.muscache.cn/im/pictures/c06708cd-ede2-47d9-b51b-3156d2edada9.jpg?aki_policy=xx_large","name":"[AREKA1] 3min walk from Nampo-dong Clean &amp; Cozy","listingId":20077629,"photoId":"964-0","tags":[{"name":"pottedplant","coordinates":[0.8261676788330078,0.5767350514729818,0.35236539840698244,0.48032697041829425]},{"name":"chair","coordinates":[0.2722776412963867,0.6413977305094402,0.24830524921417235,0.3756617863972982]},{"name":"chair","coordinates":[0.8767370223999024,0.813377571105957,0.23980207443237306,0.35072542826334635]},{"name":"chair","coordinates":[0.1724309206008911,0.6824657440185546,0.17921724319458007,0.4513003667195638]},{"name":"chair","coordinates":[0.7130289077758789,0.6854719797770182,0.16896593570709229,0.376165231068929]},{"name":"sofa","coordinates":[0.055523985624313356,0.7357597351074219,0.10005701780319214,0.4987108866373698]},{"name":"book","coordinates":[0.14934215545654297,0.7698414484659831,0.08104223012924194,0.04855377674102783]}]}
