{"src":"https://z0.muscache.cn/im/pictures/c06708cd-ede2-47d9-b51b-3156d2edada9.jpg?aki_policy=xx_large","name":"[AREKA1] 3min walk from Nampo-dong Clean &amp; Cozy","listingId":20077629,"photoId":"964-0","tags":[{"name":"pottedplant","coordinates":[0.6499849796295165,0.33657156626383467,0.35236539840698244,0.48032697041829425]},{"name":"chair","coordinates":[0.14812501668930053,0.45356683731079106,0.24830524921417235,0.3756617863972982]},{"name":"chair","coordinates":[0.7568359851837159,0.6380148569742838,0.23980207443237306,0.35072542826334635]},{"name":"chair","coordinates":[0.08282229900360107,0.4568155606587727,0.17921724319458007,0.4513003667195638]},{"name":"chair","coordinates":[0.6285459399223328,0.49738936424255376,0.16896593570709229,0.376165231068929]},{"name":"sofa","coordinates":[0.005495476722717288,0.486404291788737,0.10005701780319214,0.4987108866373698]},{"name":"book","coordinates":[0.108821040391922,0.7455645600954692,0.08104223012924194,0.04855377674102783]}]}
