{"src":"https://a0.muscache.com/im/pictures/129108c5-5e71-4989-b252-4a36180808ec.jpg?aki_policy=xx_large","name":"Черепановых, 2а","listingId":20107345,"photoId":"966-1","tags":[{"name":"refrigerator","coordinates":[0.2538675361209446,0.4675355593363444,0.1342079480489095,0.3226167678833008]},{"name":"diningtable","coordinates":[-0.00004116694132487442,0.7707079410552978,0.14220945570203994,0.2442127545674642]},{"name":"oven","coordinates":[0.44783123864067925,0.5916880607604981,0.09106771681043836,0.25136076609293617]},{"name":"microwave","coordinates":[0.5555184576246474,0.5274473031361897,0.1029737048678928,0.08408664067586263]},{"name":"sink","coordinates":[0.8376142448849148,0.6137995004653931,0.11057541105482313,0.04003926912943522]}]}
