{"src":"https://a0.muscache.com/im/pictures/66afcb59-9bec-4a20-9f79-d623e7e8a48d.jpg?aki_policy=xx_large","name":"Beach house 100 mtr from the beach","listingId":12226197,"photoId":"97-1","tags":[{"name":"diningtable","coordinates":[0.4894306182861328,0.7352537790934245,0.7268378257751464,0.46097688674926757]},{"name":"pottedplant","coordinates":[0.8238016128540039,0.5888052622477213,0.3455991506576538,0.7699371337890625]},{"name":"chair","coordinates":[0.18168820142745973,0.7997280756632487,0.2909583568572998,0.3736490567525228]},{"name":"chair","coordinates":[0.08675800561904908,0.5209789911905924,0.14507248401641845,0.1759853680928548]},{"name":"chair","coordinates":[0.2656193017959595,0.5039067268371582,0.10601119995117188,0.08774965604146322]},{"name":"chair","coordinates":[0.5808290481567383,0.5424256642659505,0.06316313147544861,0.06599032878875732]},{"name":"bottle","coordinates":[0.2658878564834595,0.45285154978434244,0.016820074617862703,0.04282665252685547]}]}
