{"src":"https://a0.muscache.com/im/pictures/043c5a11-8cbd-41c3-8ebf-cfec1eb8bdc4.jpg?aki_policy=xx_large","name":"晏子的家(Yanzi's home)~一抹书香(海南海口A Sweet Room)","listingId":12240827,"photoId":"97-1","tags":[{"name":"bed","coordinates":[0.622725338406033,0.7688336690266927,0.5332369910346137,0.45955915451049806]},{"name":"chair","coordinates":[0.1597128126356337,0.8785090128580729,0.13401269912719727,0.24919230143229168]},{"name":"pottedplant","coordinates":[0.12776124742296008,0.28078730901082355,0.1162306891547309,0.11169877847035727]},{"name":"horse","coordinates":[0.44696659511990017,0.15894026756286622,0.06918947431776258,0.08839752674102783]},{"name":"book","coordinates":[0.8314016554090712,0.33278299967447916,0.040166351530287,0.09395167032877604]},{"name":"book","coordinates":[0.8129487779405382,0.20717220306396483,0.015178222126430935,0.11373585065205892]},{"name":"book","coordinates":[0.8270864698621961,0.20433974266052246,0.01409916877746582,0.11198190053304037]},{"name":"book","coordinates":[0.7296761406792535,0.44517946243286133,0.02139826880560981,0.0618300199508667]},{"name":"book","coordinates":[0.7264361063639323,0.3528103510538737,0.012019203768836128,0.07066780726114909]},{"name":"book","coordinates":[0.8307977464463976,0.4448349634806315,0.010860267612669203,0.07674459616343181]},{"name":"book","coordinates":[0.7097106509738498,0.35353752772013347,0.010819134447309706,0.06947539647420248]},{"name":"book","coordinates":[0.6429278903537327,0.44618380864461266,0.012794889344109429,0.055000718434651694]}]}
