{"src":"https://a0.muscache.com/im/pictures/043c5a11-8cbd-41c3-8ebf-cfec1eb8bdc4.jpg?aki_policy=xx_large","name":"晏子的家(Yanzi's home)~一抹书香(海南海口A Sweet Room)","listingId":12240827,"photoId":"97-1","tags":[{"name":"bed","coordinates":[0.7005660057067871,0.7688336690266927,0.5998916149139404,0.45955915451049806]},{"name":"chair","coordinates":[0.17967691421508789,0.8785090128580729,0.15076428651809692,0.24919230143229168]},{"name":"pottedplant","coordinates":[0.14373140335083007,0.28078730901082355,0.13075952529907225,0.11169877847035727]},{"name":"horse","coordinates":[0.5028374195098877,0.15894026756286622,0.07783815860748292,0.08839752674102783]},{"name":"book","coordinates":[0.9353268623352051,0.33278299967447916,0.045187145471572876,0.09395167032877604]},{"name":"book","coordinates":[0.9145673751831055,0.20717220306396483,0.0170754998922348,0.11373585065205892]},{"name":"book","coordinates":[0.9304722785949707,0.20433974266052246,0.01586156487464905,0.11198190053304037]},{"name":"book","coordinates":[0.8208856582641602,0.44517946243286133,0.024073052406311034,0.0618300199508667]},{"name":"book","coordinates":[0.8172406196594239,0.3528103510538737,0.013521604239940643,0.07066780726114909]},{"name":"book","coordinates":[0.9346474647521973,0.4448349634806315,0.012217801064252853,0.07674459616343181]},{"name":"book","coordinates":[0.798424482345581,0.35353752772013347,0.01217152625322342,0.06947539647420248]},{"name":"book","coordinates":[0.7232938766479492,0.44618380864461266,0.014394250512123109,0.055000718434651694]}]}
