{"src":"https://a0.muscache.com/im/pictures/31907810/3e04bfe3_original.jpg?aki_policy=xx_large","name":"2 bedrooms, living, kitchen, terrace, office +more","listingId":2393794,"photoId":"971-10","tags":[{"name":"pottedplant","coordinates":[0.13908276028103297,0.24275997479756672,0.14692756864759657,0.285037358601888]},{"name":"wine-glass","coordinates":[0.3958332061767578,0.8268895467122396,0.07964867485894098,0.224167537689209]},{"name":"bottle","coordinates":[0.16368912590874565,0.639885139465332,0.05197747018602159,0.2695367495218913]},{"name":"wine-glass","coordinates":[0.2350155512491862,0.6834973653157552,0.06413200166490343,0.17588257789611816]},{"name":"cup","coordinates":[0.27735330793592666,0.8797567367553711,0.06270742416381836,0.16741078694661457]}]}
