{"src":"https://a0.muscache.com/im/pictures/6ef6735c-fd1a-4f9e-9cb2-87fdea14e1aa.jpg?aki_policy=xx_large","name":"Private room in lovely place close to the beach","listingId":23974764,"photoId":"974-4","tags":[{"name":"chair","coordinates":[0.636967658996582,0.848599370320638,0.21513810157775878,0.2994802474975586]},{"name":"chair","coordinates":[0.5181536197662353,0.7903507232666016,0.12232344150543213,0.3701580683390299]},{"name":"sink","coordinates":[0.13187460899353026,0.5667235692342122,0.2301281452178955,0.07123081684112549]},{"name":"bowl","coordinates":[0.2822383403778076,0.49152730305989584,0.13512959480285644,0.06259237130482992]},{"name":"bottle","coordinates":[0.037014299631118776,0.5327818870544434,0.03331780135631561,0.12127624352773031]},{"name":"bottle","coordinates":[0.7782872200012207,0.2628421465555827,0.019152939319610596,0.0677094300587972]},{"name":"bottle","coordinates":[0.8163064956665039,0.2663315455118815,0.023353496193885805,0.054699095090230306]}]}
