{"src":"https://a0.muscache.com/im/pictures/3ef41c75-546c-406d-ba92-5ba2d814f21d.jpg?aki_policy=xx_large","name":"Private room in lovely place close to the beach","listingId":23974764,"photoId":"974-5","tags":[{"name":"refrigerator","coordinates":[0.17131659984588624,0.6295127232869466,0.2149888515472412,0.6162349065144856]},{"name":"sink","coordinates":[0.8321293830871582,0.7789539972941081,0.29274873733520507,0.2349114735921224]},{"name":"microwave","coordinates":[0.20167312622070313,0.25195053418477376,0.1400929093360901,0.1152731736501058]},{"name":"bottle","coordinates":[0.8300252914428711,0.5829814275105795,0.048963382840156555,0.15910577774047852]},{"name":"bottle","coordinates":[0.7825966835021972,0.6105773289998372,0.04654328525066376,0.1465685526529948]},{"name":"bottle","coordinates":[0.49483375549316405,0.2804786046346029,0.01567709445953369,0.0837695837020874]}]}
