{"src":"https://a0.muscache.com/im/pictures/2410653f-7c01-43ff-b1be-a8c9c79b8e98.jpg?aki_policy=xx_large","name":"Private room in lovely place close to the beach","listingId":23974764,"photoId":"974-3","tags":[{"name":"diningtable","coordinates":[0.239249849319458,0.7889835357666015,0.4599083423614502,0.38219852447509767]},{"name":"sofa","coordinates":[0.3485934972763062,0.5675379435221354,0.3164083003997803,0.21486663818359375]},{"name":"laptop","coordinates":[0.13311372995376586,0.7274515151977539,0.1919819235801697,0.09924106597900391]},{"name":"chair","coordinates":[0.22706801891326905,0.5871294021606446,0.10373350381851196,0.10731131235758463]},{"name":"chair","coordinates":[0.5334999561309814,0.5069437662760417,0.06659168004989624,0.16414453188578287]},{"name":"pottedplant","coordinates":[0.5810682773590088,0.55842711130778,0.04413180947303772,0.10270965099334717]},{"name":"vase","coordinates":[0.5789889812469482,0.588618278503418,0.02701101005077362,0.04591960509618123]}]}
