{"src":"https://a0.muscache.com/im/pictures/523a3524-7714-40bf-983d-4e61a7586ed5.jpg?aki_policy=xx_large","name":"Аппартаменты \"Атлант\"","listingId":20163337,"photoId":"975-8","tags":[{"name":"diningtable","coordinates":[0.24044791327582465,0.5372300942738851,0.4838043212890625,0.4262537956237793]},{"name":"chair","coordinates":[0.1637462510002984,0.6447401682535807,0.21274636586507162,0.28960774739583334]},{"name":"chair","coordinates":[0.3853764533996582,0.6809899965922038,0.2094995074801975,0.28850104014078776]},{"name":"sofa","coordinates":[0.9054745674133301,0.5030117988586426,0.09498127831353081,0.35637454986572265]},{"name":"pottedplant","coordinates":[0.38250665134853784,0.4481942375500997,0.1717564794752333,0.11745779514312744]},{"name":"vase","coordinates":[0.4249157693650987,0.5114078005154927,0.08840342627631294,0.04987663427988688]}]}
