{"src":"https://a0.muscache.com/im/pictures/523a3524-7714-40bf-983d-4e61a7586ed5.jpg?aki_policy=xx_large","name":"Аппартаменты \"Атлант\"","listingId":20163337,"photoId":"975-8","tags":[{"name":"diningtable","coordinates":[0.4823500739203559,0.7503569920857748,0.4838043212890625,0.4262537956237793]},{"name":"chair","coordinates":[0.2701194339328342,0.7895440419514974,0.21274636586507162,0.28960774739583334]},{"name":"chair","coordinates":[0.49012620713975696,0.8252405166625977,0.2094995074801975,0.28850104014078776]},{"name":"sofa","coordinates":[0.9529652065700955,0.6811990737915039,0.09498127831353081,0.35637454986572265]},{"name":"pottedplant","coordinates":[0.4683848910861545,0.5069231351216634,0.1717564794752333,0.11745779514312744]},{"name":"vase","coordinates":[0.4691174825032552,0.5363461176554362,0.08840342627631294,0.04987663427988688]}]}
