{"src":"https://a0.muscache.com/im/pictures/07f4351a-fda9-41f8-8d5d-84bbe34b0b37.jpg?aki_policy=xx_large","name":"Аппартаменты \"Атлант\"","listingId":20163337,"photoId":"975-9","tags":[{"name":"vase","coordinates":[0.31030353307723996,0.2854405879974365,0.13187243938446044,0.40101855595906577]},{"name":"bowl","coordinates":[0.051358568668365495,0.542096773783366,0.26744394302368163,0.1488843282063802]},{"name":"wine-glass","coordinates":[0.5716721594333648,0.36754732131958,0.10812901258468628,0.35232232411702474]},{"name":"wine-glass","coordinates":[0.4745599806308746,0.3641897996266683,0.10054596662521362,0.3577514330546061]},{"name":"cup","coordinates":[0.7914018630981445,0.5296952883402506,0.08416728973388672,0.20425841013590496]},{"name":"cup","coordinates":[0.8692884385585785,0.6020901759465536,0.0772253155708313,0.1326787789662679]},{"name":"cup","coordinates":[0.6451836049556732,0.6072049697240194,0.07945195436477662,0.12626859347025554]},{"name":"cup","coordinates":[0.9099627211689949,0.6141124645868937,0.04130350053310394,0.11261432965596517]}]}
