{"src":"https://a0.muscache.com/im/pictures/845d9933-d5ff-4e56-bb1f-aecfc8bcfa49.jpg?aki_policy=xx_large","name":"Charming &amp; Spacious Appartment close to the beach","listingId":24003757,"photoId":"975-8","tags":[{"name":"bed","coordinates":[0.6244370460510253,0.7994900385538737,0.7634801387786865,0.35498619079589844]},{"name":"bicycle","coordinates":[0.6604668617248535,0.5458998362223307,0.3438750743865967,0.21341888109842935]},{"name":"pottedplant","coordinates":[0.24842026233673095,0.48520053227742516,0.10572143793106079,0.3796974182128906]},{"name":"tvmonitor","coordinates":[0.12553352117538452,0.426891295115153,0.10555746555328369,0.14269239107767742]},{"name":"clock","coordinates":[0.19073662757873536,0.11755239963531494,0.035664099454879764,0.06960099538167318]}]}
