{"src":"https://a0.muscache.com/im/pictures/af05d1a3-dc10-4635-8fd2-3dfde234536e.jpg?aki_policy=xx_large","name":"桂林印象.小碧园","listingId":20197949,"photoId":"979-4","tags":[{"name":"toilet","coordinates":[0.41891373528374565,0.7376341501871745,0.3189029057820638,0.2659301439921061]},{"name":"sink","coordinates":[0.13214665518866645,0.827663803100586,0.238254886203342,0.21991694768269857]},{"name":"bowl","coordinates":[0.6499063279893663,0.7210287729899089,0.14052954779730903,0.07755583922068278]},{"name":"clock","coordinates":[0.6265597873263888,0.21564828554789225,0.10129052268134223,0.09892321427663167]},{"name":"bottle","coordinates":[0.020129084587097168,0.5863848368326823,0.04181034829881456,0.08405357996622721]}]}
