{"src":"https://a0.muscache.com/im/pictures/af05d1a3-dc10-4635-8fd2-3dfde234536e.jpg?aki_policy=xx_large","name":"桂林印象.小碧园","listingId":20197949,"photoId":"979-5","tags":[{"name":"toilet","coordinates":[0.25946228239271374,0.6046690781911215,0.3189029057820638,0.2659301439921061]},{"name":"sink","coordinates":[0.01301921208699544,0.7177053292592367,0.238254886203342,0.21991694768269857]},{"name":"bowl","coordinates":[0.5796415540907118,0.6822508533795675,0.14052954779730903,0.07755583922068278]},{"name":"clock","coordinates":[0.5759145259857177,0.1661866784095764,0.10129052268134223,0.09892321427663167]},{"name":"bottle","coordinates":[-0.0007760895623101123,0.5443580468495687,0.04181034829881456,0.08405357996622721]}]}
