{"src":"https://a0.muscache.com/im/pictures/af05d1a3-dc10-4635-8fd2-3dfde234536e.jpg?aki_policy=xx_large","name":"桂林印象.小碧园","listingId":20197949,"photoId":"979-4","tags":[{"name":"toilet","coordinates":[0.23563897609710693,0.7376341501871745,0.17938288450241088,0.2659301439921061]},{"name":"sink","coordinates":[0.07433249354362488,0.827663803100586,0.1340183734893799,0.21991694768269857]},{"name":"bowl","coordinates":[0.36557230949401853,0.7210287729899089,0.07904787063598633,0.07755583922068278]},{"name":"clock","coordinates":[0.35243988037109375,0.21564828554789225,0.05697591900825501,0.09892321427663167]},{"name":"bottle","coordinates":[0.011322610080242157,0.5863848368326823,0.02351832091808319,0.08405357996622721]}]}
