{"src":"https://a0.muscache.com/im/pictures/b18fe8e2-0a14-4503-8fa4-6e5a9a5d8300.jpg?aki_policy=xx_large","name":"桂林印象.小碧园","listingId":20197949,"photoId":"979-8","tags":[{"name":"pottedplant","coordinates":[0.6618094868130153,0.6234341621398926,0.312119992574056,0.3386952082316081]},{"name":"chair","coordinates":[0.08055158191257052,0.5749660650889079,0.1912848366631402,0.24622824986775715]},{"name":"diningtable","coordinates":[-0.0005501641167534738,0.5773867925008138,0.12840520011054146,0.25068575541178384]},{"name":"chair","coordinates":[-0.0005501641167534738,0.5773867925008138,0.12840520011054146,0.25068575541178384]},{"name":"pottedplant","coordinates":[0.5662425623999702,0.3050472895304362,0.142805724673801,0.09817415873209635]},{"name":"pottedplant","coordinates":[0.33347915013631185,0.728654682636261,0.10296154022216797,0.09027783870697022]},{"name":"vase","coordinates":[0.31476906140645344,0.44121132691701254,0.0533575799730089,0.055893691380818684]},{"name":"vase","coordinates":[0.4736443705028957,0.46456704139709476,0.062487819459703234,0.03969914118448893]},{"name":"chair","coordinates":[0.08414898978339301,0.5572834640741348,0.09627961052788628,0.023465476433436074]},{"name":"vase","coordinates":[0.33549362023671464,0.5729052682717641,0.043359666400485566,0.027206583817799886]},{"name":"bottle","coordinates":[0.19018479254510667,0.3280014296372732,0.019786987039777968,0.04671097993850708]}]}
