{"src":"https://a0.muscache.com/im/pictures/fae3cc12-c860-4ee7-8b89-35772c16c95a.jpg?aki_policy=xx_large","name":"捷運.百貨.夜市 三多商圈透天厝","listingId":20226523,"photoId":"984-2","tags":[{"name":"oven","coordinates":[0.7350903511047363,0.6814093271891276,0.25694785118103025,0.11096527576446533]},{"name":"sink","coordinates":[0.43178539276123046,0.6670642217000325,0.11672930717468262,0.04440853993097941]},{"name":"bowl","coordinates":[0.7725855827331543,0.6227653503417969,0.10616774559020996,0.04501953919728597]},{"name":"cup","coordinates":[0.5690555095672607,0.6218308766682943,0.024572937190532683,0.051899270216623945]},{"name":"cup","coordinates":[0.5881627082824707,0.6194510142008464,0.02201155126094818,0.047939173380533856]}]}
