{"src":"https://a0.muscache.com/im/pictures/fae3cc12-c860-4ee7-8b89-35772c16c95a.jpg?aki_policy=xx_large","name":"捷運.百貨.夜市 三多商圈透天厝","listingId":20226523,"photoId":"984-2","tags":[{"name":"oven","coordinates":[0.6066164255142212,0.625926689306895,0.25694785118103025,0.11096527576446533]},{"name":"sink","coordinates":[0.3734207391738891,0.6448599517345428,0.11672930717468262,0.04440853993097941]},{"name":"bowl","coordinates":[0.7195017099380493,0.6002555807431539,0.10616774559020996,0.04501953919728597]},{"name":"cup","coordinates":[0.5567690409719943,0.5958812415599823,0.024572937190532683,0.051899270216623945]},{"name":"cup","coordinates":[0.5771569326519966,0.5954814275105794,0.02201155126094818,0.047939173380533856]}]}
