{"src":"https://a0.muscache.com/im/pictures/e4b45696-f890-4ee2-a122-8371344d4113.jpg?aki_policy=xx_large","name":"Apartment w/ Private Terrace &amp; scenic volcano view","listingId":20235328,"photoId":"986-4","tags":[{"name":"chair","coordinates":[0.4209144525555758,0.7588143666585286,0.5137222334525328,0.44752028783162434]},{"name":"tvmonitor","coordinates":[1.1824387975753918,0.48384297688802086,0.24795300897981962,0.14323867162068685]},{"name":"clock","coordinates":[0.77034383612541,0.1408869425455729,0.10910320003943262,0.08426820437113444]},{"name":"pottedplant","coordinates":[1.2026080695950254,0.2561682383219401,0.05641881648027514,0.05478439728418986]},{"name":"pottedplant","coordinates":[1.2516241045804481,0.2600017865498861,0.05366322041948057,0.05463360945383708]},{"name":"vase","coordinates":[0.47293277662627553,0.5604771931966146,0.05259904221960129,0.05547891060511271]}]}
