{"src":"https://a0.muscache.com/im/pictures/e4b45696-f890-4ee2-a122-8371344d4113.jpg?aki_policy=xx_large","name":"Apartment w/ Private Terrace &amp; scenic volcano view","listingId":20235328,"photoId":"986-4","tags":[{"name":"chair","coordinates":[0.10527650924125936,0.5350542227427164,0.32966646599479654,0.44752028783162434]},{"name":"tvmonitor","coordinates":[0.6792377297068668,0.41222364107767745,0.159116711094627,0.14323867162068685]},{"name":"clock","coordinates":[0.45933907761319537,0.09875284036000569,0.07001384024981364,0.08426820437113444]},{"name":"pottedplant","coordinates":[0.7536365591108074,0.22877603967984514,0.03620515257761343,0.05478439728418986]},{"name":"pottedplant","coordinates":[0.7859753518599679,0.23268498182296754,0.03443682807087341,0.05463360945383708]},{"name":"vase","coordinates":[0.2866140442322748,0.5327377378940582,0.03375392232240083,0.05547891060511271]}]}
