{"src":"https://a0.muscache.com/im/pictures/5a55e945-b6a3-4595-87b5-d8936913dedd.jpg?aki_policy=xx_large","name":"Apartment w/ Private Terrace &amp; scenic volcano view","listingId":20235328,"photoId":"986-2","tags":[{"name":"sofa","coordinates":[0.02040552465067133,0.5126824855804444,0.36403307545176117,0.46552286148071287]},{"name":"chair","coordinates":[0.4658170747434044,0.427644658088684,0.10010174363066686,0.2131028652191162]},{"name":"chair","coordinates":[0.3866425823501576,0.42895331382751467,0.0964499215957722,0.22106421788533528]},{"name":"tvmonitor","coordinates":[0.7242901287552466,0.3303149342536926,0.1588339019844279,0.13329427242279052]},{"name":"clock","coordinates":[0.6705091159266579,0.07866930564244588,0.03860454975527153,0.07437231540679931]},{"name":"vase","coordinates":[0.6693997121198093,0.38526852130889894,0.03409929469261428,0.07850279808044433]},{"name":"vase","coordinates":[0.6735353706652639,0.4056606709957123,0.023818639636129433,0.04953102668126424]},{"name":"cup","coordinates":[0.5032318278844415,0.42247494757175447,0.019679414678821894,0.02341551979382833]}]}
