{"src":"https://a0.muscache.com/im/pictures/e4b45696-f890-4ee2-a122-8371344d4113.jpg?aki_policy=xx_large","name":"Apartment w/ Private Terrace &amp; scenic volcano view","listingId":20235328,"photoId":"986-4","tags":[{"name":"chair","coordinates":[0.27010974223865764,0.7588143666585286,0.32966646599479654,0.44752028783162434]},{"name":"tvmonitor","coordinates":[0.7587960852541803,0.48384297688802086,0.159116711094627,0.14323867162068685]},{"name":"clock","coordinates":[0.49434599773810217,0.1408869425455729,0.07001384024981364,0.08426820437113444]},{"name":"pottedplant","coordinates":[0.7717391353996141,0.2561682383219401,0.03620515257761343,0.05478439728418986]},{"name":"pottedplant","coordinates":[0.8031937658954046,0.2600017865498861,0.03443682807087341,0.05463360945383708]},{"name":"vase","coordinates":[0.30349100539347523,0.5604771931966146,0.03375392232240083,0.05547891060511271]}]}
