{"src":"https://a0.muscache.com/im/pictures/5a55e945-b6a3-4595-87b5-d8936913dedd.jpg?aki_policy=xx_large","name":"Apartment w/ Private Terrace &amp; scenic volcano view","listingId":20235328,"photoId":"986-2","tags":[{"name":"sofa","coordinates":[0.20242206237655191,0.7454439163208008,0.36403307545176117,0.46552286148071287]},{"name":"chair","coordinates":[0.5158679465587378,0.5341960906982421,0.10010174363066686,0.2131028652191162]},{"name":"chair","coordinates":[0.43486754314804366,0.5394854227701823,0.0964499215957722,0.22106421788533528]},{"name":"tvmonitor","coordinates":[0.8037070797474605,0.3969620704650879,0.1588339019844279,0.13329427242279052]},{"name":"clock","coordinates":[0.6898113908042937,0.11585546334584554,0.03860454975527153,0.07437231540679931]},{"name":"vase","coordinates":[0.6864493594661164,0.4245199203491211,0.03409929469261428,0.07850279808044433]},{"name":"vase","coordinates":[0.6854446904833287,0.4304261843363444,0.023818639636129433,0.04953102668126424]},{"name":"cup","coordinates":[0.5130715352238525,0.4341827074686686,0.019679414678821894,0.02341551979382833]}]}
