{"src":"https://a0.muscache.com/im/pictures/5a55e945-b6a3-4595-87b5-d8936913dedd.jpg?aki_policy=xx_large","name":"Apartment w/ Private Terrace &amp; scenic volcano view","listingId":20235328,"photoId":"986-2","tags":[{"name":"sofa","coordinates":[0.18681869506835938,0.7454439163208008,0.3359721925523546,0.46552286148071287]},{"name":"chair","coordinates":[0.4761031256781684,0.5341960906982421,0.09238556755913628,0.2131028652191162]},{"name":"chair","coordinates":[0.4013465033637153,0.5394854227701823,0.08901524013943142,0.22106421788533528]},{"name":"tvmonitor","coordinates":[0.741754659016927,0.3969620704650879,0.14659045537312826,0.13329427242279052]},{"name":"clock","coordinates":[0.636638429429796,0.11585546334584554,0.03562878237830268,0.07437231540679931]},{"name":"vase","coordinates":[0.6335355546739366,0.4245199203491211,0.03147080739339193,0.07850279808044433]},{"name":"vase","coordinates":[0.6326083289252387,0.4304261843363444,0.02198261949751112,0.04953102668126424]},{"name":"cup","coordinates":[0.4735222710503472,0.4341827074686686,0.01816245979732937,0.02341551979382833]}]}
