{"src":"https://a0.muscache.com/im/pictures/0530bc8e-b9d7-490b-9514-dcd70e707b79.jpg?aki_policy=xx_large","name":"在大台北絕對豪華舒適的經濟雙人冷氣房間 (近景安、南勢角捷運站)","listingId":20243527,"photoId":"987-11","tags":[{"name":"motorbike","coordinates":[0.8099057939317491,0.776506757736206,0.1960134718153212,0.18477767308553059]},{"name":"motorbike","coordinates":[0.46882580651177297,0.8118709802627564,0.1480243682861328,0.15035700798034668]},{"name":"pottedplant","coordinates":[0.004387214448716911,0.7310581525166829,0.08786334991455078,0.184660275777181]},{"name":"bicycle","coordinates":[0.636661720275879,0.7467989126841227,0.10560544331868489,0.13192199071248373]},{"name":"person","coordinates":[0.084816312789917,0.7550912221272787,0.04770023557874892,0.15338274637858074]},{"name":"motorbike","coordinates":[0.1339314964082506,0.7694266478220622,0.04540880521138509,0.12470680872599284]}]}
