{"src":"https://a0.muscache.com/im/pictures/c583104c-9095-45ad-a672-c290a918d63a.jpg?aki_policy=xx_large","name":"在大台北絕對豪華舒適的經濟雙人冷氣房間 (近景安、南勢角捷運站)","listingId":20243527,"photoId":"987-5","tags":[{"name":"sofa","coordinates":[0.6269691294775142,0.559780216217041,0.3806480446668718,0.4092045466105143]},{"name":"diningtable","coordinates":[0.3758982874719354,0.7176672061284384,0.2095121220895446,0.2624127546946208]},{"name":"chair","coordinates":[0.1809928665884562,0.6897270997365316,0.11752902531084747,0.2938444455464681]},{"name":"pottedplant","coordinates":[0.23850970612573938,0.5493408441543579,0.07930366076490986,0.13480194409688315]},{"name":"book","coordinates":[0.477236474368974,0.8211276908715566,0.07318216514448281,0.05843088229497274]},{"name":"vase","coordinates":[0.5815790609057848,0.6497070968151092,0.023870068862436464,0.05826657215754191]}]}
