{"src":"https://a0.muscache.com/im/pictures/0530bc8e-b9d7-490b-9514-dcd70e707b79.jpg?aki_policy=xx_large","name":"在大台北絕對豪華舒適的經濟雙人冷氣房間 (近景安、南勢角捷運站)","listingId":20243527,"photoId":"987-11","tags":[{"name":"motorbike","coordinates":[0.9079125298394097,0.8688955942789713,0.1960134718153212,0.18477767308553059]},{"name":"motorbike","coordinates":[0.5428379906548394,0.8870494842529297,0.1480243682861328,0.15035700798034668]},{"name":"pottedplant","coordinates":[0.0483188894059923,0.8233882904052734,0.08786334991455078,0.184660275777181]},{"name":"bicycle","coordinates":[0.6894644419352214,0.8127599080403646,0.10560544331868489,0.13192199071248373]},{"name":"person","coordinates":[0.10866643057929146,0.8317825953165691,0.04770023557874892,0.15338274637858074]},{"name":"motorbike","coordinates":[0.15663589901394315,0.8317800521850586,0.04540880521138509,0.12470680872599284]}]}
