{"src":"https://a0.muscache.com/im/pictures/d75d3ee5-202e-4423-acaf-27939e4f9dc7.jpg?aki_policy=xx_large","name":"Private Room + Breakfast + Two wheeler on Rent","listingId":20253226,"photoId":"988-13","tags":[{"name":"person","coordinates":[0.11299001905653211,0.08360551198323568,0.48067020840115016,0.8467238108317058]},{"name":"person","coordinates":[0.5111301210191515,0.08034998575846358,0.3913286421034071,0.9397684733072916]},{"name":"bowl","coordinates":[0.3028251436021593,0.7873915592829387,0.3710409800211589,0.20402814547220866]},{"name":"bottle","coordinates":[0.5704170968797472,0.8878825545310974,0.10141705407036675,0.11078477700551351]},{"name":"cup","coordinates":[0.18844531906975642,0.9524282097816468,0.09901844660441081,0.04829719066619873]}]}
