{"src":"https://a0.muscache.com/im/pictures/3073f25c-5c15-450c-a1d4-ca296abb1b0d.jpg?aki_policy=xx_large","name":"Spacious room ideal for city and beach","listingId":24202262,"photoId":"988-0","tags":[{"name":"sofa","coordinates":[0.1964246326022678,0.8321746190388998,0.34762374030219184,0.31150379180908205]},{"name":"chair","coordinates":[0.1964246326022678,0.8321746190388998,0.34762374030219184,0.31150379180908205]},{"name":"chair","coordinates":[0.43137393527560763,0.7384924570719401,0.11147019068400064,0.2385663668314616]},{"name":"pottedplant","coordinates":[0.7192760043674045,0.5540831247965495,0.06723759439256456,0.10449914932250977]},{"name":"tvmonitor","coordinates":[0.5165126376681858,0.5822217305501302,0.07105281088087294,0.07879650592803955]},{"name":"pottedplant","coordinates":[0.3924579196506076,0.5756399154663085,0.041370209058125815,0.08966378370920818]},{"name":"vase","coordinates":[0.7149425082736545,0.5932792027791342,0.021959835953182644,0.04196309248606364]},{"name":"vase","coordinates":[0.39359681871202257,0.598865254720052,0.01919668515523275,0.03594441413879394]}]}
