{"src":"https://a0.muscache.com/im/pictures/03434e90-9067-4bd0-a55f-93cefd6416cc.jpg?aki_policy=xx_large","name":"Private Room + Breakfast + Two wheeler on Rent","listingId":20253226,"photoId":"988-3","tags":[{"name":"diningtable","coordinates":[0.9067064921061198,0.7118169784545898,0.926116943359375,0.5508520762125652]},{"name":"person","coordinates":[1.4809933132595485,0.5769689559936524,0.5903706868489583,0.537204360961914]},{"name":"person","coordinates":[1.4862918429904515,0.7909061431884765,0.5790365431043837,0.4023719787597656]},{"name":"person","coordinates":[0.34024132622612846,0.5646615346272786,0.44560474819607204,0.4739746411641439]},{"name":"person","coordinates":[1.190811241997613,0.47380568186442057,0.3373976813422309,0.3601677894592285]},{"name":"refrigerator","coordinates":[0.46677945454915365,0.21041719118754068,0.2989266501532661,0.3787025769551595]},{"name":"person","coordinates":[0.7011151631673177,0.3918025334676107,0.24067399766710068,0.2955259005228678]},{"name":"bowl","coordinates":[0.7583565606011284,0.7906545003255209,0.1402497715420193,0.09148807525634765]},{"name":"cup","coordinates":[0.8506718105740018,0.5622510274251302,0.05770264201694065,0.10732825597127278]},{"name":"cup","coordinates":[0.880391354031033,0.6584265391031902,0.0604682551489936,0.0696576197942098]},{"name":"cup","coordinates":[1.2010599772135417,0.7860429128011067,0.06011201010810004,0.06450074116388957]},{"name":"cup","coordinates":[0.8992200215657552,0.4517207145690918,0.061680613623725046,0.051225697994232176]},{"name":"bowl","coordinates":[0.7158680386013455,0.6844439188639323,0.07122085359361437,0.03234684467315674]},{"name":"pizza","coordinates":[1.0014039781358508,0.6169228871663411,0.05415180524190267,0.04011768102645874]}]}
