{"src":"https://a0.muscache.com/im/pictures/d75d3ee5-202e-4423-acaf-27939e4f9dc7.jpg?aki_policy=xx_large","name":"Private Room + Breakfast + Two wheeler on Rent","listingId":20253226,"photoId":"988-13","tags":[{"name":"person","coordinates":[0.3533251232571072,0.5069674173990886,0.48067020840115016,0.8467238108317058]},{"name":"person","coordinates":[0.7067944420708551,0.5502342224121094,0.3913286421034071,0.9397684733072916]},{"name":"bowl","coordinates":[0.4883456336127387,0.889405632019043,0.3710409800211589,0.20402814547220866]},{"name":"bottle","coordinates":[0.6211256239149305,0.9432749430338542,0.10141705407036675,0.11078477700551351]},{"name":"cup","coordinates":[0.2379545423719618,0.9765768051147461,0.09901844660441081,0.04829719066619873]}]}
