{"src":"https://a0.muscache.com/im/pictures/03434e90-9067-4bd0-a55f-93cefd6416cc.jpg?aki_policy=xx_large","name":"Private Room + Breakfast + Two wheeler on Rent","listingId":20253226,"photoId":"988-3","tags":[{"name":"diningtable","coordinates":[0.5100224018096924,0.7118169784545898,0.5209407806396484,0.5508520762125652]},{"name":"person","coordinates":[0.8330587387084961,0.5769689559936524,0.33208351135253905,0.537204360961914]},{"name":"person","coordinates":[0.8360391616821289,0.7909061431884765,0.32570805549621584,0.4023719787597656]},{"name":"person","coordinates":[0.19138574600219727,0.5646615346272786,0.2506526708602905,0.4739746411641439]},{"name":"person","coordinates":[0.6698313236236573,0.47380568186442057,0.18978619575500488,0.3601677894592285]},{"name":"refrigerator","coordinates":[0.2625634431838989,0.21041719118754068,0.16814624071121215,0.3787025769551595]},{"name":"person","coordinates":[0.3943772792816162,0.3918025334676107,0.13537912368774413,0.2955259005228678]},{"name":"bowl","coordinates":[0.4265755653381348,0.7906545003255209,0.07889049649238586,0.09148807525634765]},{"name":"cup","coordinates":[0.478502893447876,0.5622510274251302,0.03245773613452911,0.10732825597127278]},{"name":"cup","coordinates":[0.49522013664245607,0.6584265391031902,0.0340133935213089,0.0696576197942098]},{"name":"cup","coordinates":[0.6755962371826172,0.7860429128011067,0.03381300568580627,0.06450074116388957]},{"name":"cup","coordinates":[0.5058112621307373,0.4517207145690918,0.03469534516334534,0.051225697994232176]},{"name":"bowl","coordinates":[0.40267577171325686,0.6844439188639323,0.040061730146408084,0.03234684467315674]},{"name":"pizza","coordinates":[0.563289737701416,0.6169228871663411,0.03046039044857025,0.04011768102645874]}]}
