{"src":"https://z0.muscache.cn/im/pictures/4218de9d-b423-43ca-8bbf-84b8bdca322a.jpg?aki_policy=xx_large","name":"My Home 超赞(两室一厅)公寓分享","listingId":20261986,"photoId":"991-21","tags":[{"name":"tvmonitor","coordinates":[0.7776966518825955,0.2967262268066406,0.39769990709092884,0.5085328737894694]},{"name":"pottedplant","coordinates":[0.18538759019639756,0.583202870686849,0.25761049058702257,0.4043733278910319]},{"name":"sofa","coordinates":[0.20532578362358941,0.862781842549642,0.3335942586263021,0.28264261881510416]},{"name":"pottedplant","coordinates":[0.5652819315592448,0.5865597407023112,0.09627332687377929,0.2055164655049642]},{"name":"book","coordinates":[0.8491834004720052,0.6896123250325521,0.04379513528611925,0.020016721884409585]}]}
