{"src":"https://z0.muscache.cn/im/pictures/4218de9d-b423-43ca-8bbf-84b8bdca322a.jpg?aki_policy=xx_large","name":"My Home 超赞(两室一厅)公寓分享","listingId":20261986,"photoId":"991-25","tags":[{"name":"tvmonitor","coordinates":[0.5788466983371311,0.04245978991190591,0.39769990709092884,0.5085328737894694]},{"name":"pottedplant","coordinates":[0.05658234490288627,0.38101620674133296,0.25761049058702257,0.4043733278910319]},{"name":"sofa","coordinates":[0.038528654310438365,0.7214605331420899,0.3335942586263021,0.28264261881510416]},{"name":"pottedplant","coordinates":[0.5171452681223552,0.4838015079498291,0.09627332687377929,0.2055164655049642]},{"name":"book","coordinates":[0.8272858328289456,0.6796039640903473,0.04379513528611925,0.020016721884409585]}]}
