{"src":"https://a0.muscache.com/im/pictures/b5c46bd2-b3cb-4ded-a128-7dcdf3a6fde9.jpg?aki_policy=xx_large","name":"Valley casita","listingId":20269300,"photoId":"992-6","tags":[{"name":"chair","coordinates":[0.13308710522121855,0.6932662645975749,0.2717673195732964,0.28384838104248045]},{"name":"chair","coordinates":[0.03700460327996148,0.566476027170817,0.1643668598598904,0.3060349146525065]},{"name":"oven","coordinates":[0.6952400949266222,0.49187528292338056,0.19501989152696397,0.17644561131795247]},{"name":"chair","coordinates":[0.6075572384728326,0.5584132830301921,0.07583901087443033,0.37389469146728516]},{"name":"pottedplant","coordinates":[0.2182063897450765,0.5645468393961588,0.11515434053209093,0.12388585408528646]},{"name":"bowl","coordinates":[0.4053935315873888,0.5358049114545187,0.11675666173299154,0.027414759000142414]}]}
