{"src":"https://a0.muscache.com/im/pictures/9372a886-24ad-490f-aa84-3fe4511f1515.jpg?aki_policy=xx_large","name":"Spacious apartment near the Hague","listingId":24254493,"photoId":"992-1","tags":[{"name":"diningtable","coordinates":[0.7212972164154052,0.7961416244506836,0.26747903823852537,0.3993011474609375]},{"name":"chair","coordinates":[0.5886739730834961,0.7802994410196941,0.20653395652770995,0.36421209971110025]},{"name":"sofa","coordinates":[0.43672995567321776,0.5890209833780925,0.29624290466308595,0.213200839360555]},{"name":"chair","coordinates":[0.4916353225708008,0.6905834833780925,0.06116231679916382,0.2274668534596761]},{"name":"tvmonitor","coordinates":[0.17727445363998412,0.39920403162638346,0.06299139261245727,0.07028543949127197]},{"name":"chair","coordinates":[0.6868509769439697,0.5809865315755208,0.05892875790596008,0.05978910128275553]}]}
