{"src":"https://a0.muscache.com/im/pictures/a7aefd18-09df-4e5e-944c-88fec37a90ed.jpg?aki_policy=xx_large","name":"Spacious apartment near the Hague","listingId":24254493,"photoId":"992-6","tags":[{"name":"sofa","coordinates":[0.710858154296875,0.797036616007487,0.9122890048556858,0.39153788884480795]},{"name":"sofa","coordinates":[0.12715579138861763,0.7899889628092448,0.269944339328342,0.353914483388265]},{"name":"diningtable","coordinates":[0.9841773986816407,0.5687777201334635,0.2998067643907335,0.11307555039723714]},{"name":"chair","coordinates":[0.9087432861328125,0.5905144373575847,0.10837508307562935,0.050733757019042966]},{"name":"clock","coordinates":[1.203495364718967,0.3435035705566406,0.058812650044759114,0.04231409231821696]}]}
