{"src":"https://a0.muscache.com/im/pictures/b5c46bd2-b3cb-4ded-a128-7dcdf3a6fde9.jpg?aki_policy=xx_large","name":"Valley casita","listingId":20269300,"photoId":"992-6","tags":[{"name":"chair","coordinates":[0.26897076500786676,0.8351904551188151,0.2717673195732964,0.28384838104248045]},{"name":"chair","coordinates":[0.11918803320990669,0.7194934844970703,0.1643668598598904,0.3060349146525065]},{"name":"oven","coordinates":[0.7927500406901041,0.5800980885823568,0.19501989152696397,0.17644561131795247]},{"name":"chair","coordinates":[0.6454767439100477,0.7453606287638347,0.07583901087443033,0.37389469146728516]},{"name":"pottedplant","coordinates":[0.275783560011122,0.626489766438802,0.11515434053209093,0.12388585408528646]},{"name":"bowl","coordinates":[0.4637718624538846,0.5495122909545899,0.11675666173299154,0.027414759000142414]}]}
