{"src":"https://a0.muscache.com/im/pictures/d616b479-a32d-4cdc-a1ba-9e22186cae60.jpg?aki_policy=xx_large","name":"Quarto com jardim de inverno e garagem.","listingId":20284419,"photoId":"995-7","tags":[{"name":"sofa","coordinates":[0.06599526405334472,0.5676737308502198,0.31009645462036134,0.2700343132019043]},{"name":"chair","coordinates":[0.2514623999595642,0.767238179842631,0.3300729036331177,0.23319814999898275]},{"name":"book","coordinates":[0.6999823093414306,0.7645867029825847,0.11673555374145508,0.07145258585611979]},{"name":"book","coordinates":[0.7055724024772644,0.7141879697640737,0.10451529026031495,0.048400819301605225]},{"name":"book","coordinates":[0.8340150415897369,0.8412115017573039,0.07917813062667847,0.06193874677022298]},{"name":"book","coordinates":[0.8515771716833115,0.762111226717631,0.07254508137702942,0.055585845311482744]},{"name":"book","coordinates":[0.7155698746442795,0.7010365068912505,0.08797779679298401,0.04486492872238159]},{"name":"bottle","coordinates":[0.9176756739616394,0.6202268719673157,0.023578476905822755,0.10424408117930094]}]}
