{"src":"https://a0.muscache.com/im/pictures/d616b479-a32d-4cdc-a1ba-9e22186cae60.jpg?aki_policy=xx_large","name":"Quarto com jardim de inverno e garagem.","listingId":20284419,"photoId":"995-7","tags":[{"name":"sofa","coordinates":[0.22104349136352539,0.7026908874511719,0.31009645462036134,0.2700343132019043]},{"name":"chair","coordinates":[0.41649885177612306,0.8838372548421224,0.3300729036331177,0.23319814999898275]},{"name":"book","coordinates":[0.7583500862121582,0.8003129959106445,0.11673555374145508,0.07145258585611979]},{"name":"book","coordinates":[0.7578300476074219,0.7383883794148763,0.10451529026031495,0.048400819301605225]},{"name":"book","coordinates":[0.8736041069030762,0.8721808751424154,0.07917813062667847,0.06193874677022298]},{"name":"book","coordinates":[0.8878497123718262,0.7899041493733724,0.07254508137702942,0.055585845311482744]},{"name":"book","coordinates":[0.7595587730407715,0.7234689712524414,0.08797779679298401,0.04486492872238159]},{"name":"bottle","coordinates":[0.9294649124145508,0.6723489125569662,0.023578476905822755,0.10424408117930094]}]}
