{"src":"https://a0.muscache.com/im/pictures/26a4b368-79b7-40b4-aafb-2465bc71f3f6.jpg?aki_policy=xx_large","name":"|| The Comfy South Shore || Convenient ~ Relaxing","listingId":20285064,"photoId":"996-5","tags":[{"name":"diningtable","coordinates":[0.32178730964660646,0.7438512166341146,0.5988039493560791,0.39689785639444985]},{"name":"chair","coordinates":[0.47984986305236815,0.8423385620117188,0.24475369453430176,0.3016093889872233]},{"name":"chair","coordinates":[0.09848636984825135,0.7256113688151041,0.13068342208862305,0.4561868667602539]},{"name":"chair","coordinates":[0.25278620719909667,0.8450941721598307,0.1901343822479248,0.31193326314290365]},{"name":"pottedplant","coordinates":[0.2548119783401489,0.2629423459370931,0.12238960266113282,0.3012431780497233]},{"name":"pottedplant","coordinates":[0.5913865566253662,0.5382049560546875,0.06819561123847961,0.08181613286336263]},{"name":"banana","coordinates":[0.33481950759887696,0.6615116755167644,0.09955915212631225,0.05443976720174153]},{"name":"vase","coordinates":[0.4521967887878418,0.46763680775960287,0.03192448616027832,0.11670507589975992]}]}
