{"src":"https://a0.muscache.com/im/pictures/32252374/77eda642_original.jpg?aki_policy=xx_large","name":"SUPERHOST: centrally in historic center","listingId":2429172,"photoId":"996-8","tags":[{"name":"oven","coordinates":[0.851023440890842,0.8044091542561849,0.1834459940592448,0.36192557017008464]},{"name":"sink","coordinates":[0.5815801832411024,0.5627818425496419,0.1702484236823188,0.056278121471405027]},{"name":"pottedplant","coordinates":[0.2718802981906467,0.29460783004760743,0.048948346243964304,0.11836894353230794]},{"name":"bottle","coordinates":[0.7128098381890191,0.5121278762817383,0.03179646068149143,0.1226377010345459]},{"name":"bottle","coordinates":[0.737584940592448,0.515716552734375,0.02604966958363851,0.12703382968902588]},{"name":"bottle","coordinates":[0.5792161729600694,0.48750069936116536,0.028466349177890354,0.0995388905207316]}]}
