{"src":"https://a0.muscache.com/im/pictures/25183115-e742-47da-acbc-90405dfa501b.jpg?aki_policy=xx_large","name":"Fulitai International Hotel Yantai University","listingId":20288473,"photoId":"997-4","tags":[{"name":"microwave","coordinates":[1.4517201029878257,0.8457941691080729,0.48565460330664867,0.2840061823527018]},{"name":"chair","coordinates":[0.10789407068155757,0.629927126566569,0.15188695962536972,0.17719618479410806]},{"name":"chair","coordinates":[0.25014859004602835,0.622561264038086,0.1347530244636274,0.13901354471842448]},{"name":"pottedplant","coordinates":[0.31492317524139446,0.518699836730957,0.09108650406365205,0.11913578510284424]},{"name":"sink","coordinates":[0.6218907234600052,0.6709029515584309,0.18266520349740656,0.043953649202982586]}]}
