{"src":"https://a0.muscache.com/im/pictures/2f37b776-1b22-40ab-9ef5-a24a8909c824.jpg?aki_policy=xx_large","name":"Fulitai International Hotel Yantai University","listingId":20288473,"photoId":"997-4","tags":[{"name":"chair","coordinates":[0.05210915207862853,0.707742198308309,0.09300272464752198,0.23832000096638997]},{"name":"pottedplant","coordinates":[0.637479567527771,0.6845371643702189,0.09826130867004394,0.19736777941385905]},{"name":"chair","coordinates":[-0.00028338432312011164,0.7533607165018718,0.06619834303855895,0.23709786732991536]},{"name":"tvmonitor","coordinates":[0.5143759489059448,0.6324865937232972,0.10296492576599121,0.11137136618296305]},{"name":"vase","coordinates":[0.44605509489774703,0.6376229445139566,0.016578450798988342,0.040925248463948564]}]}
