{"src":"https://a0.muscache.com/im/pictures/cfd2280b-1bb0-4cf8-8fc0-55b2efd556bc.jpg?aki_policy=xx_large","name":"Chic appartement pour séjourné à Errahma-Casa.","listingId":20290039,"photoId":"998-2","tags":[{"name":"bed","coordinates":[0.6358008490668403,0.6367872873942058,0.6767864227294922,0.5178262074788411]},{"name":"bed","coordinates":[0.19999381171332464,0.748729960123698,0.38254241943359374,0.4540733337402344]},{"name":"sofa","coordinates":[0.16705219480726455,0.49214874903361,0.32614767286512586,0.32060228983561195]},{"name":"chair","coordinates":[0.16705219480726455,0.49214874903361,0.32614767286512586,0.32060228983561195]},{"name":"tvmonitor","coordinates":[0.3813465542263455,0.21574676831563314,0.3223128424750434,0.1652651309967041]},{"name":"tvmonitor","coordinates":[0.37574327256944445,0.20309433937072754,0.2062746047973633,0.09937777519226074]},{"name":"person","coordinates":[0.37574327256944445,0.20309433937072754,0.2062746047973633,0.09937777519226074]}]}
